{"cityCode":"440100","year":2000,"stations":[{"stationName":"广州西塱(地铁站)","station_id":"广州西塱(地铁站)_23.06821_113.22651","lineId":"广州地铁10号线 / 广州地铁1号线 / 广州地铁22号线 / 广州广州广佛线(新城东--沥滘)","lat":23.068209426000003,"lon":113.226507804,"area_km2":1.6968,"D":0.4017,"C":0.6494,"T":0.2485,"U1":0.4374,"U2":0.0595,"couplingDegree":0.4017,"level":"勉强协调","road_density":26.3285,"walk_accessibility":0.3402,"metro_line_density":6.9731,"station_count":1,"line_count":4,"population_density":25326.5116,"poi_density":0.0,"poi_diversity":0.0,"gdp_density":0.0,"P":25326.5116,"I":0.0,"G":0.0},{"stationName":"广州坑口(地铁站)","station_id":"广州坑口(地铁站)_23.08157_113.22717","lineId":"广州地铁1号线","lat":23.08157413,"lon":113.22717253,"area_km2":2.5888,"D":0.0,"C":0.0,"T":0.1148,"U1":0.2296,"U2":0.0,"couplingDegree":0.0,"level":"极度失调","road_density":29.5079,"walk_accessibility":0.519,"metro_line_density":3.535,"station_count":2,"line_count":1,"population_density":3047.0086,"poi_density":0.0,"poi_diversity":0.0,"gdp_density":0.0,"P":3047.0086,"I":0.0,"G":0.0},{"stationName":"广州花地湾(地铁站)","station_id":"广州花地湾(地铁站)_23.08975_113.22871","lineId":"广州地铁1号线","lat":23.08974785,"lon":113.22870587,"area_km2":2.6639,"D":0.2275,"C":0.3421,"T":0.1512,"U1":0.2934,"U2":0.0091,"couplingDegree":0.2275,"level":"中度失调","road_density":33.1286,"walk_accessibility":0.5341,"metro_line_density":4.8753,"station_count":2,"line_count":1,"population_density":6462.2745,"poi_density":0.0,"poi_diversity":0.0,"gdp_density":0.0,"P":6462.2745,"I":0.0,"G":0.0},{"stationName":"广州芳村(地铁站)","station_id":"广州芳村(地铁站)_23.10157_113.23069","lineId":"广州地铁11号线 / 广州地铁1号线 / 广州地铁22号线","lat":23.101569972,"lon":113.230690944,"area_km2":2.4325,"D":0.4489,"C":0.816,"T":0.2469,"U1":0.3897,"U2":0.1042,"couplingDegree":0.4489,"level":"勉强协调","road_density":29.65,"walk_accessibility":0.4877,"metro_line_density":6.7234,"station_count":1,"line_count":3,"population_density":42038.7176,"poi_density":0.0,"poi_diversity":0.0,"gdp_density":0.0,"P":42038.7176,"I":0.0,"G":0.0},{"stationName":"广州黄沙(地铁站)","station_id":"广州黄沙(地铁站)_23.11242_113.23510","lineId":"广州地铁1号线 / 广州地铁6号线","lat":23.112418535000003,"lon":113.235100905,"area_km2":2.1562,"D":0.3496,"C":0.5829,"T":0.2096,"U1":0.38,"U2":0.0393,"couplingDegree":0.3496,"level":"中度失调","road_density":32.1177,"walk_accessibility":0.4323,"metro_line_density":5.4232,"station_count":2,"line_count":2,"population_density":17754.1233,"poi_density":0.0,"poi_diversity":0.0,"gdp_density":0.0,"P":17754.1233,"I":0.0,"G":0.0},{"stationName":"广州长寿路(地铁站)","station_id":"广州长寿路(地铁站)_23.12109_113.23695","lineId":"广州地铁1号线","lat":23.12108553,"lon":113.23694782499999,"area_km2":3.1815,"D":0.4656,"C":0.7783,"T":0.2786,"U1":0.4535,"U2":0.1036,"couplingDegree":0.4656,"level":"勉强协调","road_density":28.0217,"walk_accessibility":0.6379,"metro_line_density":2.2972,"station_count":3,"line_count":2,"population_density":41840.6517,"poi_density":0.0,"poi_diversity":0.0,"gdp_density":0.0,"P":41840.6517,"I":0.0,"G":0.0},{"stationName":"广州陈家祠(地铁站)","station_id":"广州陈家祠(地铁站)_23.12841_113.24111","lineId":"广州地铁1号线","lat":23.12840889,"lon":113.24111492,"area_km2":3.0666,"D":0.3991,"C":0.7298,"T":0.2183,"U1":0.3675,"U2":0.0691,"couplingDegree":0.3991,"level":"中度失调","road_density":30.341,"walk_accessibility":0.6148,"metro_line_density":2.8115,"station_count":3,"line_count":1,"population_density":28896.3832,"poi_density":0.0,"poi_diversity":0.0,"gdp_density":0.0,"P":28896.3832,"I":0.0,"G":0.0},{"stationName":"广州西门口(地铁站)","station_id":"广州西门口(地铁站)_23.12790_113.25050","lineId":"广州地铁1号线","lat":23.127900420000003,"lon":113.25050498,"area_km2":3.5231,"D":0.4508,"C":0.7793,"T":0.2608,"U1":0.4242,"U2":0.0974,"couplingDegree":0.4508,"level":"勉强协调","road_density":32.1814,"walk_accessibility":0.7064,"metro_line_density":3.6105,"station_count":3,"line_count":1,"population_density":39491.0112,"poi_density":0.0,"poi_diversity":0.0,"gdp_density":0.0,"P":39491.0112,"I":0.0,"G":0.0},{"stationName":"广州公园前(地铁站)","station_id":"广州公园前(地铁站)_23.12810_113.25885","lineId":"广州地铁1号线","lat":23.12809794,"lon":113.25885318,"area_km2":3.2838,"D":0.3905,"C":0.6224,"T":0.245,"U1":0.4367,"U2":0.0532,"couplingDegree":0.3905,"level":"中度失调","road_density":31.5047,"walk_accessibility":0.6584,"metro_line_density":5.1549,"station_count":3,"line_count":1,"population_density":22969.5304,"poi_density":0.0,"poi_diversity":0.0,"gdp_density":0.0,"P":22969.5304,"I":0.0,"G":0.0},{"stationName":"广州农讲所(地铁站)","station_id":"广州农讲所(地铁站)_23.12929_113.27026","lineId":"广州地铁1号线","lat":23.12929255,"lon":113.27026288,"area_km2":3.2668,"D":0.8329,"C":0.972,"T":0.7137,"U1":0.546,"U2":0.8814,"couplingDegree":0.8329,"level":"优质协调","road_density":32.2013,"walk_accessibility":0.655,"metro_line_density":4.7849,"station_count":3,"line_count":2,"population_density":37121.0927,"poi_density":0.0,"poi_diversity":0.0,"gdp_density":4939.5854,"P":37121.0927,"I":0.0,"G":4939.5854},{"stationName":"广州烈士陵园(地铁站)","station_id":"广州烈士陵园(地铁站)_23.12867_113.28080","lineId":"广州地铁12号线 / 广州地铁1号线","lat":23.12866966,"lon":113.28079735,"area_km2":2.9241,"D":0.4974,"C":0.6289,"T":0.3934,"U1":0.6992,"U2":0.0875,"couplingDegree":0.4974,"level":"勉强协调","road_density":34.1382,"walk_accessibility":0.5863,"metro_line_density":6.8814,"station_count":3,"line_count":3,"population_density":35802.5793,"poi_density":0.0,"poi_diversity":0.0,"gdp_density":0.0,"P":35802.5793,"I":0.0,"G":0.0},{"stationName":"广州东山口(地铁站)","station_id":"广州东山口(地铁站)_23.12652_113.29043","lineId":"广州地铁1号线 / 广州地铁6号线","lat":23.126521175,"lon":113.2904276,"area_km2":3.0671,"D":0.4927,"C":0.7219,"T":0.3362,"U1":0.5689,"U2":0.1036,"couplingDegree":0.4927,"level":"勉强协调","road_density":30.7666,"walk_accessibility":0.6149,"metro_line_density":7.5123,"station_count":2,"line_count":3,"population_density":41812.5322,"poi_density":0.0,"poi_diversity":0.0,"gdp_density":0.0,"P":41812.5322,"I":0.0,"G":0.0},{"stationName":"广州杨箕(地铁站)","station_id":"广州杨箕(地铁站)_23.13014_113.30283","lineId":"广州地铁1号线 / 广州地铁5号线","lat":23.130141115,"lon":113.30282725500001,"area_km2":2.2657,"D":0.4289,"C":0.764,"T":0.2408,"U1":0.3962,"U2":0.0854,"couplingDegree":0.4289,"level":"勉强协调","road_density":38.3154,"walk_accessibility":0.4543,"metro_line_density":9.104,"station_count":1,"line_count":2,"population_density":35020.2591,"poi_density":0.0,"poi_diversity":0.0,"gdp_density":0.0,"P":35020.2591,"I":0.0,"G":0.0},{"stationName":"广州体育西路(地铁站)","station_id":"广州体育西路(地铁站)_23.13542_113.31711","lineId":"广州地铁10号线 / 广州地铁1号线","lat":23.135422016666666,"lon":113.31710547333334,"area_km2":2.8779,"D":0.8717,"C":0.9808,"T":0.7747,"U1":0.6236,"U2":0.9258,"couplingDegree":0.8717,"level":"优质协调","road_density":45.0716,"walk_accessibility":0.577,"metro_line_density":9.8035,"station_count":2,"line_count":2,"population_density":14248.938,"poi_density":0.0,"poi_diversity":0.0,"gdp_density":5598.9134,"P":14248.938,"I":0.0,"G":5598.9134},{"stationName":"广州体育中心(地铁站)","station_id":"广州体育中心(地铁站)_23.13715_113.32295","lineId":"广州地铁1号线","lat":23.13715107,"lon":113.32294731,"area_km2":3.1275,"D":0.8366,"C":0.9796,"T":0.7145,"U1":0.5711,"U2":0.8579,"couplingDegree":0.8366,"level":"优质协调","road_density":41.9356,"walk_accessibility":0.6271,"metro_line_density":7.9619,"station_count":2,"line_count":2,"population_density":15619.2768,"poi_density":0.0,"poi_diversity":0.0,"gdp_density":5152.1025,"P":15619.2768,"I":0.0,"G":5152.1025},{"stationName":"广州广州东站(地铁站)","station_id":"广州广州东站(地铁站)_23.15339_113.31958","lineId":"广州地铁11号线 / 广州地铁18号线 / 广州地铁1号线 / 广州地铁3号线","lat":23.1533919375,"lon":113.3195788075,"area_km2":1.5228,"D":0.3418,"C":0.4185,"T":0.2791,"U1":0.5326,"U2":0.0256,"couplingDegree":0.3418,"level":"中度失调","road_density":34.2442,"walk_accessibility":0.3053,"metro_line_density":8.5864,"station_count":1,"line_count":4,"population_density":12635.6071,"poi_density":0.0,"poi_diversity":0.0,"gdp_density":0.0,"P":12635.6071,"I":0.0,"G":0.0}]}