{"cityCode":"440100","year":2015,"stations":[{"stationName":"广州西塱(地铁站)","station_id":"广州西塱(地铁站)_23.06821_113.22651","lineId":"广州地铁10号线 / 广州地铁1号线 / 广州地铁22号线 / 广州广州广佛线(新城东--沥滘)","lat":23.068209426000003,"lon":113.226507804,"area_km2":1.6968,"D":0.3182,"C":0.5661,"T":0.1789,"U1":0.3264,"U2":0.0314,"couplingDegree":0.3182,"level":"中度失调","road_density":26.3285,"walk_accessibility":0.3402,"metro_line_density":6.9731,"station_count":1,"line_count":4,"population_density":23119.4146,"poi_density":0.0,"poi_diversity":0.0,"gdp_density":0.0,"P":23119.4146,"I":0.0,"G":0.0},{"stationName":"广州坑口(地铁站)","station_id":"广州坑口(地铁站)_23.08157_113.22717","lineId":"广州地铁1号线","lat":23.08157413,"lon":113.22717253,"area_km2":2.5888,"D":0.2137,"C":0.5272,"T":0.0867,"U1":0.1603,"U2":0.013,"couplingDegree":0.2137,"level":"中度失调","road_density":29.5079,"walk_accessibility":0.519,"metro_line_density":3.535,"station_count":2,"line_count":1,"population_density":9579.4583,"poi_density":0.0,"poi_diversity":0.0,"gdp_density":0.0,"P":9579.4583,"I":0.0,"G":0.0},{"stationName":"广州花地湾(地铁站)","station_id":"广州花地湾(地铁站)_23.08975_113.22871","lineId":"广州地铁1号线","lat":23.08974785,"lon":113.22870587,"area_km2":2.6639,"D":0.2293,"C":0.5385,"T":0.0976,"U1":0.1799,"U2":0.0154,"couplingDegree":0.2293,"level":"中度失调","road_density":33.1286,"walk_accessibility":0.5341,"metro_line_density":4.8753,"station_count":2,"line_count":1,"population_density":11305.8835,"poi_density":0.0,"poi_diversity":0.0,"gdp_density":0.0,"P":11305.8835,"I":0.0,"G":0.0},{"stationName":"广州芳村(地铁站)","station_id":"广州芳村(地铁站)_23.10157_113.23069","lineId":"广州地铁11号线 / 广州地铁1号线 / 广州地铁22号线","lat":23.101569972,"lon":113.230690944,"area_km2":2.4325,"D":0.4076,"C":0.8936,"T":0.1859,"U1":0.2694,"U2":0.1025,"couplingDegree":0.4076,"level":"勉强协调","road_density":29.65,"walk_accessibility":0.4877,"metro_line_density":6.7234,"station_count":1,"line_count":3,"population_density":31297.2849,"poi_density":0.8222,"poi_diversity":0.6931,"gdp_density":0.0,"P":31297.2849,"I":0.8222,"G":0.0},{"stationName":"广州黄沙(地铁站)","station_id":"广州黄沙(地铁站)_23.11242_113.23510","lineId":"广州地铁1号线 / 广州地铁6号线","lat":23.112418535000003,"lon":113.235100905,"area_km2":2.1562,"D":0.5098,"C":0.9336,"T":0.2784,"U1":0.3782,"U2":0.1787,"couplingDegree":0.5098,"level":"勉强协调","road_density":32.1177,"walk_accessibility":0.4323,"metro_line_density":5.4232,"station_count":4,"line_count":2,"population_density":16714.3191,"poi_density":4.6378,"poi_diversity":1.6094,"gdp_density":0.0,"P":16714.3191,"I":4.6378,"G":0.0},{"stationName":"广州长寿路(地铁站)","station_id":"广州长寿路(地铁站)_23.12109_113.23695","lineId":"广州地铁1号线","lat":23.12108553,"lon":113.23694782499999,"area_km2":3.1815,"D":0.5775,"C":0.9954,"T":0.335,"U1":0.3673,"U2":0.3028,"couplingDegree":0.5775,"level":"勉强协调","road_density":28.0217,"walk_accessibility":0.6379,"metro_line_density":2.2972,"station_count":4,"line_count":2,"population_density":49229.621,"poi_density":6.6007,"poi_diversity":2.4666,"gdp_density":0.0,"P":49229.621,"I":6.6007,"G":0.0},{"stationName":"广州陈家祠(地铁站)","station_id":"广州陈家祠(地铁站)_23.12841_113.24111","lineId":"广州地铁1号线","lat":23.12840889,"lon":113.24111492,"area_km2":3.0666,"D":0.4741,"C":0.9995,"T":0.2248,"U1":0.2317,"U2":0.218,"couplingDegree":0.4741,"level":"勉强协调","road_density":30.341,"walk_accessibility":0.6148,"metro_line_density":2.8115,"station_count":3,"line_count":1,"population_density":36677.9345,"poi_density":2.2826,"poi_diversity":1.9459,"gdp_density":0.0,"P":36677.9345,"I":2.2826,"G":0.0},{"stationName":"广州西门口(地铁站)","station_id":"广州西门口(地铁站)_23.12790_113.25050","lineId":"广州地铁1号线","lat":23.127900420000003,"lon":113.25050498,"area_km2":3.5231,"D":0.6201,"C":0.9388,"T":0.4096,"U1":0.5507,"U2":0.2685,"couplingDegree":0.6201,"level":"良好协调","road_density":32.1814,"walk_accessibility":0.7064,"metro_line_density":3.6105,"station_count":4,"line_count":4,"population_density":54993.4158,"poi_density":5.3929,"poi_diversity":2.028,"gdp_density":0.0,"P":54993.4158,"I":5.3929,"G":0.0},{"stationName":"广州公园前(地铁站)","station_id":"广州公园前(地铁站)_23.12810_113.25885","lineId":"广州地铁1号线","lat":23.12809794,"lon":113.25885318,"area_km2":3.2838,"D":0.7195,"C":0.9302,"T":0.5565,"U1":0.7607,"U2":0.3523,"couplingDegree":0.7195,"level":"良好协调","road_density":31.5047,"walk_accessibility":0.6584,"metro_line_density":5.1549,"station_count":6,"line_count":5,"population_density":31581.8482,"poi_density":19.1852,"poi_diversity":2.419,"gdp_density":0.0,"P":31581.8482,"I":19.1852,"G":0.0},{"stationName":"广州农讲所(地铁站)","station_id":"广州农讲所(地铁站)_23.12929_113.27026","lineId":"广州地铁1号线","lat":23.12929255,"lon":113.27026288,"area_km2":3.2668,"D":0.8183,"C":0.9767,"T":0.6856,"U1":0.5384,"U2":0.8329,"couplingDegree":0.8183,"level":"优质协调","road_density":32.2013,"walk_accessibility":0.655,"metro_line_density":4.7849,"station_count":5,"line_count":3,"population_density":67058.4453,"poi_density":41.6307,"poi_diversity":2.6577,"gdp_density":273385.8833,"P":67058.4453,"I":41.6307,"G":273385.8833},{"stationName":"广州烈士陵园(地铁站)","station_id":"广州烈士陵园(地铁站)_23.12867_113.28080","lineId":"广州地铁12号线 / 广州地铁1号线","lat":23.12866966,"lon":113.28079735,"area_km2":2.9241,"D":0.846,"C":0.9853,"T":0.7263,"U1":0.8503,"U2":0.6023,"couplingDegree":0.846,"level":"优质协调","road_density":34.1382,"walk_accessibility":0.5863,"metro_line_density":6.8814,"station_count":6,"line_count":6,"population_density":60253.9386,"poi_density":50.272,"poi_diversity":2.6738,"gdp_density":0.0,"P":60253.9386,"I":50.272,"G":0.0},{"stationName":"广州东山口(地铁站)","station_id":"广州东山口(地铁站)_23.12652_113.29043","lineId":"广州地铁1号线 / 广州地铁6号线","lat":23.126521175,"lon":113.2904276,"area_km2":3.0671,"D":0.7249,"C":0.981,"T":0.5356,"U1":0.6395,"U2":0.4317,"couplingDegree":0.7249,"level":"良好协调","road_density":30.7666,"walk_accessibility":0.6149,"metro_line_density":7.5123,"station_count":4,"line_count":5,"population_density":65021.466,"poi_density":23.801,"poi_diversity":2.4896,"gdp_density":0.0,"P":65021.466,"I":23.801,"G":0.0},{"stationName":"广州杨箕(地铁站)","station_id":"广州杨箕(地铁站)_23.13014_113.30283","lineId":"广州地铁1号线 / 广州地铁5号线","lat":23.130141115,"lon":113.30282725500001,"area_km2":2.2657,"D":0.5481,"C":0.9362,"T":0.3209,"U1":0.4338,"U2":0.2081,"couplingDegree":0.5481,"level":"勉强协调","road_density":38.3154,"walk_accessibility":0.4543,"metro_line_density":9.104,"station_count":3,"line_count":3,"population_density":49363.8814,"poi_density":2.2068,"poi_diversity":1.6094,"gdp_density":0.0,"P":49363.8814,"I":2.2068,"G":0.0},{"stationName":"广州体育西路(地铁站)","station_id":"广州体育西路(地铁站)_23.13542_113.31711","lineId":"广州地铁10号线 / 广州地铁1号线","lat":23.135422016666666,"lon":113.31710547333334,"area_km2":2.8779,"D":0.66,"C":0.9745,"T":0.447,"U1":0.5474,"U2":0.3466,"couplingDegree":0.66,"level":"良好协调","road_density":45.0716,"walk_accessibility":0.577,"metro_line_density":9.8035,"station_count":3,"line_count":4,"population_density":17592.0021,"poi_density":4.1697,"poi_diversity":2.0228,"gdp_density":135812.6332,"P":17592.0021,"I":4.1697,"G":135812.6332},{"stationName":"广州体育中心(地铁站)","station_id":"广州体育中心(地铁站)_23.13715_113.32295","lineId":"广州地铁1号线","lat":23.13715107,"lon":113.32294731,"area_km2":3.1275,"D":0.6842,"C":0.9918,"T":0.472,"U1":0.5323,"U2":0.4117,"couplingDegree":0.6842,"level":"良好协调","road_density":41.9356,"walk_accessibility":0.6271,"metro_line_density":7.9619,"station_count":3,"line_count":4,"population_density":28883.9433,"poi_density":9.9121,"poi_diversity":2.3435,"gdp_density":124974.3582,"P":28883.9433,"I":9.9121,"G":124974.3582},{"stationName":"广州广州东站(地铁站)","station_id":"广州广州东站(地铁站)_23.15339_113.31958","lineId":"广州地铁11号线 / 广州地铁18号线 / 广州地铁1号线 / 广州地铁3号线","lat":23.1533919375,"lon":113.3195788075,"area_km2":1.5228,"D":0.6581,"C":0.8545,"T":0.5069,"U1":0.7702,"U2":0.2436,"couplingDegree":0.6581,"level":"良好协调","road_density":34.2442,"walk_accessibility":0.3053,"metro_line_density":8.5864,"station_count":5,"line_count":6,"population_density":31549.9438,"poi_density":6.567,"poi_diversity":2.0253,"gdp_density":0.0,"P":31549.9438,"I":6.567,"G":0.0},{"stationName":"广州广州南站(地铁站)","station_id":"广州广州南站(地铁站)_22.99152_113.26361","lineId":"广州地铁2号线 / 广州地铁7号线","lat":22.991516100000002,"lon":113.26360775,"area_km2":1.6,"D":0.2407,"C":0.4968,"T":0.1167,"U1":0.2179,"U2":0.0154,"couplingDegree":0.2407,"level":"中度失调","road_density":30.0987,"walk_accessibility":0.3208,"metro_line_density":2.7638,"station_count":2,"line_count":2,"population_density":243.7452,"poi_density":0.0,"poi_diversity":0.0,"gdp_density":14956.5828,"P":243.7452,"I":0.0,"G":14956.5828},{"stationName":"广州石壁(地铁站)","station_id":"广州石壁(地铁站)_22.99687_113.27331","lineId":"广州地铁2号线 / 广州地铁7号线","lat":22.996867006666665,"lon":113.27331355000001,"area_km2":1.477,"D":0.0875,"C":0.0728,"T":0.105,"U1":0.2098,"U2":0.0003,"couplingDegree":0.0875,"level":"极度失调","road_density":29.1067,"walk_accessibility":0.2961,"metro_line_density":2.2522,"station_count":2,"line_count":2,"population_density":205.1409,"poi_density":0.0,"poi_diversity":0.0,"gdp_density":0.0,"P":205.1409,"I":0.0,"G":0.0},{"stationName":"广州会江(地铁站)","station_id":"广州会江(地铁站)_23.01575_113.28105","lineId":"广州地铁2号线","lat":23.01575206,"lon":113.28104841,"area_km2":1.5662,"D":0.1093,"C":0.3977,"T":0.03,"U1":0.0575,"U2":0.0025,"couplingDegree":0.1093,"level":"极度失调","road_density":26.7174,"walk_accessibility":0.314,"metro_line_density":1.5746,"station_count":1,"line_count":1,"population_density":1821.5776,"poi_density":0.0,"poi_diversity":0.0,"gdp_density":0.0,"P":1821.5776,"I":0.0,"G":0.0},{"stationName":"广州南浦(地铁站)","station_id":"广州南浦(地铁站)_23.03562_113.28780","lineId":"广州地铁2号线","lat":23.03561612,"lon":113.28779802,"area_km2":2.0582,"D":0.1926,"C":0.5571,"T":0.0666,"U1":0.1218,"U2":0.0113,"couplingDegree":0.1926,"level":"极度失调","road_density":22.079,"walk_accessibility":0.4127,"metro_line_density":2.2901,"station_count":2,"line_count":1,"population_density":8303.2072,"poi_density":0.0,"poi_diversity":0.0,"gdp_density":0.0,"P":8303.2072,"I":0.0,"G":0.0},{"stationName":"广州洛溪(地铁站)","station_id":"广州洛溪(地铁站)_23.04557_113.29330","lineId":"广州地铁2号线","lat":23.04557025,"lon":113.29329905,"area_km2":2.2862,"D":0.2428,"C":0.7602,"T":0.0776,"U1":0.128,"U2":0.0272,"couplingDegree":0.2428,"level":"中度失调","road_density":23.4802,"walk_accessibility":0.4584,"metro_line_density":1.9207,"station_count":2,"line_count":1,"population_density":13466.3484,"poi_density":0.0,"poi_diversity":0.0,"gdp_density":8801.4377,"P":13466.3484,"I":0.0,"G":8801.4377},{"stationName":"广州南洲(地铁站)","station_id":"广州南洲(地铁站)_23.06705_113.29228","lineId":"广州地铁2号线 / 广州广州广佛线(新城东--沥滘)","lat":23.067046689999998,"lon":113.29228402999999,"area_km2":2.0158,"D":0.3075,"C":0.5495,"T":0.172,"U1":0.3158,"U2":0.0283,"couplingDegree":0.3075,"level":"中度失调","road_density":28.7488,"walk_accessibility":0.4042,"metro_line_density":5.4052,"station_count":2,"line_count":3,"population_density":20822.9095,"poi_density":0.0,"poi_diversity":0.0,"gdp_density":0.0,"P":20822.9095,"I":0.0,"G":0.0},{"stationName":"广州东晓南(地铁站)","station_id":"广州东晓南(地铁站)_23.07382_113.28831","lineId":"广州地铁10号线 / 广州地铁2号线","lat":23.073824185,"lon":113.288305735,"area_km2":2.4767,"D":0.4471,"C":0.9023,"T":0.2215,"U1":0.3171,"U2":0.126,"couplingDegree":0.4471,"level":"勉强协调","road_density":26.7811,"walk_accessibility":0.4966,"metro_line_density":5.1268,"station_count":2,"line_count":3,"population_density":41883.2573,"poi_density":0.0,"poi_diversity":0.0,"gdp_density":68525.925,"P":41883.2573,"I":0.0,"G":68525.925},{"stationName":"广州江泰路(地铁站)","station_id":"广州江泰路(地铁站)_23.08473_113.27448","lineId":"广州地铁11号线 / 广州地铁2号线","lat":23.084725855000002,"lon":113.27447567,"area_km2":1.8654,"D":0.4367,"C":0.9952,"T":0.1917,"U1":0.2105,"U2":0.1729,"couplingDegree":0.4367,"level":"勉强协调","road_density":24.5891,"walk_accessibility":0.374,"metro_line_density":3.3721,"station_count":2,"line_count":2,"population_density":31459.5342,"poi_density":3.7525,"poi_diversity":1.3518,"gdp_density":0.0,"P":31459.5342,"I":3.7525,"G":0.0},{"stationName":"广州昌岗(地铁站)","station_id":"广州昌岗(地铁站)_23.09278_113.27177","lineId":"广州地铁2号线","lat":23.092775465000003,"lon":113.271770785,"area_km2":2.862,"D":0.4815,"C":0.9696,"T":0.2391,"U1":0.2976,"U2":0.1806,"couplingDegree":0.4815,"level":"勉强协调","road_density":28.3273,"walk_accessibility":0.5738,"metro_line_density":2.2543,"station_count":3,"line_count":2,"population_density":44473.3254,"poi_density":3.1447,"poi_diversity":1.273,"gdp_density":0.0,"P":44473.3254,"I":3.1447,"G":0.0},{"stationName":"广州江南西(地铁站)","station_id":"广州江南西(地铁站)_23.09990_113.26858","lineId":"广州地铁2号线","lat":23.09989636,"lon":113.26858341,"area_km2":3.0765,"D":0.4869,"C":0.9991,"T":0.2373,"U1":0.2274,"U2":0.2472,"couplingDegree":0.4869,"level":"勉强协调","road_density":30.9584,"walk_accessibility":0.6168,"metro_line_density":1.7326,"station_count":3,"line_count":1,"population_density":47776.361,"poi_density":2.9254,"poi_diversity":1.273,"gdp_density":62954.4389,"P":47776.361,"I":2.9254,"G":62954.4389},{"stationName":"广州市二宫(地铁站)","station_id":"广州市二宫(地铁站)_23.10868_113.26456","lineId":"广州地铁2号线","lat":23.10867898,"lon":113.26455869,"area_km2":2.8643,"D":0.5225,"C":0.9939,"T":0.2747,"U1":0.305,"U2":0.2445,"couplingDegree":0.5225,"level":"勉强协调","road_density":31.105,"walk_accessibility":0.5743,"metro_line_density":2.1328,"station_count":3,"line_count":2,"population_density":60958.9438,"poi_density":1.0474,"poi_diversity":1.0986,"gdp_density":67619.973,"P":60958.9438,"I":1.0474,"G":67619.973},{"stationName":"广州海珠广场(地铁站)","station_id":"广州海珠广场(地铁站)_23.11743_113.26044","lineId":"广州地铁2号线 / 广州地铁6号线","lat":23.117431815000003,"lon":113.26044308499999,"area_km2":3.1122,"D":0.6013,"C":0.9424,"T":0.3837,"U1":0.5121,"U2":0.2553,"couplingDegree":0.6013,"level":"良好协调","road_density":27.0237,"walk_accessibility":0.624,"metro_line_density":3.3055,"station_count":5,"line_count":3,"population_density":50434.5555,"poi_density":5.1411,"poi_diversity":1.9601,"gdp_density":0.0,"P":50434.5555,"I":5.1411,"G":0.0},{"stationName":"广州纪念堂(地铁站)","station_id":"广州纪念堂(地铁站)_23.13473_113.25708","lineId":"广州地铁13号线 / 广州地铁2号线 / 广州地铁8号线","lat":23.134734716666667,"lon":113.25708422666666,"area_km2":3.0782,"D":0.7917,"C":0.9947,"T":0.6302,"U1":0.5655,"U2":0.6948,"couplingDegree":0.7917,"level":"良好协调","road_density":32.9765,"walk_accessibility":0.6172,"metro_line_density":7.1913,"station_count":4,"line_count":4,"population_density":56521.0648,"poi_density":21.7662,"poi_diversity":2.4222,"gdp_density":290141.6391,"P":56521.0648,"I":21.7662,"G":290141.6391},{"stationName":"广州越秀公园(地铁站)","station_id":"广州越秀公园(地铁站)_23.14244_113.25617","lineId":"广州地铁2号线","lat":23.14244166,"lon":113.25617401,"area_km2":2.5829,"D":0.6955,"C":0.918,"T":0.5268,"U1":0.7357,"U2":0.318,"couplingDegree":0.6955,"level":"良好协调","road_density":34.8451,"walk_accessibility":0.5179,"metro_line_density":7.5763,"station_count":3,"line_count":7,"population_density":47053.821,"poi_density":10.4535,"poi_diversity":2.3968,"gdp_density":0.0,"P":47053.821,"I":10.4535,"G":0.0},{"stationName":"广州广州火车站(地铁站)","station_id":"广州广州火车站(地铁站)_23.15084_113.25170","lineId":"广州地铁11号线 / 广州地铁14号线 / 广州地铁22号线 / 广州地铁2号线 / 广州地铁5号线","lat":23.15084483833333,"lon":113.25170346499999,"area_km2":2.3501,"D":0.6385,"C":0.8465,"T":0.4816,"U1":0.738,"U2":0.2252,"couplingDegree":0.6385,"level":"良好协调","road_density":37.1019,"walk_accessibility":0.4712,"metro_line_density":10.065,"station_count":4,"line_count":6,"population_density":52696.679,"poi_density":4.2552,"poi_diversity":1.6094,"gdp_density":0.0,"P":52696.679,"I":4.2552,"G":0.0},{"stationName":"广州三元里(地铁站)","station_id":"广州三元里(地铁站)_23.16207_113.25152","lineId":"广州地铁2号线","lat":23.1620706,"lon":113.25152331,"area_km2":1.9886,"D":0.6062,"C":0.8003,"T":0.4592,"U1":0.7345,"U2":0.1839,"couplingDegree":0.6062,"level":"良好协调","road_density":36.5183,"walk_accessibility":0.3987,"metro_line_density":10.9188,"station_count":4,"line_count":6,"population_density":62457.8557,"poi_density":2.5144,"poi_diversity":1.0549,"gdp_density":0.0,"P":62457.8557,"I":2.5144,"G":0.0},{"stationName":"广州飞翔公园(地铁站)","station_id":"广州飞翔公园(地铁站)_23.17149_113.25830","lineId":"广州地铁2号线","lat":23.1714946,"lon":113.2583034,"area_km2":1.3297,"D":0.3083,"C":0.8951,"T":0.1062,"U1":0.1536,"U2":0.0589,"couplingDegree":0.3083,"level":"中度失调","road_density":28.7009,"walk_accessibility":0.2666,"metro_line_density":6.8069,"station_count":2,"line_count":1,"population_density":43303.475,"poi_density":0.0,"poi_diversity":0.0,"gdp_density":0.0,"P":43303.475,"I":0.0,"G":0.0},{"stationName":"广州白云公园(地铁站)","station_id":"广州白云公园(地铁站)_23.18426_113.26563","lineId":"广州地铁2号线","lat":23.1842649,"lon":113.26562739,"area_km2":2.0487,"D":0.3719,"C":0.895,"T":0.1545,"U1":0.2235,"U2":0.0856,"couplingDegree":0.3719,"level":"中度失调","road_density":28.7257,"walk_accessibility":0.4108,"metro_line_density":2.9697,"station_count":2,"line_count":2,"population_density":18176.5599,"poi_density":0.9762,"poi_diversity":0.6931,"gdp_density":0.0,"P":18176.5599,"I":0.9762,"G":0.0},{"stationName":"广州白云文化广场(地铁站)","station_id":"广州白云文化广场(地铁站)_23.19388_113.27084","lineId":"广州地铁12号线 / 广州地铁2号线","lat":23.193875730000002,"lon":113.27084250499999,"area_km2":1.8818,"D":0.4042,"C":0.8468,"T":0.1929,"U1":0.2956,"U2":0.0903,"couplingDegree":0.4042,"level":"勉强协调","road_density":29.5813,"walk_accessibility":0.3773,"metro_line_density":4.4171,"station_count":3,"line_count":2,"population_density":4106.1717,"poi_density":1.0628,"poi_diversity":0.6931,"gdp_density":23120.93,"P":4106.1717,"I":1.0628,"G":23120.93},{"stationName":"广州萧岗(地铁站)","station_id":"广州萧岗(地铁站)_23.20122_113.27535","lineId":"广州地铁2号线","lat":23.20121738,"lon":113.27534695,"area_km2":1.6302,"D":0.3708,"C":0.8886,"T":0.1547,"U1":0.2257,"U2":0.0838,"couplingDegree":0.3708,"level":"中度失调","road_density":31.1829,"walk_accessibility":0.3269,"metro_line_density":3.4677,"station_count":2,"line_count":2,"population_density":15691.3219,"poi_density":1.2268,"poi_diversity":0.6931,"gdp_density":0.0,"P":15691.3219,"I":1.2268,"G":0.0},{"stationName":"广州江夏(地铁站)","station_id":"广州江夏(地铁站)_23.21393_113.27810","lineId":"广州地铁2号线","lat":23.21393056,"lon":113.27809704,"area_km2":1.9634,"D":0.3233,"C":0.935,"T":0.1118,"U1":0.1514,"U2":0.0721,"couplingDegree":0.3233,"level":"中度失调","road_density":33.4297,"walk_accessibility":0.3937,"metro_line_density":2.0582,"station_count":2,"line_count":1,"population_density":8069.5706,"poi_density":1.0186,"poi_diversity":0.6931,"gdp_density":0.0,"P":8069.5706,"I":1.0186,"G":0.0},{"stationName":"广州黄边(地铁站)","station_id":"广州黄边(地铁站)_23.22427_113.28202","lineId":"广州地铁2号线","lat":23.22426556,"lon":113.28201544999999,"area_km2":2.006,"D":0.3785,"C":0.7899,"T":0.1814,"U1":0.2926,"U2":0.0702,"couplingDegree":0.3785,"level":"中度失调","road_density":25.595,"walk_accessibility":0.4022,"metro_line_density":5.493,"station_count":3,"line_count":2,"population_density":6725.1744,"poi_density":0.997,"poi_diversity":0.6931,"gdp_density":0.0,"P":6725.1744,"I":0.997,"G":0.0},{"stationName":"广州嘉禾望岗(地铁站)","station_id":"广州嘉禾望岗(地铁站)_23.24006_113.28373","lineId":"广州地铁14号线 / 广州地铁2号线","lat":23.24006153,"lon":113.28373465,"area_km2":1.81,"D":0.1697,"C":0.3849,"T":0.0748,"U1":0.1439,"U2":0.0058,"couplingDegree":0.1697,"level":"极度失调","road_density":23.7737,"walk_accessibility":0.3629,"metro_line_density":3.5644,"station_count":1,"line_count":2,"population_density":4241.8814,"poi_density":0.0,"poi_diversity":0.0,"gdp_density":0.0,"P":4241.8814,"I":0.0,"G":0.0},{"stationName":"广州南庄(地铁站)","station_id":"广州南庄(地铁站)_22.98568_113.00127","lineId":"广州地铁2号线","lat":22.9856765,"lon":113.00126738,"area_km2":1.0821,"D":0.0,"C":0.0,"T":0.0149,"U1":0.0299,"U2":0.0,"couplingDegree":0.0,"level":"极度失调","road_density":18.5412,"walk_accessibility":0.2169,"metro_line_density":2.414,"station_count":1,"line_count":1,"population_density":0.0,"poi_density":0.0,"poi_diversity":0.0,"gdp_density":0.0,"P":0.0,"I":0.0,"G":0.0},{"stationName":"广州湖涌(地铁站)","station_id":"广州湖涌(地铁站)_23.00587_113.00606","lineId":"广州地铁2号线","lat":23.00586621,"lon":113.00605872,"area_km2":1.522,"D":0.0,"C":0.0,"T":0.0244,"U1":0.0488,"U2":0.0,"couplingDegree":0.0,"level":"极度失调","road_density":24.7763,"walk_accessibility":0.3052,"metro_line_density":1.172,"station_count":1,"line_count":1,"population_density":0.0,"poi_density":0.0,"poi_diversity":0.0,"gdp_density":0.0,"P":0.0,"I":0.0,"G":0.0},{"stationName":"广州绿岛湖(地铁站)","station_id":"广州绿岛湖(地铁站)_23.00462_113.02886","lineId":"广州地铁2号线","lat":23.00462025,"lon":113.02886193,"area_km2":1.4413,"D":0.0,"C":0.0,"T":0.0234,"U1":0.0468,"U2":0.0,"couplingDegree":0.0,"level":"极度失调","road_density":19.8971,"walk_accessibility":0.289,"metro_line_density":3.5049,"station_count":1,"line_count":1,"population_density":0.0,"poi_density":0.0,"poi_diversity":0.0,"gdp_density":0.0,"P":0.0,"I":0.0,"G":0.0},{"stationName":"广州智慧新城(地铁站)","station_id":"广州智慧新城(地铁站)_23.01375_113.04998","lineId":"广州地铁2号线","lat":23.01375057,"lon":113.04998269,"area_km2":1.4739,"D":0.0,"C":0.0,"T":0.0321,"U1":0.0642,"U2":0.0,"couplingDegree":0.0,"level":"极度失调","road_density":25.7561,"walk_accessibility":0.2955,"metro_line_density":3.4949,"station_count":1,"line_count":1,"population_density":0.0,"poi_density":0.0,"poi_diversity":0.0,"gdp_density":0.0,"P":0.0,"I":0.0,"G":0.0},{"stationName":"广州张槎(地铁站)","station_id":"广州张槎(地铁站)_23.01360_113.06229","lineId":"广州地铁2号线","lat":23.01360472,"lon":113.06228855,"area_km2":1.9482,"D":0.0,"C":0.0,"T":0.0337,"U1":0.0674,"U2":0.0,"couplingDegree":0.0,"level":"极度失调","road_density":25.3071,"walk_accessibility":0.3906,"metro_line_density":2.7477,"station_count":1,"line_count":1,"population_density":0.0,"poi_density":0.0,"poi_diversity":0.0,"gdp_density":0.0,"P":0.0,"I":0.0,"G":0.0},{"stationName":"广州石湾(地铁站)","station_id":"广州石湾(地铁站)_23.00785_113.07781","lineId":"广州地铁2号线","lat":23.00785134,"lon":113.07780596,"area_km2":1.8673,"D":0.0,"C":0.0,"T":0.0277,"U1":0.0554,"U2":0.0,"couplingDegree":0.0,"level":"极度失调","road_density":21.9283,"walk_accessibility":0.3744,"metro_line_density":2.6126,"station_count":1,"line_count":1,"population_density":0.0,"poi_density":0.0,"poi_diversity":0.0,"gdp_density":0.0,"P":0.0,"I":0.0,"G":0.0},{"stationName":"广州沙岗(地铁站)","station_id":"广州沙岗(地铁站)_22.99907_113.08876","lineId":"广州地铁2号线","lat":22.99907018,"lon":113.08876009,"area_km2":1.9,"D":0.0,"C":0.0,"T":0.0306,"U1":0.0613,"U2":0.0,"couplingDegree":0.0,"level":"极度失调","road_density":23.4604,"walk_accessibility":0.3809,"metro_line_density":2.7693,"station_count":1,"line_count":1,"population_density":0.0,"poi_density":0.0,"poi_diversity":0.0,"gdp_density":0.0,"P":0.0,"I":0.0,"G":0.0},{"stationName":"广州魁奇路(地铁站)","station_id":"广州魁奇路(地铁站)_22.99634_113.10313","lineId":"广州地铁2号线","lat":22.99634112,"lon":113.10312806,"area_km2":2.4573,"D":0.0,"C":0.0,"T":0.0727,"U1":0.1454,"U2":0.0,"couplingDegree":0.0,"level":"极度失调","road_density":24.125,"walk_accessibility":0.4927,"metro_line_density":4.0608,"station_count":2,"line_count":1,"population_density":0.0,"poi_density":0.0,"poi_diversity":0.0,"gdp_density":0.0,"P":0.0,"I":0.0,"G":0.0},{"stationName":"广州石梁(地铁站)","station_id":"广州石梁(地铁站)_22.99525_113.11326","lineId":"广州地铁2号线","lat":22.99525313,"lon":113.1132637,"area_km2":2.0501,"D":0.0,"C":0.0,"T":0.0633,"U1":0.1265,"U2":0.0,"couplingDegree":0.0,"level":"极度失调","road_density":22.3121,"walk_accessibility":0.411,"metro_line_density":3.0104,"station_count":2,"line_count":1,"population_density":0.0,"poi_density":0.0,"poi_diversity":0.0,"gdp_density":0.0,"P":0.0,"I":0.0,"G":0.0},{"stationName":"广州湾华(地铁站)","station_id":"广州湾华(地铁站)_22.99445_113.12618","lineId":"广州地铁2号线","lat":22.99444635,"lon":113.12617985,"area_km2":2.0562,"D":0.0,"C":0.0,"T":0.0287,"U1":0.0573,"U2":0.0,"couplingDegree":0.0,"level":"极度失调","road_density":21.5916,"walk_accessibility":0.4123,"metro_line_density":2.5123,"station_count":1,"line_count":1,"population_density":0.0,"poi_density":0.0,"poi_diversity":0.0,"gdp_density":0.0,"P":0.0,"I":0.0,"G":0.0},{"stationName":"广州登洲(地铁站)","station_id":"广州登洲(地铁站)_22.98190_113.14333","lineId":"广州地铁2号线","lat":22.98190002,"lon":113.14333221,"area_km2":2.007,"D":0.0,"C":0.0,"T":0.03,"U1":0.06,"U2":0.0,"couplingDegree":0.0,"level":"极度失调","road_density":23.4823,"walk_accessibility":0.4024,"metro_line_density":2.1999,"station_count":1,"line_count":1,"population_density":0.0,"poi_density":0.0,"poi_diversity":0.0,"gdp_density":0.0,"P":0.0,"I":0.0,"G":0.0},{"stationName":"广州花卉世界(地铁站)","station_id":"广州花卉世界(地铁站)_22.97602_113.15593","lineId":"广州地铁2号线","lat":22.97602016,"lon":113.15592703,"area_km2":2.0796,"D":0.0,"C":0.0,"T":0.0256,"U1":0.0512,"U2":0.0,"couplingDegree":0.0,"level":"极度失调","road_density":20.0667,"walk_accessibility":0.417,"metro_line_density":2.1333,"station_count":1,"line_count":1,"population_density":0.0,"poi_density":0.0,"poi_diversity":0.0,"gdp_density":0.0,"P":0.0,"I":0.0,"G":0.0},{"stationName":"广州仙涌(地铁站)","station_id":"广州仙涌(地铁站)_22.98570_113.19290","lineId":"广州地铁2号线","lat":22.9857025,"lon":113.19289673,"area_km2":1.92,"D":0.0,"C":0.0,"T":0.0259,"U1":0.0518,"U2":0.0,"couplingDegree":0.0,"level":"极度失调","road_density":20.6115,"walk_accessibility":0.3849,"metro_line_density":2.4744,"station_count":1,"line_count":1,"population_density":0.0,"poi_density":0.0,"poi_diversity":0.0,"gdp_density":0.0,"P":0.0,"I":0.0,"G":0.0},{"stationName":"广州石洲(地铁站)","station_id":"广州石洲(地铁站)_22.99331_113.21080","lineId":"广州地铁2号线","lat":22.99331114,"lon":113.21079849,"area_km2":2.0754,"D":0.0,"C":0.0,"T":0.025,"U1":0.05,"U2":0.0,"couplingDegree":0.0,"level":"极度失调","road_density":19.0232,"walk_accessibility":0.4161,"metro_line_density":2.4703,"station_count":1,"line_count":1,"population_density":0.0,"poi_density":0.0,"poi_diversity":0.0,"gdp_density":0.0,"P":0.0,"I":0.0,"G":0.0},{"stationName":"广州林岳西(地铁站)","station_id":"广州林岳西(地铁站)_22.99648_113.23184","lineId":"广州地铁2号线","lat":22.99647914,"lon":113.231844905,"area_km2":1.7857,"D":0.0,"C":0.0,"T":0.0315,"U1":0.0631,"U2":0.0,"couplingDegree":0.0,"level":"极度失调","road_density":23.8314,"walk_accessibility":0.358,"metro_line_density":3.2549,"station_count":1,"line_count":1,"population_density":0.0,"poi_density":0.0,"poi_diversity":0.0,"gdp_density":0.0,"P":0.0,"I":0.0,"G":0.0},{"stationName":"广州林岳东(2号线)(地铁站)","station_id":"广州林岳东(2号线)(地铁站)_22.99665_113.24438","lineId":"广州地铁2号线","lat":22.99664607,"lon":113.24437798,"area_km2":0.9744,"D":0.0,"C":0.0,"T":0.0374,"U1":0.0747,"U2":0.0,"couplingDegree":0.0,"level":"极度失调","road_density":29.1435,"walk_accessibility":0.1954,"metro_line_density":5.2301,"station_count":1,"line_count":1,"population_density":0.0,"poi_density":0.0,"poi_diversity":0.0,"gdp_density":0.0,"P":0.0,"I":0.0,"G":0.0},{"stationName":"广州机场北(2号航站楼)(地铁站)","station_id":"广州机场北(2号航站楼)(地铁站)_23.39806_113.29862","lineId":"广州地铁22号线 / 广州地铁3号线","lat":23.398061685000002,"lon":113.298622825,"area_km2":0.7143,"D":0.0,"C":0.0,"T":0.1317,"U1":0.2635,"U2":0.0,"couplingDegree":0.0,"level":"极度失调","road_density":41.2013,"walk_accessibility":0.1432,"metro_line_density":7.9473,"station_count":2,"line_count":2,"population_density":0.0,"poi_density":0.0,"poi_diversity":0.0,"gdp_density":0.0,"P":0.0,"I":0.0,"G":0.0},{"stationName":"广州机场南(1号航站楼)(地铁站)","station_id":"广州机场南(1号航站楼)(地铁站)_23.38751_113.29649","lineId":"广州地铁22号线 / 广州地铁3号线","lat":23.387508816666667,"lon":113.29649164333334,"area_km2":0.777,"D":0.2038,"C":0.2832,"T":0.1466,"U1":0.2872,"U2":0.006,"couplingDegree":0.2038,"level":"中度失调","road_density":41.3371,"walk_accessibility":0.1558,"metro_line_density":11.7672,"station_count":2,"line_count":2,"population_density":4415.7212,"poi_density":0.0,"poi_diversity":0.0,"gdp_density":0.0,"P":4415.7212,"I":0.0,"G":0.0},{"stationName":"广州高增(地铁站)","station_id":"广州高增(地铁站)_23.35773_113.29012","lineId":"广州地铁3号线","lat":23.35773387,"lon":113.29012133,"area_km2":0.9267,"D":0.1011,"C":0.7756,"T":0.0132,"U1":0.0215,"U2":0.0049,"couplingDegree":0.1011,"level":"极度失调","road_density":19.0778,"walk_accessibility":0.1858,"metro_line_density":1.2005,"station_count":1,"line_count":1,"population_density":3578.3634,"poi_density":0.0,"poi_diversity":0.0,"gdp_density":0.0,"P":3578.3634,"I":0.0,"G":0.0},{"stationName":"广州人和(地铁站)","station_id":"广州人和(地铁站)_23.33824_113.28921","lineId":"广州地铁22号线 / 广州地铁3号线","lat":23.33823735,"lon":113.289210885,"area_km2":1.6594,"D":0.1847,"C":0.4539,"T":0.0752,"U1":0.1421,"U2":0.0082,"couplingDegree":0.1847,"level":"极度失调","road_density":20.6035,"walk_accessibility":0.3327,"metro_line_density":5.3169,"station_count":1,"line_count":2,"population_density":6024.962,"poi_density":0.0,"poi_diversity":0.0,"gdp_density":0.0,"P":6024.962,"I":0.0,"G":0.0},{"stationName":"广州龙归(地铁站)","station_id":"广州龙归(地铁站)_23.29132_113.29545","lineId":"广州地铁3号线","lat":23.291315230000002,"lon":113.29544661,"area_km2":2.0495,"D":0.1875,"C":0.9333,"T":0.0377,"U1":0.0512,"U2":0.0241,"couplingDegree":0.1875,"level":"极度失调","road_density":19.4525,"walk_accessibility":0.4109,"metro_line_density":2.54,"station_count":1,"line_count":1,"population_density":12049.4304,"poi_density":0.0,"poi_diversity":0.0,"gdp_density":7699.0469,"P":12049.4304,"I":0.0,"G":7699.0469},{"stationName":"广州白云大道北(地铁站)","station_id":"广州白云大道北(地铁站)_23.22475_113.29210","lineId":"广州地铁3号线","lat":23.224754485,"lon":113.292103325,"area_km2":2.446,"D":0.5031,"C":0.9849,"T":0.257,"U1":0.3015,"U2":0.2124,"couplingDegree":0.5031,"level":"勉强协调","road_density":32.1233,"walk_accessibility":0.4904,"metro_line_density":2.3756,"station_count":3,"line_count":2,"population_density":4955.0479,"poi_density":4.4972,"poi_diversity":2.0198,"gdp_density":17974.7226,"P":4955.0479,"I":4.4972,"G":17974.7226},{"stationName":"广州永泰(地铁站)","station_id":"广州永泰(地铁站)_23.22247_113.30084","lineId":"广州地铁3号线","lat":23.22247335,"lon":113.30084268,"area_km2":2.1658,"D":0.4219,"C":0.9856,"T":0.1806,"U1":0.15,"U2":0.2112,"couplingDegree":0.4219,"level":"勉强协调","road_density":30.8315,"walk_accessibility":0.4342,"metro_line_density":2.4664,"station_count":2,"line_count":1,"population_density":1479.8291,"poi_density":4.6173,"poi_diversity":2.0253,"gdp_density":20300.2077,"P":1479.8291,"I":4.6173,"G":20300.2077},{"stationName":"广州同和(地铁站)","station_id":"广州同和(地铁站)_23.19962_113.32083","lineId":"广州地铁3号线","lat":23.19962259,"lon":113.32083262,"area_km2":1.5674,"D":0.1595,"C":0.8615,"T":0.0295,"U1":0.0445,"U2":0.0145,"couplingDegree":0.1595,"level":"极度失调","road_density":18.9745,"walk_accessibility":0.3143,"metro_line_density":3.1701,"station_count":1,"line_count":1,"population_density":10698.2783,"poi_density":0.0,"poi_diversity":0.0,"gdp_density":0.0,"P":10698.2783,"I":0.0,"G":0.0},{"stationName":"广州京溪南方医院(地铁站)","station_id":"广州京溪南方医院(地铁站)_23.18779_113.32070","lineId":"广州地铁3号线","lat":23.1877933,"lon":113.32069648,"area_km2":1.5741,"D":0.2128,"C":0.9948,"T":0.0455,"U1":0.0502,"U2":0.0409,"couplingDegree":0.2128,"level":"中度失调","road_density":19.2015,"walk_accessibility":0.3156,"metro_line_density":4.0108,"station_count":1,"line_count":1,"population_density":27200.3716,"poi_density":0.6353,"poi_diversity":0.0,"gdp_density":0.0,"P":27200.3716,"I":0.6353,"G":0.0},{"stationName":"广州梅花园(地铁站)","station_id":"广州梅花园(地铁站)_23.17768_113.31499","lineId":"广州地铁3号线","lat":23.17767977,"lon":113.31498956,"area_km2":1.475,"D":0.2284,"C":0.9787,"T":0.0533,"U1":0.0424,"U2":0.0643,"couplingDegree":0.2284,"level":"中度失调","road_density":18.9193,"walk_accessibility":0.2957,"metro_line_density":3.1195,"station_count":1,"line_count":1,"population_density":47281.4011,"poi_density":0.0,"poi_diversity":0.0,"gdp_density":0.0,"P":47281.4011,"I":0.0,"G":0.0},{"stationName":"广州燕塘(地铁站)","station_id":"广州燕塘(地铁站)_23.16283_113.32163","lineId":"广州地铁3号线","lat":23.16283329,"lon":113.32162731,"area_km2":1.5528,"D":0.6392,"C":0.9662,"T":0.4228,"U1":0.5319,"U2":0.3138,"couplingDegree":0.6392,"level":"良好协调","road_density":28.413,"walk_accessibility":0.3113,"metro_line_density":6.0699,"station_count":3,"line_count":5,"population_density":60148.9082,"poi_density":0.644,"poi_diversity":0.0,"gdp_density":226230.0902,"P":60148.9082,"I":0.644,"G":226230.0902},{"stationName":"广州林和西(地铁站)","station_id":"广州林和西(地铁站)_23.14346_113.31823","lineId":"广州地铁3号线 / 广州广州APM线(广州塔--林和西)","lat":23.14346264,"lon":113.31822610500001,"area_km2":2.4249,"D":0.6634,"C":0.8901,"T":0.4945,"U1":0.7199,"U2":0.2691,"couplingDegree":0.6634,"level":"良好协调","road_density":34.7168,"walk_accessibility":0.4862,"metro_line_density":7.8899,"station_count":4,"line_count":6,"population_density":16373.5874,"poi_density":9.0724,"poi_diversity":2.4133,"gdp_density":0.0,"P":16373.5874,"I":9.0724,"G":0.0},{"stationName":"广州海傍(地铁站)","station_id":"广州海傍(地铁站)_22.94266_113.47033","lineId":"广州地铁3号线 / 广州地铁4号线","lat":22.942664164999997,"lon":113.47033204499999,"area_km2":1.2915,"D":0.0677,"C":0.0588,"T":0.078,"U1":0.1558,"U2":0.0001,"couplingDegree":0.0677,"level":"极度失调","road_density":32.5613,"walk_accessibility":0.2589,"metro_line_density":2.9158,"station_count":1,"line_count":2,"population_density":99.1134,"poi_density":0.0,"poi_diversity":0.0,"gdp_density":0.0,"P":99.1134,"I":0.0,"G":0.0},{"stationName":"广州海涌路(地铁站)","station_id":"广州海涌路(地铁站)_22.94459_113.45226","lineId":"广州地铁3号线","lat":22.94459027,"lon":113.45225741,"area_km2":0.8856,"D":0.072,"C":0.2124,"T":0.0244,"U1":0.0483,"U2":0.0006,"couplingDegree":0.072,"level":"极度失调","road_density":22.452,"walk_accessibility":0.1776,"metro_line_density":4.2764,"station_count":1,"line_count":1,"population_density":409.9136,"poi_density":0.0,"poi_diversity":0.0,"gdp_density":0.0,"P":409.9136,"I":0.0,"G":0.0},{"stationName":"广州石碁南(地铁站)","station_id":"广州石碁南(地铁站)_22.94076_113.43420","lineId":"广州地铁3号线","lat":22.94076249,"lon":113.43420182,"area_km2":0.9176,"D":0.1119,"C":0.439,"T":0.0285,"U1":0.0541,"U2":0.0029,"couplingDegree":0.1119,"level":"极度失调","road_density":21.6519,"walk_accessibility":0.184,"metro_line_density":5.5776,"station_count":1,"line_count":1,"population_density":2129.4018,"poi_density":0.0,"poi_diversity":0.0,"gdp_density":0.0,"P":2129.4018,"I":0.0,"G":0.0},{"stationName":"广州傍江(地铁站)","station_id":"广州傍江(地铁站)_22.93928_113.40457","lineId":"广州地铁3号线","lat":22.93927978,"lon":113.40456738,"area_km2":1.4073,"D":0.1438,"C":0.6818,"T":0.0303,"U1":0.0525,"U2":0.0081,"couplingDegree":0.1438,"level":"极度失调","road_density":21.9065,"walk_accessibility":0.2822,"metro_line_density":3.6037,"station_count":1,"line_count":1,"population_density":5990.1276,"poi_density":0.0,"poi_diversity":0.0,"gdp_density":0.0,"P":5990.1276,"I":0.0,"G":0.0},{"stationName":"广州番禺广场(地铁站)","station_id":"广州番禺广场(地铁站)_22.93806_113.38013","lineId":"广州地铁3号线","lat":22.93806417,"lon":113.38013013,"area_km2":2.7796,"D":0.4166,"C":0.8869,"T":0.1957,"U1":0.1053,"U2":0.2861,"couplingDegree":0.4166,"level":"勉强协调","road_density":36.7962,"walk_accessibility":0.5573,"metro_line_density":0.9153,"station_count":1,"line_count":1,"population_density":9298.3836,"poi_density":8.2745,"poi_diversity":2.8114,"gdp_density":0.0,"P":9298.3836,"I":8.2745,"G":0.0},{"stationName":"广州黄村(地铁站)","station_id":"广州黄村(地铁站)_23.13568_113.40116","lineId":"广州地铁21号线 / 广州地铁4号线","lat":23.135682833333334,"lon":113.40116035,"area_km2":1.662,"D":0.1872,"C":0.4241,"T":0.0826,"U1":0.1575,"U2":0.0078,"couplingDegree":0.1872,"level":"极度失调","road_density":30.0651,"walk_accessibility":0.3332,"metro_line_density":3.2626,"station_count":1,"line_count":2,"population_density":5739.925,"poi_density":0.0,"poi_diversity":0.0,"gdp_density":0.0,"P":5739.925,"I":0.0,"G":0.0},{"stationName":"广州车陂(地铁站)","station_id":"广州车陂(地铁站)_23.12707_113.39067","lineId":"广州地铁13号线 / 广州地铁4号线","lat":23.127069765,"lon":113.390674455,"area_km2":1.8077,"D":0.3148,"C":0.5512,"T":0.1798,"U1":0.3297,"U2":0.0298,"couplingDegree":0.3148,"level":"中度失调","road_density":26.6413,"walk_accessibility":0.3624,"metro_line_density":9.5238,"station_count":2,"line_count":3,"population_density":21905.7628,"poi_density":0.0,"poi_diversity":0.0,"gdp_density":0.0,"P":21905.7628,"I":0.0,"G":0.0},{"stationName":"广州车陂南(地铁站)","station_id":"广州车陂南(地铁站)_23.11836_113.38448","lineId":"广州地铁4号线 / 广州地铁5号线","lat":23.118358545,"lon":113.38448477,"area_km2":1.6987,"D":0.2911,"C":0.4999,"T":0.1695,"U1":0.3163,"U2":0.0227,"couplingDegree":0.2911,"level":"中度失调","road_density":27.8826,"walk_accessibility":0.3406,"metro_line_density":6.9427,"station_count":2,"line_count":3,"population_density":16701.8794,"poi_density":0.0,"poi_diversity":0.0,"gdp_density":0.0,"P":16701.8794,"I":0.0,"G":0.0},{"stationName":"广州万胜围(地铁站)","station_id":"广州万胜围(地铁站)_23.10027_113.37904","lineId":"广州地铁4号线","lat":23.10027266,"lon":113.37904334,"area_km2":1.7792,"D":0.1958,"C":0.7871,"T":0.0487,"U1":0.0787,"U2":0.0187,"couplingDegree":0.1958,"level":"极度失调","road_density":27.2035,"walk_accessibility":0.3567,"metro_line_density":4.3025,"station_count":1,"line_count":1,"population_density":13728.8818,"poi_density":0.0,"poi_diversity":0.0,"gdp_density":0.0,"P":13728.8818,"I":0.0,"G":0.0},{"stationName":"广州官洲(地铁站)","station_id":"广州官洲(地铁站)_23.07017_113.37139","lineId":"广州地铁12号线 / 广州地铁4号线","lat":23.070168586666668,"lon":113.37138594999999,"area_km2":1.1347,"D":0.17,"C":0.3603,"T":0.0802,"U1":0.1551,"U2":0.0054,"couplingDegree":0.17,"level":"极度失调","road_density":30.9463,"walk_accessibility":0.2275,"metro_line_density":4.0932,"station_count":1,"line_count":2,"population_density":3964.077,"poi_density":0.0,"poi_diversity":0.0,"gdp_density":0.0,"P":3964.077,"I":0.0,"G":0.0},{"stationName":"广州大学城北(地铁站)","station_id":"广州大学城北(地铁站)_23.06047_113.38028","lineId":"广州地铁4号线","lat":23.06046717,"lon":113.38027887,"area_km2":2.0403,"D":0.126,"C":0.4344,"T":0.0365,"U1":0.0694,"U2":0.0036,"couplingDegree":0.126,"level":"极度失调","road_density":26.3608,"walk_accessibility":0.4091,"metro_line_density":2.2811,"station_count":1,"line_count":1,"population_density":2667.775,"poi_density":0.0,"poi_diversity":0.0,"gdp_density":0.0,"P":2667.775,"I":0.0,"G":0.0},{"stationName":"广州大学城南(地铁站)","station_id":"广州大学城南(地铁站)_23.04594_113.39496","lineId":"广州地铁4号线","lat":23.04593859,"lon":113.39495803,"area_km2":2.5023,"D":0.1935,"C":0.5409,"T":0.0692,"U1":0.1274,"U2":0.011,"couplingDegree":0.1935,"level":"极度失调","road_density":39.8856,"walk_accessibility":0.5017,"metro_line_density":4.0945,"station_count":1,"line_count":1,"population_density":1618.5019,"poi_density":0.0,"poi_diversity":0.0,"gdp_density":8729.5197,"P":1618.5019,"I":0.0,"G":8729.5197},{"stationName":"广州新造(地铁站)","station_id":"广州新造(地铁站)_23.03072_113.41020","lineId":"广州地铁4号线","lat":23.03072258,"lon":113.41020155,"area_km2":1.3472,"D":0.1451,"C":0.7273,"T":0.0289,"U1":0.0488,"U2":0.0091,"couplingDegree":0.1451,"level":"极度失调","road_density":24.796,"walk_accessibility":0.2701,"metro_line_density":1.7231,"station_count":1,"line_count":1,"population_density":6679.7983,"poi_density":0.0,"poi_diversity":0.0,"gdp_density":0.0,"P":6679.7983,"I":0.0,"G":0.0},{"stationName":"广州官桥(地铁站)","station_id":"广州官桥(地铁站)_22.98355_113.43903","lineId":"广州地铁4号线","lat":22.98354846,"lon":113.43902686,"area_km2":0.5263,"D":0.0786,"C":0.9938,"T":0.0062,"U1":0.0069,"U2":0.0055,"couplingDegree":0.0786,"level":"极度失调","road_density":18.1212,"walk_accessibility":0.1055,"metro_line_density":0.44,"station_count":1,"line_count":1,"population_density":4069.8776,"poi_density":0.0,"poi_diversity":0.0,"gdp_density":0.0,"P":4069.8776,"I":0.0,"G":0.0},{"stationName":"广州石碁(地铁站)","station_id":"广州石碁(地铁站)_22.95984_113.45981","lineId":"广州地铁4号线","lat":22.95983691,"lon":113.4598146,"area_km2":1.1474,"D":0.1108,"C":0.7928,"T":0.0155,"U1":0.0249,"U2":0.006,"couplingDegree":0.1108,"level":"极度失调","road_density":19.1068,"walk_accessibility":0.2301,"metro_line_density":1.0658,"station_count":1,"line_count":1,"population_density":4448.224,"poi_density":0.0,"poi_diversity":0.0,"gdp_density":0.0,"P":4448.224,"I":0.0,"G":0.0},{"stationName":"广州低涌(地铁站)","station_id":"广州低涌(地铁站)_22.92219_113.47947","lineId":"广州地铁4号线","lat":22.92218608,"lon":113.47947099,"area_km2":1.651,"D":0.1303,"C":0.7325,"T":0.0232,"U1":0.039,"U2":0.0074,"couplingDegree":0.1303,"level":"极度失调","road_density":16.3961,"walk_accessibility":0.331,"metro_line_density":3.2223,"station_count":1,"line_count":1,"population_density":5444.4687,"poi_density":0.0,"poi_diversity":0.0,"gdp_density":0.0,"P":5444.4687,"I":0.0,"G":0.0},{"stationName":"广州东涌(地铁站)","station_id":"广州东涌(地铁站)_22.88830_113.47359","lineId":"广州地铁4号线","lat":22.88829546,"lon":113.47359215,"area_km2":1.5436,"D":0.1466,"C":0.8432,"T":0.0255,"U1":0.0392,"U2":0.0118,"couplingDegree":0.1466,"level":"极度失调","road_density":18.6943,"walk_accessibility":0.3095,"metro_line_density":2.4638,"station_count":1,"line_count":1,"population_density":943.2672,"poi_density":0.0,"poi_diversity":0.0,"gdp_density":10415.4577,"P":943.2672,"I":0.0,"G":10415.4577},{"stationName":"广州庆盛(地铁站)","station_id":"广州庆盛(地铁站)_22.86976_113.48513","lineId":"广州地铁4号线","lat":22.86976012,"lon":113.48513261,"area_km2":1.3899,"D":0.1196,"C":0.5172,"T":0.0277,"U1":0.0513,"U2":0.004,"couplingDegree":0.1196,"level":"极度失调","road_density":24.9697,"walk_accessibility":0.2787,"metro_line_density":1.9319,"station_count":1,"line_count":1,"population_density":2932.5852,"poi_density":0.0,"poi_diversity":0.0,"gdp_density":0.0,"P":2932.5852,"I":0.0,"G":0.0},{"stationName":"广州黄阁汽车城(地铁站)","station_id":"广州黄阁汽车城(地铁站)_22.83864_113.50446","lineId":"广州地铁4号线","lat":22.83864251,"lon":113.504464935,"area_km2":0.9799,"D":0.2691,"C":0.9484,"T":0.0763,"U1":0.0521,"U2":0.1006,"couplingDegree":0.2691,"level":"中度失调","road_density":21.3907,"walk_accessibility":0.1965,"metro_line_density":5.1628,"station_count":1,"line_count":1,"population_density":881.7367,"poi_density":0.0,"poi_diversity":0.0,"gdp_density":98555.502,"P":881.7367,"I":0.0,"G":98555.502},{"stationName":"广州黄阁(地铁站)","station_id":"广州黄阁(地铁站)_22.82760_113.51355","lineId":"广州地铁4号线","lat":22.82759681,"lon":113.51354647,"area_km2":1.0953,"D":0.0638,"C":0.2172,"T":0.0187,"U1":0.037,"U2":0.0004,"couplingDegree":0.0638,"level":"极度失调","road_density":18.0622,"walk_accessibility":0.2196,"metro_line_density":3.8314,"station_count":1,"line_count":1,"population_density":328.6645,"poi_density":0.0,"poi_diversity":0.0,"gdp_density":0.0,"P":328.6645,"I":0.0,"G":0.0},{"stationName":"广州蕉门(地铁站)","station_id":"广州蕉门(地铁站)_22.80360_113.52231","lineId":"广州地铁4号线","lat":22.80359812,"lon":113.52231004,"area_km2":1.7436,"D":0.166,"C":0.7156,"T":0.0385,"U1":0.0654,"U2":0.0116,"couplingDegree":0.166,"level":"极度失调","road_density":26.7032,"walk_accessibility":0.3496,"metro_line_density":2.3743,"station_count":1,"line_count":1,"population_density":8546.7738,"poi_density":0.0,"poi_diversity":0.0,"gdp_density":0.0,"P":8546.7738,"I":0.0,"G":0.0},{"stationName":"广州金洲(地铁站)","station_id":"广州金洲(地铁站)_22.79510_113.53373","lineId":"广州地铁4号线","lat":22.79510434,"lon":113.53373069,"area_km2":1.1106,"D":0.1311,"C":0.2905,"T":0.0592,"U1":0.1158,"U2":0.0026,"couplingDegree":0.1311,"level":"极度失调","road_density":22.6158,"walk_accessibility":0.2227,"metro_line_density":4.0132,"station_count":2,"line_count":1,"population_density":1877.4375,"poi_density":0.0,"poi_diversity":0.0,"gdp_density":0.0,"P":1877.4375,"I":0.0,"G":0.0},{"stationName":"广州飞沙角(地铁站)","station_id":"广州飞沙角(地铁站)_22.78479_113.53561","lineId":"广州地铁4号线","lat":22.78478867,"lon":113.53560729,"area_km2":0.8355,"D":0.1387,"C":0.2222,"T":0.0866,"U1":0.1711,"U2":0.0022,"couplingDegree":0.1387,"level":"极度失调","road_density":20.6383,"walk_accessibility":0.1675,"metro_line_density":4.3176,"station_count":3,"line_count":1,"population_density":1593.0159,"poi_density":0.0,"poi_diversity":0.0,"gdp_density":0.0,"P":1593.0159,"I":0.0,"G":0.0},{"stationName":"广州广隆(地铁站)","station_id":"广州广隆(地铁站)_22.77508_113.53558","lineId":"广州地铁4号线","lat":22.77508039,"lon":113.5355785,"area_km2":0.8593,"D":0.2749,"C":0.9857,"T":0.0766,"U1":0.0896,"U2":0.0637,"couplingDegree":0.2749,"level":"中度失调","road_density":16.2298,"walk_accessibility":0.1723,"metro_line_density":3.4705,"station_count":2,"line_count":1,"population_density":1714.1534,"poi_density":0.0,"poi_diversity":0.0,"gdp_density":60876.3016,"P":1714.1534,"I":0.0,"G":60876.3016},{"stationName":"广州大涌(地铁站)","station_id":"广州大涌(地铁站)_22.76205_113.55087","lineId":"广州地铁4号线","lat":22.76204976,"lon":113.55086527,"area_km2":1.1204,"D":0.0665,"C":0.1771,"T":0.0249,"U1":0.0495,"U2":0.0004,"couplingDegree":0.0665,"level":"极度失调","road_density":20.35,"walk_accessibility":0.2246,"metro_line_density":4.7714,"station_count":1,"line_count":1,"population_density":290.0834,"poi_density":0.0,"poi_diversity":0.0,"gdp_density":0.0,"P":290.0834,"I":0.0,"G":0.0},{"stationName":"广州塘坑(地铁站)","station_id":"广州塘坑(地铁站)_22.75610_113.56799","lineId":"广州地铁4号线","lat":22.7560984,"lon":113.56798771,"area_km2":1.1488,"D":0.1462,"C":0.6649,"T":0.0321,"U1":0.0561,"U2":0.0081,"couplingDegree":0.1462,"level":"极度失调","road_density":22.5786,"walk_accessibility":0.2303,"metro_line_density":4.7223,"station_count":1,"line_count":1,"population_density":5982.9566,"poi_density":0.0,"poi_diversity":0.0,"gdp_density":0.0,"P":5982.9566,"I":0.0,"G":0.0},{"stationName":"广州南横(地铁站)","station_id":"广州南横(地铁站)_22.75090_113.58933","lineId":"广州地铁4号线","lat":22.7509002,"lon":113.58932783,"area_km2":1.2323,"D":0.1274,"C":0.6352,"T":0.0256,"U1":0.0453,"U2":0.0058,"couplingDegree":0.1274,"level":"极度失调","road_density":19.4206,"walk_accessibility":0.2471,"metro_line_density":4.1564,"station_count":1,"line_count":1,"population_density":4283.0662,"poi_density":0.0,"poi_diversity":0.0,"gdp_density":0.0,"P":4283.0662,"I":0.0,"G":0.0},{"stationName":"广州南沙客运港(地铁站)","station_id":"广州南沙客运港(地铁站)_22.76999_113.60592","lineId":"广州地铁4号线","lat":22.76999321,"lon":113.60591772,"area_km2":1.0573,"D":0.0478,"C":0.1199,"T":0.0191,"U1":0.038,"U2":0.0001,"couplingDegree":0.0478,"level":"极度失调","road_density":21.1861,"walk_accessibility":0.212,"metro_line_density":2.5822,"station_count":1,"line_count":1,"population_density":101.1986,"poi_density":0.0,"poi_diversity":0.0,"gdp_density":0.0,"P":101.1986,"I":0.0,"G":0.0},{"stationName":"广州滘口(地铁站)","station_id":"广州滘口(地铁站)_23.11645_113.20309","lineId":"广州地铁5号线","lat":23.11645274,"lon":113.20308939,"area_km2":1.7134,"D":0.1594,"C":0.7611,"T":0.0334,"U1":0.055,"U2":0.0117,"couplingDegree":0.1594,"level":"极度失调","road_density":26.428,"walk_accessibility":0.3435,"metro_line_density":0.8156,"station_count":1,"line_count":1,"population_density":8631.1608,"poi_density":0.0,"poi_diversity":0.0,"gdp_density":0.0,"P":8631.1608,"I":0.0,"G":0.0},{"stationName":"广州坦尾(地铁站)","station_id":"广州坦尾(地铁站)_23.12790_113.21305","lineId":"广州地铁5号线","lat":23.12789781,"lon":113.21304759,"area_km2":1.717,"D":0.2648,"C":0.5999,"T":0.1169,"U1":0.2104,"U2":0.0234,"couplingDegree":0.2648,"level":"中度失调","road_density":21.4505,"walk_accessibility":0.3443,"metro_line_density":5.3897,"station_count":2,"line_count":2,"population_density":17192.6504,"poi_density":0.0,"poi_diversity":0.0,"gdp_density":0.0,"P":17192.6504,"I":0.0,"G":0.0},{"stationName":"广州中山八(地铁站)","station_id":"广州中山八(地铁站)_23.12898_113.22803","lineId":"广州地铁5号线","lat":23.12898299,"lon":113.22802937,"area_km2":2.3473,"D":0.3786,"C":0.944,"T":0.1518,"U1":0.1018,"U2":0.2019,"couplingDegree":0.3786,"level":"中度失调","road_density":27.5243,"walk_accessibility":0.4706,"metro_line_density":6.2985,"station_count":1,"line_count":1,"population_density":33256.8754,"poi_density":2.9822,"poi_diversity":1.7479,"gdp_density":0.0,"P":33256.8754,"I":2.9822,"G":0.0},{"stationName":"广州西场(地铁站)","station_id":"广州西场(地铁站)_23.14006_113.23273","lineId":"广州地铁5号线","lat":23.14005659,"lon":113.23272961,"area_km2":1.9288,"D":0.4088,"C":0.9733,"T":0.1717,"U1":0.2111,"U2":0.1323,"couplingDegree":0.4088,"level":"勉强协调","road_density":36.9045,"walk_accessibility":0.3867,"metro_line_density":10.7366,"station_count":2,"line_count":1,"population_density":32177.2208,"poi_density":0.0,"poi_diversity":0.0,"gdp_density":87868.0461,"P":32177.2208,"I":0.0,"G":87868.0461},{"stationName":"广州西村(地铁站)","station_id":"广州西村(地铁站)_23.14490_113.23680","lineId":"广州地铁5号线","lat":23.14489689,"lon":113.23679991,"area_km2":2.1511,"D":0.407,"C":0.9854,"T":0.1681,"U1":0.1968,"U2":0.1395,"couplingDegree":0.407,"level":"勉强协调","road_density":36.5179,"walk_accessibility":0.4313,"metro_line_density":7.755,"station_count":2,"line_count":1,"population_density":30646.0807,"poi_density":2.3244,"poi_diversity":1.0549,"gdp_density":0.0,"P":30646.0807,"I":2.3244,"G":0.0},{"stationName":"广州小北(地铁站)","station_id":"广州小北(地铁站)_23.14209_113.27156","lineId":"广州地铁5号线","lat":23.14208615,"lon":113.27156432,"area_km2":2.9351,"D":0.7356,"C":0.9038,"T":0.5987,"U1":0.3425,"U2":0.8548,"couplingDegree":0.7356,"level":"良好协调","road_density":34.1064,"walk_accessibility":0.5885,"metro_line_density":4.4096,"station_count":2,"line_count":3,"population_density":52301.2437,"poi_density":43.6102,"poi_diversity":2.6413,"gdp_density":304284.4238,"P":52301.2437,"I":43.6102,"G":304284.4238},{"stationName":"广州淘金(地铁站)","station_id":"广州淘金(地铁站)_23.13657_113.28004","lineId":"广州地铁12号线 / 广州地铁13号线 / 广州地铁5号线","lat":23.136571503333332,"lon":113.28003749999999,"area_km2":2.487,"D":0.78,"C":0.9985,"T":0.6093,"U1":0.6422,"U2":0.5764,"couplingDegree":0.78,"level":"良好协调","road_density":36.378,"walk_accessibility":0.4986,"metro_line_density":7.0552,"station_count":4,"line_count":5,"population_density":56955.2395,"poi_density":48.2508,"poi_diversity":2.5599,"gdp_density":0.0,"P":56955.2395,"I":48.2508,"G":0.0},{"stationName":"广州区庄(地铁站)","station_id":"广州区庄(地铁站)_23.13693_113.29146","lineId":"广州地铁5号线 / 广州地铁6号线","lat":23.136927686666667,"lon":113.29145703666666,"area_km2":2.5778,"D":0.8227,"C":0.9992,"T":0.6774,"U1":0.7039,"U2":0.6509,"couplingDegree":0.8227,"level":"优质协调","road_density":33.5019,"walk_accessibility":0.5168,"metro_line_density":7.7277,"station_count":5,"line_count":5,"population_density":36390.0954,"poi_density":12.0257,"poi_diversity":2.1472,"gdp_density":354607.8189,"P":36390.0954,"I":12.0257,"G":354607.8189},{"stationName":"广州动物园(地铁站)","station_id":"广州动物园(地铁站)_23.13734_113.30190","lineId":"广州地铁5号线","lat":23.137335444999998,"lon":113.3019041,"area_km2":2.4904,"D":0.726,"C":0.9971,"T":0.5287,"U1":0.4883,"U2":0.5691,"couplingDegree":0.726,"level":"良好协调","road_density":35.5273,"walk_accessibility":0.4993,"metro_line_density":8.0676,"station_count":4,"line_count":3,"population_density":44642.8105,"poi_density":2.4092,"poi_diversity":1.5607,"gdp_density":367049.9919,"P":44642.8105,"I":2.4092,"G":367049.9919},{"stationName":"广州五羊邨(地铁站)","station_id":"广州五羊邨(地铁站)_23.12236_113.30778","lineId":"广州地铁10号线 / 广州地铁5号线","lat":23.122362080000002,"lon":113.307780705,"area_km2":2.8846,"D":0.5116,"C":0.9139,"T":0.2863,"U1":0.4025,"U2":0.1701,"couplingDegree":0.5116,"level":"勉强协调","road_density":34.2476,"walk_accessibility":0.5784,"metro_line_density":3.7592,"station_count":3,"line_count":3,"population_density":12281.1326,"poi_density":3.8134,"poi_diversity":1.6417,"gdp_density":0.0,"P":12281.1326,"I":3.8134,"G":0.0},{"stationName":"广州珠江新城(地铁站)","station_id":"广州珠江新城(地铁站)_23.12197_113.31579","lineId":"广州地铁5号线","lat":23.12196898,"lon":113.31578602,"area_km2":3.1943,"D":0.5018,"C":0.9403,"T":0.2677,"U1":0.3588,"U2":0.1766,"couplingDegree":0.5018,"level":"勉强协调","road_density":42.1058,"walk_accessibility":0.6405,"metro_line_density":4.9042,"station_count":3,"line_count":2,"population_density":18742.2088,"poi_density":3.4436,"poi_diversity":1.6417,"gdp_density":0.0,"P":18742.2088,"I":3.4436,"G":0.0},{"stationName":"广州猎德(地铁站)","station_id":"广州猎德(地铁站)_23.12112_113.32667","lineId":"广州地铁5号线","lat":23.12112075,"lon":113.32666753,"area_km2":2.9589,"D":0.3346,"C":0.8655,"T":0.1293,"U1":0.1941,"U2":0.0646,"couplingDegree":0.3346,"level":"中度失调","road_density":39.1908,"walk_accessibility":0.5932,"metro_line_density":3.3756,"station_count":2,"line_count":1,"population_density":10706.1309,"poi_density":1.6898,"poi_diversity":0.5004,"gdp_density":0.0,"P":10706.1309,"I":1.6898,"G":0.0},{"stationName":"广州潭村(地铁站)","station_id":"广州潭村(地铁站)_23.11992_113.34048","lineId":"广州地铁5号线","lat":23.11992279,"lon":113.3404832,"area_km2":2.1347,"D":0.199,"C":0.7781,"T":0.0509,"U1":0.0829,"U2":0.0189,"couplingDegree":0.199,"level":"极度失调","road_density":28.4047,"walk_accessibility":0.428,"metro_line_density":3.2854,"station_count":1,"line_count":1,"population_density":13925.6365,"poi_density":0.0,"poi_diversity":0.0,"gdp_density":0.0,"P":13925.6365,"I":0.0,"G":0.0},{"stationName":"广州员村(地铁站)","station_id":"广州员村(地铁站)_23.11747_113.35822","lineId":"广州地铁11号线 / 广州地铁5号线","lat":23.117467595,"lon":113.358221265,"area_km2":1.3392,"D":0.2927,"C":0.8796,"T":0.0974,"U1":0.1437,"U2":0.0511,"couplingDegree":0.2927,"level":"中度失调","road_density":22.8343,"walk_accessibility":0.2685,"metro_line_density":5.5129,"station_count":1,"line_count":2,"population_density":34197.8812,"poi_density":0.7467,"poi_diversity":0.0,"gdp_density":0.0,"P":34197.8812,"I":0.7467,"G":0.0},{"stationName":"广州科韵路(地铁站)","station_id":"广州科韵路(地铁站)_23.12179_113.37170","lineId":"广州地铁5号线","lat":23.12179091,"lon":113.37170322,"area_km2":2.2691,"D":0.2563,"C":0.9608,"T":0.0683,"U1":0.0873,"U2":0.0494,"couplingDegree":0.2563,"level":"中度失调","road_density":28.2282,"walk_accessibility":0.455,"metro_line_density":3.7021,"station_count":1,"line_count":1,"population_density":34362.462,"poi_density":0.4407,"poi_diversity":0.0,"gdp_density":0.0,"P":34362.462,"I":0.4407,"G":0.0},{"stationName":"广州东圃(地铁站)","station_id":"广州东圃(地铁站)_23.11189_113.39604","lineId":"广州地铁5号线","lat":23.11189403,"lon":113.39603774,"area_km2":1.4871,"D":0.1646,"C":0.7707,"T":0.0352,"U1":0.0576,"U2":0.0128,"couplingDegree":0.1646,"level":"极度失调","road_density":23.2117,"walk_accessibility":0.2982,"metro_line_density":3.5691,"station_count":1,"line_count":1,"population_density":9383.1633,"poi_density":0.0,"poi_diversity":0.0,"gdp_density":0.0,"P":9383.1633,"I":0.0,"G":0.0},{"stationName":"广州三溪(地铁站)","station_id":"广州三溪(地铁站)_23.10661_113.41027","lineId":"广州地铁5号线","lat":23.10660722,"lon":113.41026741,"area_km2":1.5018,"D":0.288,"C":0.9567,"T":0.0867,"U1":0.0615,"U2":0.1119,"couplingDegree":0.288,"level":"中度失调","road_density":24.8085,"walk_accessibility":0.3011,"metro_line_density":3.4066,"station_count":1,"line_count":1,"population_density":20399.9175,"poi_density":0.0,"poi_diversity":0.0,"gdp_density":83513.4106,"P":20399.9175,"I":0.0,"G":83513.4106},{"stationName":"广州鱼珠(地铁站)","station_id":"广州鱼珠(地铁站)_23.10287_113.42678","lineId":"广州地铁5号线","lat":23.1028697,"lon":113.4267831,"area_km2":1.022,"D":0.2569,"C":0.9436,"T":0.0699,"U1":0.0931,"U2":0.0468,"couplingDegree":0.2569,"level":"中度失调","road_density":29.3454,"walk_accessibility":0.2049,"metro_line_density":8.1406,"station_count":1,"line_count":1,"population_density":34423.3999,"poi_density":0.0,"poi_diversity":0.0,"gdp_density":0.0,"P":34423.3999,"I":0.0,"G":0.0},{"stationName":"广州大沙地(地铁站)","station_id":"广州大沙地(地铁站)_23.10577_113.44060","lineId":"广州地铁5号线","lat":23.105774705,"lon":113.44060333499999,"area_km2":1.2617,"D":0.4368,"C":0.997,"T":0.1914,"U1":0.2062,"U2":0.1765,"couplingDegree":0.4368,"level":"勉强协调","road_density":26.1349,"walk_accessibility":0.253,"metro_line_density":3.8009,"station_count":2,"line_count":2,"population_density":6562.5053,"poi_density":1.5851,"poi_diversity":0.6931,"gdp_density":102146.0285,"P":6562.5053,"I":1.5851,"G":102146.0285},{"stationName":"广州大沙东(地铁站)","station_id":"广州大沙东(地铁站)_23.10925_113.45231","lineId":"广州地铁5号线 / 广州地铁7号线","lat":23.109246119999998,"lon":113.45231028666666,"area_km2":1.6581,"D":0.2709,"C":0.4693,"T":0.1564,"U1":0.2945,"U2":0.0183,"couplingDegree":0.2709,"level":"中度失调","road_density":25.4363,"walk_accessibility":0.3325,"metro_line_density":6.9992,"station_count":3,"line_count":2,"population_density":13459.6404,"poi_density":0.0,"poi_diversity":0.0,"gdp_density":0.0,"P":13459.6404,"I":0.0,"G":0.0},{"stationName":"广州文冲(地铁站)","station_id":"广州文冲(地铁站)_23.10640_113.46359","lineId":"广州地铁5号线","lat":23.10639517,"lon":113.463594,"area_km2":1.6588,"D":0.2081,"C":0.4079,"T":0.1062,"U1":0.2031,"U2":0.0092,"couplingDegree":0.2081,"level":"中度失调","road_density":24.9713,"walk_accessibility":0.3326,"metro_line_density":2.5707,"station_count":2,"line_count":2,"population_density":6792.2315,"poi_density":0.0,"poi_diversity":0.0,"gdp_density":0.0,"P":6792.2315,"I":0.0,"G":0.0},{"stationName":"广州双沙(地铁站)","station_id":"广州双沙(地铁站)_23.10052_113.47888","lineId":"广州地铁5号线","lat":23.100517099999998,"lon":113.478884145,"area_km2":1.1377,"D":0.1041,"C":0.4106,"T":0.0264,"U1":0.0504,"U2":0.0023,"couplingDegree":0.1041,"level":"极度失调","road_density":25.5027,"walk_accessibility":0.2281,"metro_line_density":2.3194,"station_count":1,"line_count":1,"population_density":1711.3355,"poi_density":0.0,"poi_diversity":0.0,"gdp_density":0.0,"P":1711.3355,"I":0.0,"G":0.0},{"stationName":"广州庙头(地铁站)","station_id":"广州庙头(地铁站)_23.08757_113.49729","lineId":"广州地铁5号线","lat":23.087568835,"lon":113.497292225,"area_km2":1.0516,"D":0.1954,"C":0.806,"T":0.0474,"U1":0.0754,"U2":0.0193,"couplingDegree":0.1954,"level":"极度失调","road_density":28.0733,"walk_accessibility":0.2108,"metro_line_density":5.6274,"station_count":1,"line_count":1,"population_density":14219.7136,"poi_density":0.0,"poi_diversity":0.0,"gdp_density":0.0,"P":14219.7136,"I":0.0,"G":0.0},{"stationName":"广州夏园(地铁站)","station_id":"广州夏园(地铁站)_23.08558_113.51315","lineId":"广州地铁5号线","lat":23.08557598,"lon":113.513151045,"area_km2":1.1127,"D":0.2312,"C":0.5976,"T":0.0894,"U1":0.1611,"U2":0.0177,"couplingDegree":0.2312,"level":"中度失调","road_density":27.6353,"walk_accessibility":0.2231,"metro_line_density":9.334,"station_count":2,"line_count":1,"population_density":13037.7616,"poi_density":0.0,"poi_diversity":0.0,"gdp_density":0.0,"P":13037.7616,"I":0.0,"G":0.0},{"stationName":"广州保盈大道(地铁站)","station_id":"广州保盈大道(地铁站)_23.07734_113.52085","lineId":"广州地铁5号线","lat":23.077335384999998,"lon":113.52085210999999,"area_km2":1.1219,"D":0.2478,"C":0.5314,"T":0.1155,"U1":0.2134,"U2":0.0177,"couplingDegree":0.2478,"level":"中度失调","road_density":24.1592,"walk_accessibility":0.2249,"metro_line_density":8.9412,"station_count":3,"line_count":1,"population_density":12993.5028,"poi_density":0.0,"poi_diversity":0.0,"gdp_density":0.0,"P":12993.5028,"I":0.0,"G":0.0},{"stationName":"广州夏港(地铁站)","station_id":"广州夏港(地铁站)_23.06625_113.52002","lineId":"广州地铁5号线","lat":23.066252865000003,"lon":113.52002316,"area_km2":2.0123,"D":0.2314,"C":0.4914,"T":0.109,"U1":0.2039,"U2":0.0141,"couplingDegree":0.2314,"level":"中度失调","road_density":22.4073,"walk_accessibility":0.4035,"metro_line_density":5.3344,"station_count":3,"line_count":1,"population_density":10349.8711,"poi_density":0.0,"poi_diversity":0.0,"gdp_density":0.0,"P":10349.8711,"I":0.0,"G":0.0},{"stationName":"广州黄埔新港(地铁站)","station_id":"广州黄埔新港(地铁站)_23.05509_113.51951","lineId":"广州地铁5号线","lat":23.055087965,"lon":113.51951488,"area_km2":1.5851,"D":0.197,"C":0.5866,"T":0.0662,"U1":0.1198,"U2":0.0126,"couplingDegree":0.197,"level":"极度失调","road_density":22.5264,"walk_accessibility":0.3178,"metro_line_density":3.2266,"station_count":2,"line_count":1,"population_density":9257.3264,"poi_density":0.0,"poi_diversity":0.0,"gdp_density":0.0,"P":9257.3264,"I":0.0,"G":0.0},{"stationName":"广州香雪(地铁站)","station_id":"广州香雪(地铁站)_23.17505_113.49592","lineId":"广州地铁6号线","lat":23.17504691,"lon":113.49591832,"area_km2":2.1618,"D":0.1749,"C":0.7579,"T":0.0404,"U1":0.0667,"U2":0.014,"couplingDegree":0.1749,"level":"极度失调","road_density":26.7216,"walk_accessibility":0.4334,"metro_line_density":1.2417,"station_count":1,"line_count":1,"population_density":10321.2485,"poi_density":0.0,"poi_diversity":0.0,"gdp_density":0.0,"P":10321.2485,"I":0.0,"G":0.0},{"stationName":"广州萝岗(地铁站)","station_id":"广州萝岗(地铁站)_23.17900_113.47631","lineId":"广州地铁6号线 / 广州地铁7号线","lat":23.17900146,"lon":113.47630703,"area_km2":1.6704,"D":0.1291,"C":0.1806,"T":0.0922,"U1":0.1829,"U2":0.0015,"couplingDegree":0.1291,"level":"极度失调","road_density":29.3053,"walk_accessibility":0.3349,"metro_line_density":8.0003,"station_count":1,"line_count":2,"population_density":1115.9309,"poi_density":0.0,"poi_diversity":0.0,"gdp_density":0.0,"P":1115.9309,"I":0.0,"G":0.0},{"stationName":"广州苏元(地铁站)","station_id":"广州苏元(地铁站)_23.17331_113.46279","lineId":"广州地铁21号线 / 广州地铁6号线","lat":23.173307523333335,"lon":113.46279111000001,"area_km2":1.3577,"D":0.1451,"C":0.1767,"T":0.1192,"U1":0.2365,"U2":0.0019,"couplingDegree":0.1451,"level":"极度失调","road_density":24.6501,"walk_accessibility":0.2722,"metro_line_density":9.4542,"station_count":2,"line_count":2,"population_density":1379.5636,"poi_density":0.0,"poi_diversity":0.0,"gdp_density":0.0,"P":1379.5636,"I":0.0,"G":0.0},{"stationName":"广州暹岗(地铁站)","station_id":"广州暹岗(地铁站)_23.17485_113.45474","lineId":"广州地铁6号线","lat":23.17484542,"lon":113.45473653,"area_km2":1.3389,"D":0.1423,"C":0.1862,"T":0.1088,"U1":0.2156,"U2":0.0019,"couplingDegree":0.1423,"level":"极度失调","road_density":22.4692,"walk_accessibility":0.2684,"metro_line_density":6.9993,"station_count":2,"line_count":2,"population_density":1398.9045,"poi_density":0.0,"poi_diversity":0.0,"gdp_density":0.0,"P":1398.9045,"I":0.0,"G":0.0},{"stationName":"广州金峰(地铁站)","station_id":"广州金峰(地铁站)_23.18384_113.44561","lineId":"广州地铁6号线","lat":23.18384341,"lon":113.44560727,"area_km2":1.0946,"D":0.0,"C":0.0,"T":0.0271,"U1":0.0543,"U2":0.0,"couplingDegree":0.0,"level":"极度失调","road_density":22.1426,"walk_accessibility":0.2195,"metro_line_density":4.7931,"station_count":1,"line_count":1,"population_density":0.0,"poi_density":0.0,"poi_diversity":0.0,"gdp_density":0.0,"P":0.0,"I":0.0,"G":0.0},{"stationName":"广州黄陂(地铁站)","station_id":"广州黄陂(地铁站)_23.19087_113.42824","lineId":"广州地铁6号线","lat":23.19087201,"lon":113.4282373,"area_km2":1.656,"D":0.1036,"C":0.2652,"T":0.0405,"U1":0.0795,"U2":0.0014,"couplingDegree":0.1036,"level":"极度失调","road_density":30.5489,"walk_accessibility":0.332,"metro_line_density":3.1672,"station_count":1,"line_count":1,"population_density":1065.8228,"poi_density":0.0,"poi_diversity":0.0,"gdp_density":0.0,"P":1065.8228,"I":0.0,"G":0.0},{"stationName":"广州高塘石(地铁站)","station_id":"广州高塘石(地铁站)_23.19353_113.40488","lineId":"广州地铁6号线","lat":23.19352929,"lon":113.40488169,"area_km2":1.1687,"D":0.0797,"C":0.2401,"T":0.0264,"U1":0.0521,"U2":0.0008,"couplingDegree":0.0797,"level":"极度失调","road_density":21.2509,"walk_accessibility":0.2343,"metro_line_density":4.6193,"station_count":1,"line_count":1,"population_density":569.0234,"poi_density":0.0,"poi_diversity":0.0,"gdp_density":0.0,"P":569.0234,"I":0.0,"G":0.0},{"stationName":"广州柯木塱(地铁站)","station_id":"广州柯木塱(地铁站)_23.19599_113.39107","lineId":"广州地铁6号线","lat":23.19599176,"lon":113.39107375,"area_km2":1.6587,"D":0.2483,"C":0.9696,"T":0.0636,"U1":0.048,"U2":0.0792,"couplingDegree":0.2483,"level":"中度失调","road_density":19.4807,"walk_accessibility":0.3326,"metro_line_density":3.232,"station_count":1,"line_count":1,"population_density":890.4422,"poi_density":0.0,"poi_diversity":0.0,"gdp_density":77321.9714,"P":890.4422,"I":0.0,"G":77321.9714},{"stationName":"广州龙洞(地铁站)","station_id":"广州龙洞(地铁站)_23.19344_113.37200","lineId":"广州地铁6号线","lat":23.19344377,"lon":113.37200172,"area_km2":1.3213,"D":0.1997,"C":0.6001,"T":0.0665,"U1":0.1197,"U2":0.0133,"couplingDegree":0.1997,"level":"极度失调","road_density":22.6674,"walk_accessibility":0.2649,"metro_line_density":3.9858,"station_count":2,"line_count":1,"population_density":9786.2624,"poi_density":0.0,"poi_diversity":0.0,"gdp_density":0.0,"P":9786.2624,"I":0.0,"G":0.0},{"stationName":"广州植物园(地铁站)","station_id":"广州植物园(地铁站)_23.19266_113.36018","lineId":"广州地铁6号线","lat":23.19266205,"lon":113.36018238,"area_km2":1.7714,"D":0.3208,"C":0.9906,"T":0.1039,"U1":0.1181,"U2":0.0897,"couplingDegree":0.3208,"level":"中度失调","road_density":21.1167,"walk_accessibility":0.3552,"metro_line_density":3.0471,"station_count":2,"line_count":1,"population_density":1888.3023,"poi_density":0.0,"poi_diversity":0.0,"gdp_density":86389.4055,"P":1888.3023,"I":0.0,"G":86389.4055},{"stationName":"广州长湴(地铁站)","station_id":"广州长湴(地铁站)_23.18090_113.34385","lineId":"广州地铁6号线","lat":23.18089624,"lon":113.34384804,"area_km2":0.933,"D":0.0,"C":0.0,"T":0.1052,"U1":0.2103,"U2":0.0,"couplingDegree":0.0,"level":"极度失调","road_density":25.2023,"walk_accessibility":0.1871,"metro_line_density":6.0277,"station_count":2,"line_count":2,"population_density":0.0,"poi_density":0.0,"poi_diversity":0.0,"gdp_density":0.0,"P":0.0,"I":0.0,"G":0.0},{"stationName":"广州天河客运站(地铁站)","station_id":"广州天河客运站(地铁站)_23.17354_113.33860","lineId":"广州地铁10号线 / 广州地铁6号线","lat":23.173543746666667,"lon":113.33859633333333,"area_km2":2.0877,"D":0.2559,"C":0.5614,"T":0.1167,"U1":0.2132,"U2":0.0201,"couplingDegree":0.2559,"level":"中度失调","road_density":25.8573,"walk_accessibility":0.4186,"metro_line_density":2.5062,"station_count":2,"line_count":2,"population_density":14804.5772,"poi_density":0.0,"poi_diversity":0.0,"gdp_density":0.0,"P":14804.5772,"I":0.0,"G":0.0},{"stationName":"广州天平架(地铁站)","station_id":"广州天平架(地铁站)_23.16211_113.31593","lineId":"广州地铁6号线","lat":23.16211152,"lon":113.31593439,"area_km2":1.6821,"D":0.6482,"C":0.9346,"T":0.4496,"U1":0.6095,"U2":0.2897,"couplingDegree":0.6482,"level":"良好协调","road_density":30.5818,"walk_accessibility":0.3372,"metro_line_density":6.8561,"station_count":4,"line_count":5,"population_density":55527.1029,"poi_density":0.5945,"poi_diversity":0.0,"gdp_density":208846.7083,"P":55527.1029,"I":0.5945,"G":208846.7083},{"stationName":"广州沙河(地铁站)","station_id":"广州沙河(地铁站)_23.15477_113.30758","lineId":"广州地铁11号线 / 广州地铁6号线","lat":23.15476822,"lon":113.307578385,"area_km2":1.9952,"D":0.459,"C":0.6267,"T":0.3362,"U1":0.5982,"U2":0.0742,"couplingDegree":0.459,"level":"勉强协调","road_density":29.9906,"walk_accessibility":0.4,"metro_line_density":4.2082,"station_count":4,"line_count":5,"population_density":52341.8556,"poi_density":0.5012,"poi_diversity":0.0,"gdp_density":0.0,"P":52341.8556,"I":0.5012,"G":0.0},{"stationName":"广州沙河顶(地铁站)","station_id":"广州沙河顶(地铁站)_23.14989_113.30158","lineId":"广州地铁6号线","lat":23.14989453,"lon":113.30157744,"area_km2":1.8581,"D":0.4796,"C":0.9743,"T":0.2361,"U1":0.2893,"U2":0.1829,"couplingDegree":0.4796,"level":"勉强协调","road_density":28.2771,"walk_accessibility":0.3726,"metro_line_density":4.0541,"station_count":3,"line_count":2,"population_density":63228.9382,"poi_density":1.6145,"poi_diversity":1.0986,"gdp_density":0.0,"P":63228.9382,"I":1.6145,"G":0.0},{"stationName":"广州黄花岗(地铁站)","station_id":"广州黄花岗(地铁站)_23.14376_113.29453","lineId":"广州地铁6号线","lat":23.14375933,"lon":113.29453143,"area_km2":1.9602,"D":0.516,"C":0.9534,"T":0.2793,"U1":0.3636,"U2":0.195,"couplingDegree":0.516,"level":"勉强协调","road_density":31.6161,"walk_accessibility":0.393,"metro_line_density":3.7833,"station_count":4,"line_count":2,"population_density":72550.2386,"poi_density":1.5304,"poi_diversity":1.0986,"gdp_density":0.0,"P":72550.2386,"I":1.5304,"G":0.0},{"stationName":"广州东湖(地铁站)","station_id":"广州东湖(地铁站)_23.11791_113.28354","lineId":"广州地铁10号线 / 广州地铁6号线","lat":23.117914120000002,"lon":113.283539805,"area_km2":2.1926,"D":0.6575,"C":0.9756,"T":0.4432,"U1":0.5405,"U2":0.3459,"couplingDegree":0.6575,"level":"良好协调","road_density":32.7071,"walk_accessibility":0.4396,"metro_line_density":5.847,"station_count":4,"line_count":4,"population_density":19593.7501,"poi_density":21.8914,"poi_diversity":2.3336,"gdp_density":0.0,"P":19593.7501,"I":21.8914,"G":0.0},{"stationName":"广州团一大广场(地铁站)","station_id":"广州团一大广场(地铁站)_23.12078_113.27292","lineId":"广州地铁6号线","lat":23.120782005000002,"lon":113.272924895,"area_km2":2.8543,"D":0.6772,"C":0.9674,"T":0.474,"U1":0.594,"U2":0.354,"couplingDegree":0.6772,"level":"良好协调","road_density":31.3703,"walk_accessibility":0.5723,"metro_line_density":2.5188,"station_count":5,"line_count":4,"population_density":15554.3868,"poi_density":25.5754,"poi_diversity":2.2204,"gdp_density":0.0,"P":15554.3868,"I":25.5754,"G":0.0},{"stationName":"广州北京路(地铁站)","station_id":"广州北京路(地铁站)_23.12144_113.26499","lineId":"广州地铁6号线","lat":23.12143812,"lon":113.26499364,"area_km2":2.9897,"D":0.6522,"C":0.9789,"T":0.4346,"U1":0.5233,"U2":0.3458,"couplingDegree":0.6522,"level":"良好协调","road_density":30.9259,"walk_accessibility":0.5994,"metro_line_density":3.7006,"station_count":5,"line_count":3,"population_density":40738.813,"poi_density":18.3966,"poi_diversity":2.2415,"gdp_density":0.0,"P":40738.813,"I":18.3966,"G":0.0},{"stationName":"广州一德路(地铁站)","station_id":"广州一德路(地铁站)_23.11552_113.25223","lineId":"广州地铁6号线","lat":23.11552276,"lon":113.25223263,"area_km2":2.609,"D":0.5213,"C":0.9963,"T":0.2727,"U1":0.2962,"U2":0.2493,"couplingDegree":0.5213,"level":"勉强协调","road_density":28.9567,"walk_accessibility":0.5231,"metro_line_density":2.5057,"station_count":3,"line_count":2,"population_density":46683.5749,"poi_density":4.2162,"poi_diversity":2.0198,"gdp_density":0.0,"P":46683.5749,"I":4.2162,"G":0.0},{"stationName":"广州文化公园(地铁站)","station_id":"广州文化公园(地铁站)_23.11167_113.24463","lineId":"广州地铁6号线","lat":23.11166968,"lon":113.24463033,"area_km2":2.988,"D":0.5346,"C":0.9958,"T":0.287,"U1":0.3132,"U2":0.2609,"couplingDegree":0.5346,"level":"勉强协调","road_density":33.6123,"walk_accessibility":0.5991,"metro_line_density":1.9114,"station_count":3,"line_count":2,"population_density":38399.1262,"poi_density":5.0201,"poi_diversity":2.246,"gdp_density":0.0,"P":38399.1262,"I":5.0201,"G":0.0},{"stationName":"广州如意坊(地铁站)","station_id":"广州如意坊(地铁站)_23.11784_113.22578","lineId":"广州地铁6号线","lat":23.11784371,"lon":113.22578145,"area_km2":2.0636,"D":0.4399,"C":0.8839,"T":0.2189,"U1":0.3213,"U2":0.1166,"couplingDegree":0.4399,"level":"勉强协调","road_density":30.3313,"walk_accessibility":0.4137,"metro_line_density":7.9047,"station_count":3,"line_count":2,"population_density":13684.3398,"poi_density":2.9075,"poi_diversity":1.0114,"gdp_density":0.0,"P":13684.3398,"I":2.9075,"G":0.0},{"stationName":"广州河沙(地铁站)","station_id":"广州河沙(地铁站)_23.13823_113.21206","lineId":"广州地铁6号线","lat":23.13823428,"lon":113.21206314,"area_km2":1.291,"D":0.2998,"C":0.7925,"T":0.1134,"U1":0.1825,"U2":0.0442,"couplingDegree":0.2998,"level":"中度失调","road_density":19.8328,"walk_accessibility":0.2588,"metro_line_density":2.75,"station_count":2,"line_count":2,"population_density":32543.8586,"poi_density":0.0,"poi_diversity":0.0,"gdp_density":0.0,"P":32543.8586,"I":0.0,"G":0.0},{"stationName":"广州沙贝(地铁站)","station_id":"广州沙贝(地铁站)_23.15497_113.20595","lineId":"广州地铁6号线","lat":23.15496679,"lon":113.20595089,"area_km2":1.4899,"D":0.2313,"C":0.7317,"T":0.0731,"U1":0.1229,"U2":0.0233,"couplingDegree":0.2313,"level":"中度失调","road_density":25.9744,"walk_accessibility":0.2987,"metro_line_density":2.365,"station_count":2,"line_count":1,"population_density":17120.869,"poi_density":0.0,"poi_diversity":0.0,"gdp_density":0.0,"P":17120.869,"I":0.0,"G":0.0},{"stationName":"广州横沙(地铁站)","station_id":"广州横沙(地铁站)_23.16082_113.20143","lineId":"广州地铁6号线","lat":23.16082413,"lon":113.201434,"area_km2":1.7479,"D":0.2482,"C":0.4405,"T":0.1399,"U1":0.2655,"U2":0.0143,"couplingDegree":0.2482,"level":"中度失调","road_density":24.3011,"walk_accessibility":0.3504,"metro_line_density":2.2734,"station_count":3,"line_count":2,"population_density":10524.3459,"poi_density":0.0,"poi_diversity":0.0,"gdp_density":0.0,"P":10524.3459,"I":0.0,"G":0.0},{"stationName":"广州浔峰岗(地铁站)","station_id":"广州浔峰岗(地铁站)_23.16768_113.19651","lineId":"广州地铁12号线 / 广州地铁6号线","lat":23.167678090000003,"lon":113.196509975,"area_km2":1.7351,"D":0.0794,"C":0.0637,"T":0.0991,"U1":0.1979,"U2":0.0002,"couplingDegree":0.0794,"level":"极度失调","road_density":22.3568,"walk_accessibility":0.3479,"metro_line_density":2.727,"station_count":2,"line_count":2,"population_density":148.1218,"poi_density":0.0,"poi_diversity":0.0,"gdp_density":0.0,"P":148.1218,"I":0.0,"G":0.0},{"stationName":"广州长洲(地铁站)","station_id":"广州长洲(地铁站)_23.07853_113.42362","lineId":"广州地铁7号线 / 广州地铁8号线","lat":23.0785328375,"lon":113.4236245525,"area_km2":1.3449,"D":0.1516,"C":0.2885,"T":0.0796,"U1":0.1559,"U2":0.0034,"couplingDegree":0.1516,"level":"极度失调","road_density":16.1254,"walk_accessibility":0.2696,"metro_line_density":10.9176,"station_count":1,"line_count":2,"population_density":2491.7186,"poi_density":0.0,"poi_diversity":0.0,"gdp_density":0.0,"P":2491.7186,"I":0.0,"G":0.0},{"stationName":"广州黄埔古港(地铁站)","station_id":"广州黄埔古港(地铁站)_23.09562_113.39558","lineId":"广州地铁8号线","lat":23.09561769,"lon":113.39557877,"area_km2":1.5646,"D":0.2178,"C":0.5619,"T":0.0844,"U1":0.1542,"U2":0.0146,"couplingDegree":0.2178,"level":"中度失调","road_density":27.1965,"walk_accessibility":0.3137,"metro_line_density":6.9191,"station_count":2,"line_count":1,"population_density":10731.7,"poi_density":0.0,"poi_diversity":0.0,"gdp_density":0.0,"P":10731.7,"I":0.0,"G":0.0},{"stationName":"广州新洲(地铁站)","station_id":"广州新洲(地铁站)_23.08999_113.40195","lineId":"广州地铁8号线","lat":23.089994895,"lon":113.40194846,"area_km2":0.9054,"D":0.2246,"C":0.712,"T":0.0708,"U1":0.1205,"U2":0.0211,"couplingDegree":0.2246,"level":"中度失调","road_density":18.6413,"walk_accessibility":0.1815,"metro_line_density":7.4651,"station_count":2,"line_count":1,"population_density":15520.0613,"poi_density":0.0,"poi_diversity":0.0,"gdp_density":0.0,"P":15520.0613,"I":0.0,"G":0.0},{"stationName":"广州沙亭(地铁站)","station_id":"广州沙亭(地铁站)_23.06132_113.44742","lineId":"广州地铁8号线","lat":23.06131542,"lon":113.447424195,"area_km2":1.6332,"D":0.118,"C":0.4261,"T":0.0327,"U1":0.0622,"U2":0.0031,"couplingDegree":0.118,"level":"极度失调","road_density":24.3101,"walk_accessibility":0.3274,"metro_line_density":3.3611,"station_count":1,"line_count":1,"population_density":2290.6294,"poi_density":0.0,"poi_diversity":0.0,"gdp_density":0.0,"P":2290.6294,"I":0.0,"G":0.0},{"stationName":"广州化龙(地铁站)","station_id":"广州化龙(地铁站)_23.04776_113.45330","lineId":"广州地铁8号线","lat":23.04776156,"lon":113.45330123,"area_km2":1.2403,"D":0.1787,"C":0.9247,"T":0.0345,"U1":0.0477,"U2":0.0214,"couplingDegree":0.1787,"level":"极度失调","road_density":21.9843,"walk_accessibility":0.2487,"metro_line_density":3.2626,"station_count":1,"line_count":1,"population_density":6345.0907,"poi_density":0.0,"poi_diversity":0.0,"gdp_density":12654.707,"P":6345.0907,"I":0.0,"G":12654.707},{"stationName":"广州仙岭(地铁站)","station_id":"广州仙岭(地铁站)_23.02053_113.46426","lineId":"广州地铁8号线","lat":23.02052815,"lon":113.46425789,"area_km2":1.45,"D":0.1808,"C":0.4795,"T":0.0682,"U1":0.1281,"U2":0.0084,"couplingDegree":0.1808,"level":"极度失调","road_density":20.0343,"walk_accessibility":0.2907,"metro_line_density":6.3261,"station_count":2,"line_count":1,"population_density":6145.3407,"poi_density":0.0,"poi_diversity":0.0,"gdp_density":0.0,"P":6145.3407,"I":0.0,"G":0.0},{"stationName":"广州龙泽路(地铁站)","station_id":"广州龙泽路(地铁站)_23.01659_113.47380","lineId":"广州地铁8号线","lat":23.01659175,"lon":113.47379601,"area_km2":1.3458,"D":0.1963,"C":0.5931,"T":0.065,"U1":0.1173,"U2":0.0127,"couplingDegree":0.1963,"level":"极度失调","road_density":20.0877,"walk_accessibility":0.2698,"metro_line_density":4.7721,"station_count":2,"line_count":1,"population_density":524.6064,"poi_density":0.0,"poi_diversity":0.0,"gdp_density":11849.7143,"P":524.6064,"I":0.0,"G":11849.7143},{"stationName":"广州莲花(地铁站)","station_id":"广州莲花(地铁站)_23.00451_113.48924","lineId":"广州地铁8号线","lat":23.00451317,"lon":113.48923708,"area_km2":0.8952,"D":0.0376,"C":0.2295,"T":0.0061,"U1":0.0121,"U2":0.0002,"couplingDegree":0.0376,"level":"极度失调","road_density":17.9586,"walk_accessibility":0.1795,"metro_line_density":0.2381,"station_count":1,"line_count":1,"population_density":120.6385,"poi_density":0.0,"poi_diversity":0.0,"gdp_density":0.0,"P":120.6385,"I":0.0,"G":0.0},{"stationName":"广州滘心(地铁站)","station_id":"广州滘心(地铁站)_23.23951_113.21163","lineId":"广州地铁8号线","lat":23.23950912,"lon":113.21163232,"area_km2":0.9853,"D":0.0843,"C":0.9128,"T":0.0078,"U1":0.011,"U2":0.0046,"couplingDegree":0.0843,"level":"极度失调","road_density":16.4553,"walk_accessibility":0.1975,"metro_line_density":0.4968,"station_count":1,"line_count":1,"population_density":3389.9745,"poi_density":0.0,"poi_diversity":0.0,"gdp_density":0.0,"P":3389.9745,"I":0.0,"G":0.0},{"stationName":"广州凤翔路(地铁站)","station_id":"广州凤翔路(地铁站)_23.25985_113.21007","lineId":"广州地铁8号线","lat":23.25985405,"lon":113.21006705,"area_km2":1.2705,"D":0.1679,"C":0.9773,"T":0.0288,"U1":0.0349,"U2":0.0227,"couplingDegree":0.1679,"level":"极度失调","road_density":17.5847,"walk_accessibility":0.2547,"metro_line_density":3.1567,"station_count":1,"line_count":1,"population_density":5228.5839,"poi_density":0.0,"poi_diversity":0.0,"gdp_density":15500.7875,"P":5228.5839,"I":0.0,"G":15500.7875},{"stationName":"广州江高(地铁站)","station_id":"广州江高(地铁站)_23.27926_113.21803","lineId":"广州地铁8号线","lat":23.2792583,"lon":113.21802804,"area_km2":1.3739,"D":0.1808,"C":0.5691,"T":0.0574,"U1":0.1046,"U2":0.0102,"couplingDegree":0.1808,"level":"极度失调","road_density":18.9569,"walk_accessibility":0.2755,"metro_line_density":3.0644,"station_count":2,"line_count":1,"population_density":7508.64,"poi_density":0.0,"poi_diversity":0.0,"gdp_density":0.0,"P":7508.64,"I":0.0,"G":0.0},{"stationName":"广州江村(地铁站)","station_id":"广州江村(地铁站)_23.27757_113.23016","lineId":"广州地铁8号线","lat":23.27757225,"lon":113.23016384,"area_km2":1.2248,"D":0.1695,"C":0.5321,"T":0.054,"U1":0.0997,"U2":0.0083,"couplingDegree":0.1695,"level":"极度失调","road_density":18.374,"walk_accessibility":0.2456,"metro_line_density":2.9848,"station_count":2,"line_count":1,"population_density":6090.93,"poi_density":0.0,"poi_diversity":0.0,"gdp_density":0.0,"P":6090.93,"I":0.0,"G":0.0},{"stationName":"广州江府(地铁站)","station_id":"广州江府(地铁站)_23.29348_113.23654","lineId":"广州地铁8号线","lat":23.293479155,"lon":113.236537935,"area_km2":0.8547,"D":0.1309,"C":0.4303,"T":0.0398,"U1":0.0758,"U2":0.0039,"couplingDegree":0.1309,"level":"极度失调","road_density":22.4825,"walk_accessibility":0.1714,"metro_line_density":9.1016,"station_count":1,"line_count":1,"population_density":2852.3918,"poi_density":0.0,"poi_diversity":0.0,"gdp_density":0.0,"P":2852.3918,"I":0.0,"G":0.0},{"stationName":"广州水沥(地铁站)","station_id":"广州水沥(地铁站)_23.30733_113.23200","lineId":"广州地铁8号线","lat":23.307325565,"lon":113.231995305,"area_km2":1.1841,"D":0.1055,"C":0.4781,"T":0.0233,"U1":0.0437,"U2":0.0028,"couplingDegree":0.1055,"level":"极度失调","road_density":18.5695,"walk_accessibility":0.2374,"metro_line_density":4.4573,"station_count":1,"line_count":1,"population_density":2083.4356,"poi_density":0.0,"poi_diversity":0.0,"gdp_density":0.0,"P":2083.4356,"I":0.0,"G":0.0},{"stationName":"广州神山东(地铁站)","station_id":"广州神山东(地铁站)_23.32931_113.22507","lineId":"广州地铁8号线","lat":23.32931214,"lon":113.22506901,"area_km2":1.488,"D":0.1393,"C":0.7906,"T":0.0245,"U1":0.0396,"U2":0.0095,"couplingDegree":0.1393,"level":"极度失调","road_density":16.8386,"walk_accessibility":0.2983,"metro_line_density":3.6265,"station_count":1,"line_count":1,"population_density":6997.3607,"poi_density":0.0,"poi_diversity":0.0,"gdp_density":0.0,"P":6997.3607,"I":0.0,"G":0.0},{"stationName":"广州东镜(地铁站)","station_id":"广州东镜(地铁站)_23.34440_113.22133","lineId":"广州地铁8号线","lat":23.34439532,"lon":113.22132999,"area_km2":1.6158,"D":0.165,"C":0.8922,"T":0.0305,"U1":0.0443,"U2":0.0167,"couplingDegree":0.165,"level":"极度失调","road_density":18.2208,"walk_accessibility":0.324,"metro_line_density":3.3443,"station_count":1,"line_count":1,"population_density":12307.1753,"poi_density":0.0,"poi_diversity":0.0,"gdp_density":0.0,"P":12307.1753,"I":0.0,"G":0.0},{"stationName":"广州雅源(地铁站)","station_id":"广州雅源(地铁站)_23.35619_113.22096","lineId":"广州地铁8号线","lat":23.35619473,"lon":113.22095809999999,"area_km2":1.0528,"D":0.1872,"C":0.8811,"T":0.0398,"U1":0.0585,"U2":0.021,"couplingDegree":0.1872,"level":"极度失调","road_density":23.1445,"walk_accessibility":0.2111,"metro_line_density":5.1646,"station_count":1,"line_count":1,"population_density":15416.2672,"poi_density":0.0,"poi_diversity":0.0,"gdp_density":0.0,"P":15416.2672,"I":0.0,"G":0.0},{"stationName":"广州雅瑶(地铁站)","station_id":"广州雅瑶(地铁站)_23.36845_113.21601","lineId":"广州地铁8号线","lat":23.36845022,"lon":113.21600679,"area_km2":1.2513,"D":0.2485,"C":0.8117,"T":0.0761,"U1":0.1205,"U2":0.0316,"couplingDegree":0.2485,"level":"中度失调","road_density":23.5918,"walk_accessibility":0.2509,"metro_line_density":3.8889,"station_count":2,"line_count":1,"population_density":23275.4923,"poi_density":0.0,"poi_diversity":0.0,"gdp_density":0.0,"P":23275.4923,"I":0.0,"G":0.0},{"stationName":"广州秀全公园(地铁站)","station_id":"广州秀全公园(地铁站)_23.37439_113.20675","lineId":"广州地铁8号线","lat":23.374394805,"lon":113.20674532000001,"area_km2":1.5718,"D":0.2909,"C":0.9559,"T":0.0885,"U1":0.1145,"U2":0.0625,"couplingDegree":0.2909,"level":"中度失调","road_density":18.6375,"walk_accessibility":0.3151,"metro_line_density":4.2923,"station_count":2,"line_count":1,"population_density":35210.1921,"poi_density":0.0,"poi_diversity":0.0,"gdp_density":14523.576,"P":35210.1921,"I":0.0,"G":14523.576},{"stationName":"广州广州北站(地铁站)","station_id":"广州广州北站(地铁站)_23.37832_113.19439","lineId":"广州地铁8号线 / 广州地铁9号线","lat":23.378322095,"lon":113.19439353,"area_km2":1.2233,"D":0.1949,"C":0.5002,"T":0.0759,"U1":0.1417,"U2":0.0102,"couplingDegree":0.1949,"level":"极度失调","road_density":24.0893,"walk_accessibility":0.2453,"metro_line_density":4.908,"station_count":1,"line_count":2,"population_density":7490.6571,"poi_density":0.0,"poi_diversity":0.0,"gdp_density":0.0,"P":7490.6571,"I":0.0,"G":0.0},{"stationName":"广州桃源(地铁站)","station_id":"广州桃源(地铁站)_23.26786_113.24049","lineId":"广州地铁8号线","lat":23.26785531,"lon":113.24049377,"area_km2":1.4783,"D":0.1274,"C":0.689,"T":0.0236,"U1":0.0406,"U2":0.0065,"couplingDegree":0.1274,"level":"极度失调","road_density":17.6421,"walk_accessibility":0.2964,"metro_line_density":3.4443,"station_count":1,"line_count":1,"population_density":4771.1373,"poi_density":0.0,"poi_diversity":0.0,"gdp_density":0.0,"P":4771.1373,"I":0.0,"G":0.0},{"stationName":"广州均禾(地铁站)","station_id":"广州均禾(地铁站)_23.25669_113.24670","lineId":"广州地铁8号线","lat":23.25669205,"lon":113.24670198,"area_km2":1.6897,"D":0.1548,"C":0.4306,"T":0.0556,"U1":0.1058,"U2":0.0054,"couplingDegree":0.1548,"level":"极度失调","road_density":17.3613,"walk_accessibility":0.3388,"metro_line_density":3.0515,"station_count":2,"line_count":1,"population_density":3987.7173,"poi_density":0.0,"poi_diversity":0.0,"gdp_density":0.0,"P":3987.7173,"I":0.0,"G":0.0},{"stationName":"广州白云大朗(地铁站)","station_id":"广州白云大朗(地铁站)_23.24627_113.24806","lineId":"广州地铁8号线","lat":23.24627016,"lon":113.24805858,"area_km2":1.3307,"D":0.1422,"C":0.3418,"T":0.0592,"U1":0.1148,"U2":0.0036,"couplingDegree":0.1422,"level":"极度失调","road_density":21.286,"walk_accessibility":0.2668,"metro_line_density":3.7979,"station_count":2,"line_count":1,"population_density":2621.872,"poi_density":0.0,"poi_diversity":0.0,"gdp_density":0.0,"P":2621.872,"I":0.0,"G":0.0},{"stationName":"广州夏茅(地铁站)","station_id":"广州夏茅(地铁站)_23.23053_113.25475","lineId":"广州地铁22号线 / 广州地铁8号线","lat":23.23052991,"lon":113.25474501,"area_km2":1.3285,"D":0.2129,"C":0.5565,"T":0.0814,"U1":0.1491,"U2":0.0138,"couplingDegree":0.2129,"level":"中度失调","road_density":23.1894,"walk_accessibility":0.2664,"metro_line_density":6.2955,"station_count":1,"line_count":2,"population_density":10133.8563,"poi_density":0.0,"poi_diversity":0.0,"gdp_density":0.0,"P":10133.8563,"I":0.0,"G":0.0},{"stationName":"广州黄石(地铁站)","station_id":"广州黄石(地铁站)_23.20731_113.24724","lineId":"广州地铁8号线","lat":23.20731226,"lon":113.24724033,"area_km2":1.796,"D":0.1793,"C":0.8211,"T":0.0392,"U1":0.0615,"U2":0.0168,"couplingDegree":0.1793,"level":"极度失调","road_density":23.642,"walk_accessibility":0.3601,"metro_line_density":3.0473,"station_count":1,"line_count":1,"population_density":12363.5243,"poi_density":0.0,"poi_diversity":0.0,"gdp_density":0.0,"P":12363.5243,"I":0.0,"G":0.0},{"stationName":"广州白云(地铁站)","station_id":"广州白云(地铁站)_23.19482_113.24256","lineId":"广州地铁8号线","lat":23.19481849,"lon":113.24256059,"area_km2":1.8673,"D":0.2067,"C":0.7693,"T":0.0555,"U1":0.091,"U2":0.0201,"couplingDegree":0.2067,"level":"中度失调","road_density":27.2266,"walk_accessibility":0.3744,"metro_line_density":6.1321,"station_count":1,"line_count":1,"population_density":14759.478,"poi_density":0.0,"poi_diversity":0.0,"gdp_density":0.0,"P":14759.478,"I":0.0,"G":0.0},{"stationName":"广州棠景(地铁站)","station_id":"广州棠景(地铁站)_23.18200_113.24600","lineId":"广州地铁8号线","lat":23.18200046,"lon":113.24599839,"area_km2":2.0566,"D":0.3239,"C":0.9299,"T":0.1128,"U1":0.1543,"U2":0.0713,"couplingDegree":0.3239,"level":"中度失调","road_density":26.0549,"walk_accessibility":0.4123,"metro_line_density":5.9275,"station_count":2,"line_count":1,"population_density":52473.2877,"poi_density":0.0,"poi_diversity":0.0,"gdp_density":0.0,"P":52473.2877,"I":0.0,"G":0.0},{"stationName":"广州远景(地铁站)","station_id":"广州远景(地铁站)_23.17592_113.24549","lineId":"广州地铁8号线","lat":23.17592116,"lon":113.24548837,"area_km2":1.6905,"D":0.3329,"C":0.9788,"T":0.1132,"U1":0.1364,"U2":0.09,"couplingDegree":0.3329,"level":"中度失调","road_density":25.5241,"walk_accessibility":0.3389,"metro_line_density":4.2623,"station_count":2,"line_count":1,"population_density":63570.413,"poi_density":0.5915,"poi_diversity":0.0,"gdp_density":0.0,"P":63570.413,"I":0.5915,"G":0.0},{"stationName":"广州梓元岗(地铁站)","station_id":"广州梓元岗(地铁站)_23.15614_113.25772","lineId":"广州地铁11号线 / 广州地铁8号线","lat":23.156139345,"lon":113.257724095,"area_km2":1.9503,"D":0.5678,"C":0.7912,"T":0.4074,"U1":0.6566,"U2":0.1583,"couplingDegree":0.5678,"level":"勉强协调","road_density":37.4118,"walk_accessibility":0.391,"metro_line_density":8.2585,"station_count":3,"line_count":6,"population_density":46599.3062,"poi_density":2.051,"poi_diversity":1.0397,"gdp_density":0.0,"P":46599.3062,"I":2.051,"G":0.0}]}