{"cityCode":"440100","year":2016,"stations":[{"stationName":"广州西塱(地铁站)","station_id":"广州西塱(地铁站)_23.06821_113.22651","lineId":"广州地铁10号线 / 广州地铁1号线 / 广州地铁22号线 / 广州广州广佛线(新城东--沥滘)","lat":23.068209426000003,"lon":113.226507804,"area_km2":1.6968,"D":0.325,"C":0.5881,"T":0.1796,"U1":0.3248,"U2":0.0343,"couplingDegree":0.325,"level":"中度失调","road_density":26.3285,"walk_accessibility":0.3402,"metro_line_density":6.9731,"station_count":1,"line_count":4,"population_density":23221.9607,"poi_density":0.0,"poi_diversity":0.0,"gdp_density":0.0,"P":23221.9607,"I":0.0,"G":0.0},{"stationName":"广州坑口(地铁站)","station_id":"广州坑口(地铁站)_23.08157_113.22717","lineId":"广州地铁1号线","lat":23.08157413,"lon":113.22717253,"area_km2":2.5888,"D":0.2139,"C":0.5668,"T":0.0808,"U1":0.1473,"U2":0.0142,"couplingDegree":0.2139,"level":"中度失调","road_density":29.5079,"walk_accessibility":0.519,"metro_line_density":3.535,"station_count":2,"line_count":1,"population_density":9621.9496,"poi_density":0.0,"poi_diversity":0.0,"gdp_density":0.0,"P":9621.9496,"I":0.0,"G":0.0},{"stationName":"广州花地湾(地铁站)","station_id":"广州花地湾(地铁站)_23.08975_113.22871","lineId":"广州地铁1号线","lat":23.08974785,"lon":113.22870587,"area_km2":2.6639,"D":0.2292,"C":0.58,"T":0.0906,"U1":0.1643,"U2":0.0168,"couplingDegree":0.2292,"level":"中度失调","road_density":33.1286,"walk_accessibility":0.5341,"metro_line_density":4.8753,"station_count":2,"line_count":1,"population_density":11356.1852,"poi_density":0.0,"poi_diversity":0.0,"gdp_density":0.0,"P":11356.1852,"I":0.0,"G":0.0},{"stationName":"广州芳村(地铁站)","station_id":"广州芳村(地铁站)_23.10157_113.23069","lineId":"广州地铁11号线 / 广州地铁1号线 / 广州地铁22号线","lat":23.101569972,"lon":113.230690944,"area_km2":2.4325,"D":0.4077,"C":0.909,"T":0.1828,"U1":0.259,"U2":0.1066,"couplingDegree":0.4077,"level":"勉强协调","road_density":29.65,"walk_accessibility":0.4877,"metro_line_density":6.7234,"station_count":1,"line_count":3,"population_density":31436.2341,"poi_density":0.8222,"poi_diversity":0.6931,"gdp_density":0.0,"P":31436.2341,"I":0.8222,"G":0.0},{"stationName":"广州黄沙(地铁站)","station_id":"广州黄沙(地铁站)_23.11242_113.23510","lineId":"广州地铁1号线 / 广州地铁6号线","lat":23.112418535000003,"lon":113.235100905,"area_km2":2.1562,"D":0.5196,"C":0.9489,"T":0.2846,"U1":0.3744,"U2":0.1947,"couplingDegree":0.5196,"level":"勉强协调","road_density":32.1177,"walk_accessibility":0.4323,"metro_line_density":5.4232,"station_count":4,"line_count":2,"population_density":16788.5246,"poi_density":5.1016,"poi_diversity":1.7678,"gdp_density":0.0,"P":16788.5246,"I":5.1016,"G":0.0},{"stationName":"广州长寿路(地铁站)","station_id":"广州长寿路(地铁站)_23.12109_113.23695","lineId":"广州地铁1号线","lat":23.12108553,"lon":113.23694782499999,"area_km2":3.1815,"D":0.5812,"C":0.9981,"T":0.3384,"U1":0.3595,"U2":0.3173,"couplingDegree":0.5812,"level":"勉强协调","road_density":28.0217,"walk_accessibility":0.6379,"metro_line_density":2.2972,"station_count":4,"line_count":2,"population_density":49447.7572,"poi_density":7.2293,"poi_diversity":2.5475,"gdp_density":0.0,"P":49447.7572,"I":7.2293,"G":0.0},{"stationName":"广州陈家祠(地铁站)","station_id":"广州陈家祠(地铁站)_23.12841_113.24111","lineId":"广州地铁1号线","lat":23.12840889,"lon":113.24111492,"area_km2":3.0666,"D":0.5118,"C":0.9834,"T":0.2664,"U1":0.2181,"U2":0.3146,"couplingDegree":0.5118,"level":"勉强协调","road_density":30.341,"walk_accessibility":0.6148,"metro_line_density":2.8115,"station_count":3,"line_count":1,"population_density":36840.0026,"poi_density":13.0437,"poi_diversity":2.3472,"gdp_density":0.0,"P":36840.0026,"I":13.0437,"G":0.0},{"stationName":"广州西门口(地铁站)","station_id":"广州西门口(地铁站)_23.12790_113.25050","lineId":"广州地铁1号线","lat":23.127900420000003,"lon":113.25050498,"area_km2":3.5231,"D":0.6682,"C":0.9811,"T":0.4551,"U1":0.5432,"U2":0.3669,"couplingDegree":0.6682,"level":"良好协调","road_density":32.1814,"walk_accessibility":0.7064,"metro_line_density":3.6105,"station_count":4,"line_count":4,"population_density":55236.0977,"poi_density":15.6111,"poi_diversity":2.483,"gdp_density":0.0,"P":55236.0977,"I":15.6111,"G":0.0},{"stationName":"广州公园前(地铁站)","station_id":"广州公园前(地铁站)_23.12810_113.25885","lineId":"广州地铁1号线","lat":23.12809794,"lon":113.25885318,"area_km2":3.2838,"D":0.7551,"C":0.959,"T":0.5946,"U1":0.763,"U2":0.4262,"couplingDegree":0.7551,"level":"良好协调","road_density":31.5047,"walk_accessibility":0.6584,"metro_line_density":5.1549,"station_count":6,"line_count":5,"population_density":31721.9304,"poi_density":30.4527,"poi_diversity":2.6355,"gdp_density":0.0,"P":31721.9304,"I":30.4527,"G":0.0},{"stationName":"广州农讲所(地铁站)","station_id":"广州农讲所(地铁站)_23.12929_113.27026","lineId":"广州地铁1号线","lat":23.12929255,"lon":113.27026288,"area_km2":3.2668,"D":0.8211,"C":0.973,"T":0.6929,"U1":0.5328,"U2":0.8529,"couplingDegree":0.8211,"level":"优质协调","road_density":32.2013,"walk_accessibility":0.655,"metro_line_density":4.7849,"station_count":5,"line_count":3,"population_density":67355.6761,"poi_density":48.0589,"poi_diversity":2.7022,"gdp_density":280930.142,"P":67355.6761,"I":48.0589,"G":280930.142},{"stationName":"广州烈士陵园(地铁站)","station_id":"广州烈士陵园(地铁站)_23.12867_113.28080","lineId":"广州地铁12号线 / 广州地铁1号线","lat":23.12866966,"lon":113.28079735,"area_km2":2.9241,"D":0.8481,"C":0.9851,"T":0.7301,"U1":0.8558,"U2":0.6045,"couplingDegree":0.8481,"level":"优质协调","road_density":34.1382,"walk_accessibility":0.5863,"metro_line_density":6.8814,"station_count":6,"line_count":6,"population_density":60521.0302,"poi_density":54.3759,"poi_diversity":2.6833,"gdp_density":0.0,"P":60521.0302,"I":54.3759,"G":0.0},{"stationName":"广州东山口(地铁站)","station_id":"广州东山口(地铁站)_23.12652_113.29043","lineId":"广州地铁1号线 / 广州地铁6号线","lat":23.126521175,"lon":113.2904276,"area_km2":3.0671,"D":0.7299,"C":0.984,"T":0.5414,"U1":0.6377,"U2":0.4451,"couplingDegree":0.7299,"level":"良好协调","road_density":30.7666,"walk_accessibility":0.6149,"metro_line_density":7.5123,"station_count":4,"line_count":5,"population_density":65309.6867,"poi_density":26.4094,"poi_diversity":2.5299,"gdp_density":0.0,"P":65309.6867,"I":26.4094,"G":0.0},{"stationName":"广州杨箕(地铁站)","station_id":"广州杨箕(地铁站)_23.13014_113.30283","lineId":"广州地铁1号线 / 广州地铁5号线","lat":23.130141115,"lon":113.30282725500001,"area_km2":2.2657,"D":0.5361,"C":0.9279,"T":0.3097,"U1":0.4252,"U2":0.1942,"couplingDegree":0.5361,"level":"勉强协调","road_density":38.3154,"walk_accessibility":0.4543,"metro_line_density":9.104,"station_count":3,"line_count":3,"population_density":49582.3525,"poi_density":1.7654,"poi_diversity":1.3863,"gdp_density":0.0,"P":49582.3525,"I":1.7654,"G":0.0},{"stationName":"广州体育西路(地铁站)","station_id":"广州体育西路(地铁站)_23.13542_113.31711","lineId":"广州地铁10号线 / 广州地铁1号线","lat":23.135422016666666,"lon":113.31710547333334,"area_km2":2.8779,"D":0.6603,"C":0.9799,"T":0.4449,"U1":0.5337,"U2":0.3561,"couplingDegree":0.6603,"level":"良好协调","road_density":45.0716,"walk_accessibility":0.577,"metro_line_density":9.8035,"station_count":3,"line_count":4,"population_density":17670.1842,"poi_density":5.9071,"poi_diversity":1.9562,"gdp_density":145280.4786,"P":17670.1842,"I":5.9071,"G":145280.4786},{"stationName":"广州体育中心(地铁站)","station_id":"广州体育中心(地铁站)_23.13715_113.32295","lineId":"广州地铁1号线","lat":23.13715107,"lon":113.32294731,"area_km2":3.1275,"D":0.6836,"C":0.9945,"T":0.4699,"U1":0.5189,"U2":0.4209,"couplingDegree":0.6836,"level":"良好协调","road_density":41.9356,"walk_accessibility":0.6271,"metro_line_density":7.9619,"station_count":3,"line_count":4,"population_density":29012.1615,"poi_density":11.5109,"poi_diversity":2.3101,"gdp_density":133686.6398,"P":29012.1615,"I":11.5109,"G":133686.6398},{"stationName":"广州广州东站(地铁站)","station_id":"广州广州东站(地铁站)_23.15339_113.31958","lineId":"广州地铁11号线 / 广州地铁18号线 / 广州地铁1号线 / 广州地铁3号线","lat":23.1533919375,"lon":113.3195788075,"area_km2":1.5228,"D":0.6618,"C":0.853,"T":0.5135,"U1":0.7815,"U2":0.2455,"couplingDegree":0.6618,"level":"良好协调","road_density":34.2442,"walk_accessibility":0.3053,"metro_line_density":8.5864,"station_count":5,"line_count":6,"population_density":31689.8214,"poi_density":6.567,"poi_diversity":2.0253,"gdp_density":0.0,"P":31689.8214,"I":6.567,"G":0.0},{"stationName":"广州广州南站(地铁站)","station_id":"广州广州南站(地铁站)_22.99152_113.26361","lineId":"广州地铁2号线 / 广州地铁7号线","lat":22.991516100000002,"lon":113.26360775,"area_km2":1.6,"D":0.2446,"C":0.5198,"T":0.1151,"U1":0.2134,"U2":0.0168,"couplingDegree":0.2446,"level":"中度失调","road_density":30.0987,"walk_accessibility":0.3208,"metro_line_density":2.7638,"station_count":2,"line_count":2,"population_density":244.9952,"poi_density":0.0,"poi_diversity":0.0,"gdp_density":16961.0749,"P":244.9952,"I":0.0,"G":16961.0749},{"stationName":"广州石壁(地铁站)","station_id":"广州石壁(地铁站)_22.99687_113.27331","lineId":"广州地铁2号线 / 广州地铁7号线","lat":22.996867006666665,"lon":113.27331355000001,"area_km2":1.477,"D":0.089,"C":0.0766,"T":0.1035,"U1":0.2066,"U2":0.0003,"couplingDegree":0.089,"level":"极度失调","road_density":29.1067,"walk_accessibility":0.2961,"metro_line_density":2.2522,"station_count":2,"line_count":2,"population_density":205.8179,"poi_density":0.0,"poi_diversity":0.0,"gdp_density":0.0,"P":205.8179,"I":0.0,"G":0.0},{"stationName":"广州会江(地铁站)","station_id":"广州会江(地铁站)_23.01575_113.28105","lineId":"广州地铁2号线","lat":23.01575206,"lon":113.28104841,"area_km2":1.5662,"D":0.1078,"C":0.4417,"T":0.0263,"U1":0.0499,"U2":0.0027,"couplingDegree":0.1078,"level":"极度失调","road_density":26.7174,"walk_accessibility":0.314,"metro_line_density":1.5746,"station_count":1,"line_count":1,"population_density":1829.2393,"poi_density":0.0,"poi_diversity":0.0,"gdp_density":0.0,"P":1829.2393,"I":0.0,"G":0.0},{"stationName":"广州南浦(地铁站)","station_id":"广州南浦(地铁站)_23.03562_113.28780","lineId":"广州地铁2号线","lat":23.03561612,"lon":113.28779802,"area_km2":2.0582,"D":0.1946,"C":0.5888,"T":0.0643,"U1":0.1163,"U2":0.0123,"couplingDegree":0.1946,"level":"极度失调","road_density":22.079,"walk_accessibility":0.4127,"metro_line_density":2.2901,"station_count":2,"line_count":1,"population_density":8339.1602,"poi_density":0.0,"poi_diversity":0.0,"gdp_density":0.0,"P":8339.1602,"I":0.0,"G":0.0},{"stationName":"广州洛溪(地铁站)","station_id":"广州洛溪(地铁站)_23.04557_113.29330","lineId":"广州地铁2号线","lat":23.04557025,"lon":113.29329905,"area_km2":2.2862,"D":0.2473,"C":0.8081,"T":0.0757,"U1":0.1202,"U2":0.0311,"couplingDegree":0.2473,"level":"中度失调","road_density":23.4802,"walk_accessibility":0.4584,"metro_line_density":1.9207,"station_count":2,"line_count":1,"population_density":13524.5231,"poi_density":0.0,"poi_diversity":0.0,"gdp_density":11480.9729,"P":13524.5231,"I":0.0,"G":11480.9729},{"stationName":"广州南洲(地铁站)","station_id":"广州南洲(地铁站)_23.06705_113.29228","lineId":"广州地铁2号线 / 广州广州广佛线(新城东--沥滘)","lat":23.067046689999998,"lon":113.29228402999999,"area_km2":2.0158,"D":0.3133,"C":0.5732,"T":0.1712,"U1":0.3115,"U2":0.0309,"couplingDegree":0.3133,"level":"中度失调","road_density":28.7488,"walk_accessibility":0.4042,"metro_line_density":5.4052,"station_count":2,"line_count":3,"population_density":20914.6863,"poi_density":0.0,"poi_diversity":0.0,"gdp_density":0.0,"P":20914.6863,"I":0.0,"G":0.0},{"stationName":"广州东晓南(地铁站)","station_id":"广州东晓南(地铁站)_23.07382_113.28831","lineId":"广州地铁10号线 / 广州地铁2号线","lat":23.073824185,"lon":113.288305735,"area_km2":2.4767,"D":0.4561,"C":0.9243,"T":0.225,"U1":0.3109,"U2":0.1391,"couplingDegree":0.4561,"level":"勉强协调","road_density":26.7811,"walk_accessibility":0.4966,"metro_line_density":5.1268,"station_count":2,"line_count":3,"population_density":42068.5814,"poi_density":0.0,"poi_diversity":0.0,"gdp_density":79572.7987,"P":42068.5814,"I":0.0,"G":79572.7987},{"stationName":"广州江泰路(地铁站)","station_id":"广州江泰路(地铁站)_23.08473_113.27448","lineId":"广州地铁11号线 / 广州地铁2号线","lat":23.084725855000002,"lon":113.27447567,"area_km2":1.8654,"D":0.4369,"C":0.9967,"T":0.1915,"U1":0.2071,"U2":0.1758,"couplingDegree":0.4369,"level":"勉强协调","road_density":24.5891,"walk_accessibility":0.374,"metro_line_density":3.3721,"station_count":2,"line_count":2,"population_density":31598.3775,"poi_density":3.7525,"poi_diversity":1.3518,"gdp_density":0.0,"P":31598.3775,"I":3.7525,"G":0.0},{"stationName":"广州昌岗(地铁站)","station_id":"广州昌岗(地铁站)_23.09278_113.27177","lineId":"广州地铁2号线","lat":23.092775465000003,"lon":113.271770785,"area_km2":2.862,"D":0.4933,"C":0.9855,"T":0.2469,"U1":0.2889,"U2":0.205,"couplingDegree":0.4933,"level":"勉强协调","road_density":28.3273,"walk_accessibility":0.5738,"metro_line_density":2.2543,"station_count":3,"line_count":2,"population_density":44670.042,"poi_density":3.8435,"poi_diversity":1.4681,"gdp_density":0.0,"P":44670.042,"I":3.8435,"G":0.0},{"stationName":"广州江南西(地铁站)","station_id":"广州江南西(地铁站)_23.09990_113.26858","lineId":"广州地铁2号线","lat":23.09989636,"lon":113.26858341,"area_km2":3.0765,"D":0.4924,"C":0.992,"T":0.2445,"U1":0.2135,"U2":0.2754,"couplingDegree":0.4924,"level":"勉强协调","road_density":30.9584,"walk_accessibility":0.6168,"metro_line_density":1.7326,"station_count":3,"line_count":1,"population_density":47987.9622,"poi_density":3.5754,"poi_diversity":1.4681,"gdp_density":69228.934,"P":47987.9622,"I":3.5754,"G":69228.934},{"stationName":"广州市二宫(地铁站)","station_id":"广州市二宫(地铁站)_23.10868_113.26456","lineId":"广州地铁2号线","lat":23.10867898,"lon":113.26455869,"area_km2":2.8643,"D":0.5243,"C":0.9976,"T":0.2755,"U1":0.2947,"U2":0.2563,"couplingDegree":0.5243,"level":"勉强协调","road_density":31.105,"walk_accessibility":0.5743,"metro_line_density":2.1328,"station_count":3,"line_count":2,"population_density":61229.1695,"poi_density":1.0474,"poi_diversity":1.0986,"gdp_density":74359.469,"P":61229.1695,"I":1.0474,"G":74359.469},{"stationName":"广州海珠广场(地铁站)","station_id":"广州海珠广场(地铁站)_23.11743_113.26044","lineId":"广州地铁2号线 / 广州地铁6号线","lat":23.117431815000003,"lon":113.26044308499999,"area_km2":3.1122,"D":0.603,"C":0.9452,"T":0.3847,"U1":0.5104,"U2":0.2591,"couplingDegree":0.603,"level":"良好协调","road_density":27.0237,"walk_accessibility":0.624,"metro_line_density":3.3055,"station_count":5,"line_count":3,"population_density":50657.8737,"poi_density":5.4625,"poi_diversity":1.9213,"gdp_density":0.0,"P":50657.8737,"I":5.4625,"G":0.0},{"stationName":"广州纪念堂(地铁站)","station_id":"广州纪念堂(地铁站)_23.13473_113.25708","lineId":"广州地铁13号线 / 广州地铁2号线 / 广州地铁8号线","lat":23.134734716666667,"lon":113.25708422666666,"area_km2":3.0782,"D":0.7957,"C":0.9925,"T":0.6379,"U1":0.5601,"U2":0.7158,"couplingDegree":0.7957,"level":"良好协调","road_density":32.9765,"walk_accessibility":0.6172,"metro_line_density":7.1913,"station_count":4,"line_count":4,"population_density":56771.5389,"poi_density":25.6647,"poi_diversity":2.5186,"gdp_density":298148.2837,"P":56771.5389,"I":25.6647,"G":298148.2837},{"stationName":"广州越秀公园(地铁站)","station_id":"广州越秀公园(地铁站)_23.14244_113.25617","lineId":"广州地铁2号线","lat":23.14244166,"lon":113.25617401,"area_km2":2.5829,"D":0.7083,"C":0.9304,"T":0.5392,"U1":0.7369,"U2":0.3415,"couplingDegree":0.7083,"level":"良好协调","road_density":34.8451,"walk_accessibility":0.5179,"metro_line_density":7.5763,"station_count":3,"line_count":7,"population_density":47262.1163,"poi_density":12.0021,"poi_diversity":2.5615,"gdp_density":0.0,"P":47262.1163,"I":12.0021,"G":0.0},{"stationName":"广州广州火车站(地铁站)","station_id":"广州广州火车站(地铁站)_23.15084_113.25170","lineId":"广州地铁11号线 / 广州地铁14号线 / 广州地铁22号线 / 广州地铁2号线 / 广州地铁5号线","lat":23.15084483833333,"lon":113.25170346499999,"area_km2":2.3501,"D":0.6428,"C":0.8515,"T":0.4852,"U1":0.7396,"U2":0.2308,"couplingDegree":0.6428,"level":"良好协调","road_density":37.1019,"walk_accessibility":0.4712,"metro_line_density":10.065,"station_count":4,"line_count":6,"population_density":52929.8615,"poi_density":4.2552,"poi_diversity":1.6094,"gdp_density":0.0,"P":52929.8615,"I":4.2552,"G":0.0},{"stationName":"广州三元里(地铁站)","station_id":"广州三元里(地铁站)_23.16207_113.25152","lineId":"广州地铁2号线","lat":23.1620706,"lon":113.25152331,"area_km2":1.9886,"D":0.6691,"C":0.8865,"T":0.505,"U1":0.7386,"U2":0.2713,"couplingDegree":0.6691,"level":"良好协调","road_density":36.5183,"walk_accessibility":0.3987,"metro_line_density":10.9188,"station_count":4,"line_count":6,"population_density":62734.436,"poi_density":5.5316,"poi_diversity":1.8462,"gdp_density":0.0,"P":62734.436,"I":5.5316,"G":0.0},{"stationName":"广州飞翔公园(地铁站)","station_id":"广州飞翔公园(地铁站)_23.17149_113.25830","lineId":"广州地铁2号线","lat":23.1714946,"lon":113.2583034,"area_km2":1.3297,"D":0.3957,"C":0.9987,"T":0.1568,"U1":0.1486,"U2":0.1649,"couplingDegree":0.3957,"level":"中度失调","road_density":28.7009,"walk_accessibility":0.2666,"metro_line_density":6.8069,"station_count":2,"line_count":1,"population_density":43495.243,"poi_density":2.2561,"poi_diversity":1.0986,"gdp_density":0.0,"P":43495.243,"I":2.2561,"G":0.0},{"stationName":"广州白云公园(地铁站)","station_id":"广州白云公园(地铁站)_23.18426_113.26563","lineId":"广州地铁2号线","lat":23.1842649,"lon":113.26562739,"area_km2":2.0487,"D":0.4234,"C":0.9822,"T":0.1825,"U1":0.2168,"U2":0.1483,"couplingDegree":0.4234,"level":"勉强协调","road_density":28.7257,"walk_accessibility":0.4108,"metro_line_density":2.9697,"station_count":2,"line_count":2,"population_density":18257.0995,"poi_density":3.4168,"poi_diversity":1.277,"gdp_density":0.0,"P":18257.0995,"I":3.4168,"G":0.0},{"stationName":"广州白云文化广场(地铁站)","station_id":"广州白云文化广场(地铁站)_23.19388_113.27084","lineId":"广州地铁12号线 / 广州地铁2号线","lat":23.193875730000002,"lon":113.27084250499999,"area_km2":1.8818,"D":0.4563,"C":0.9452,"T":0.2203,"U1":0.2922,"U2":0.1484,"couplingDegree":0.4563,"level":"勉强协调","road_density":29.5813,"walk_accessibility":0.3773,"metro_line_density":4.4171,"station_count":3,"line_count":2,"population_density":4123.7081,"poi_density":3.1884,"poi_diversity":1.2425,"gdp_density":25900.9788,"P":4123.7081,"I":3.1884,"G":25900.9788},{"stationName":"广州萧岗(地铁站)","station_id":"广州萧岗(地铁站)_23.20122_113.27535","lineId":"广州地铁2号线","lat":23.20121738,"lon":113.27534695,"area_km2":1.6302,"D":0.4243,"C":0.9799,"T":0.1837,"U1":0.2203,"U2":0.1471,"couplingDegree":0.4243,"level":"勉强协调","road_density":31.1829,"walk_accessibility":0.3269,"metro_line_density":3.4677,"station_count":2,"line_count":2,"population_density":15759.4117,"poi_density":3.0671,"poi_diversity":1.3322,"gdp_density":0.0,"P":15759.4117,"I":3.0671,"G":0.0},{"stationName":"广州江夏(地铁站)","station_id":"广州江夏(地铁站)_23.21393_113.27810","lineId":"广州地铁2号线","lat":23.21393056,"lon":113.27809704,"area_km2":1.9634,"D":0.3184,"C":0.9492,"T":0.1068,"U1":0.1404,"U2":0.0732,"couplingDegree":0.3184,"level":"中度失调","road_density":33.4297,"walk_accessibility":0.3937,"metro_line_density":2.0582,"station_count":2,"line_count":1,"population_density":8105.7319,"poi_density":1.0186,"poi_diversity":0.6931,"gdp_density":0.0,"P":8105.7319,"I":1.0186,"G":0.0},{"stationName":"广州黄边(地铁站)","station_id":"广州黄边(地铁站)_23.22427_113.28202","lineId":"广州地铁2号线","lat":23.22426556,"lon":113.28201544999999,"area_km2":2.006,"D":0.5076,"C":0.9929,"T":0.2595,"U1":0.2905,"U2":0.2286,"couplingDegree":0.5076,"level":"勉强协调","road_density":25.595,"walk_accessibility":0.4022,"metro_line_density":5.493,"station_count":3,"line_count":2,"population_density":6755.084,"poi_density":7.4774,"poi_diversity":2.2111,"gdp_density":0.0,"P":6755.084,"I":7.4774,"G":0.0},{"stationName":"广州嘉禾望岗(地铁站)","station_id":"广州嘉禾望岗(地铁站)_23.24006_113.28373","lineId":"广州地铁14号线 / 广州地铁2号线","lat":23.24006153,"lon":113.28373465,"area_km2":1.81,"D":0.1719,"C":0.408,"T":0.0724,"U1":0.1385,"U2":0.0063,"couplingDegree":0.1719,"level":"极度失调","road_density":23.7737,"walk_accessibility":0.3629,"metro_line_density":3.5644,"station_count":1,"line_count":2,"population_density":4261.218,"poi_density":0.0,"poi_diversity":0.0,"gdp_density":0.0,"P":4261.218,"I":0.0,"G":0.0},{"stationName":"广州南庄(地铁站)","station_id":"广州南庄(地铁站)_22.98568_113.00127","lineId":"广州地铁2号线","lat":22.9856765,"lon":113.00126738,"area_km2":1.0821,"D":0.0,"C":0.0,"T":0.0148,"U1":0.0296,"U2":0.0,"couplingDegree":0.0,"level":"极度失调","road_density":18.5412,"walk_accessibility":0.2169,"metro_line_density":2.414,"station_count":1,"line_count":1,"population_density":0.0,"poi_density":0.0,"poi_diversity":0.0,"gdp_density":0.0,"P":0.0,"I":0.0,"G":0.0},{"stationName":"广州湖涌(地铁站)","station_id":"广州湖涌(地铁站)_23.00587_113.00606","lineId":"广州地铁2号线","lat":23.00586621,"lon":113.00605872,"area_km2":1.522,"D":0.0,"C":0.0,"T":0.0213,"U1":0.0425,"U2":0.0,"couplingDegree":0.0,"level":"极度失调","road_density":24.7763,"walk_accessibility":0.3052,"metro_line_density":1.172,"station_count":1,"line_count":1,"population_density":0.0,"poi_density":0.0,"poi_diversity":0.0,"gdp_density":0.0,"P":0.0,"I":0.0,"G":0.0},{"stationName":"广州绿岛湖(地铁站)","station_id":"广州绿岛湖(地铁站)_23.00462_113.02886","lineId":"广州地铁2号线","lat":23.00462025,"lon":113.02886193,"area_km2":1.4413,"D":0.0,"C":0.0,"T":0.0217,"U1":0.0434,"U2":0.0,"couplingDegree":0.0,"level":"极度失调","road_density":19.8971,"walk_accessibility":0.289,"metro_line_density":3.5049,"station_count":1,"line_count":1,"population_density":0.0,"poi_density":0.0,"poi_diversity":0.0,"gdp_density":0.0,"P":0.0,"I":0.0,"G":0.0},{"stationName":"广州智慧新城(地铁站)","station_id":"广州智慧新城(地铁站)_23.01375_113.04998","lineId":"广州地铁2号线","lat":23.01375057,"lon":113.04998269,"area_km2":1.4739,"D":0.0,"C":0.0,"T":0.0287,"U1":0.0575,"U2":0.0,"couplingDegree":0.0,"level":"极度失调","road_density":25.7561,"walk_accessibility":0.2955,"metro_line_density":3.4949,"station_count":1,"line_count":1,"population_density":0.0,"poi_density":0.0,"poi_diversity":0.0,"gdp_density":0.0,"P":0.0,"I":0.0,"G":0.0},{"stationName":"广州张槎(地铁站)","station_id":"广州张槎(地铁站)_23.01360_113.06229","lineId":"广州地铁2号线","lat":23.01360472,"lon":113.06228855,"area_km2":1.9482,"D":0.0,"C":0.0,"T":0.029,"U1":0.0579,"U2":0.0,"couplingDegree":0.0,"level":"极度失调","road_density":25.3071,"walk_accessibility":0.3906,"metro_line_density":2.7477,"station_count":1,"line_count":1,"population_density":0.0,"poi_density":0.0,"poi_diversity":0.0,"gdp_density":0.0,"P":0.0,"I":0.0,"G":0.0},{"stationName":"广州石湾(地铁站)","station_id":"广州石湾(地铁站)_23.00785_113.07781","lineId":"广州地铁2号线","lat":23.00785134,"lon":113.07780596,"area_km2":1.8673,"D":0.0,"C":0.0,"T":0.0241,"U1":0.0482,"U2":0.0,"couplingDegree":0.0,"level":"极度失调","road_density":21.9283,"walk_accessibility":0.3744,"metro_line_density":2.6126,"station_count":1,"line_count":1,"population_density":0.0,"poi_density":0.0,"poi_diversity":0.0,"gdp_density":0.0,"P":0.0,"I":0.0,"G":0.0},{"stationName":"广州沙岗(地铁站)","station_id":"广州沙岗(地铁站)_22.99907_113.08876","lineId":"广州地铁2号线","lat":22.99907018,"lon":113.08876009,"area_km2":1.9,"D":0.0,"C":0.0,"T":0.0266,"U1":0.0531,"U2":0.0,"couplingDegree":0.0,"level":"极度失调","road_density":23.4604,"walk_accessibility":0.3809,"metro_line_density":2.7693,"station_count":1,"line_count":1,"population_density":0.0,"poi_density":0.0,"poi_diversity":0.0,"gdp_density":0.0,"P":0.0,"I":0.0,"G":0.0},{"stationName":"广州魁奇路(地铁站)","station_id":"广州魁奇路(地铁站)_22.99634_113.10313","lineId":"广州地铁2号线","lat":22.99634112,"lon":113.10312806,"area_km2":2.4573,"D":0.0,"C":0.0,"T":0.068,"U1":0.136,"U2":0.0,"couplingDegree":0.0,"level":"极度失调","road_density":24.125,"walk_accessibility":0.4927,"metro_line_density":4.0608,"station_count":2,"line_count":1,"population_density":0.0,"poi_density":0.0,"poi_diversity":0.0,"gdp_density":0.0,"P":0.0,"I":0.0,"G":0.0},{"stationName":"广州石梁(地铁站)","station_id":"广州石梁(地铁站)_22.99525_113.11326","lineId":"广州地铁2号线","lat":22.99525313,"lon":113.1132637,"area_km2":2.0501,"D":0.0,"C":0.0,"T":0.0604,"U1":0.1208,"U2":0.0,"couplingDegree":0.0,"level":"极度失调","road_density":22.3121,"walk_accessibility":0.411,"metro_line_density":3.0104,"station_count":2,"line_count":1,"population_density":0.0,"poi_density":0.0,"poi_diversity":0.0,"gdp_density":0.0,"P":0.0,"I":0.0,"G":0.0},{"stationName":"广州湾华(地铁站)","station_id":"广州湾华(地铁站)_22.99445_113.12618","lineId":"广州地铁2号线","lat":22.99444635,"lon":113.12617985,"area_km2":2.0562,"D":0.0,"C":0.0,"T":0.0246,"U1":0.0492,"U2":0.0,"couplingDegree":0.0,"level":"极度失调","road_density":21.5916,"walk_accessibility":0.4123,"metro_line_density":2.5123,"station_count":1,"line_count":1,"population_density":0.0,"poi_density":0.0,"poi_diversity":0.0,"gdp_density":0.0,"P":0.0,"I":0.0,"G":0.0},{"stationName":"广州登洲(地铁站)","station_id":"广州登洲(地铁站)_22.98190_113.14333","lineId":"广州地铁2号线","lat":22.98190002,"lon":113.14333221,"area_km2":2.007,"D":0.0,"C":0.0,"T":0.0256,"U1":0.0512,"U2":0.0,"couplingDegree":0.0,"level":"极度失调","road_density":23.4823,"walk_accessibility":0.4024,"metro_line_density":2.1999,"station_count":1,"line_count":1,"population_density":0.0,"poi_density":0.0,"poi_diversity":0.0,"gdp_density":0.0,"P":0.0,"I":0.0,"G":0.0},{"stationName":"广州花卉世界(地铁站)","station_id":"广州花卉世界(地铁站)_22.97602_113.15593","lineId":"广州地铁2号线","lat":22.97602016,"lon":113.15592703,"area_km2":2.0796,"D":0.0,"C":0.0,"T":0.0219,"U1":0.0437,"U2":0.0,"couplingDegree":0.0,"level":"极度失调","road_density":20.0667,"walk_accessibility":0.417,"metro_line_density":2.1333,"station_count":1,"line_count":1,"population_density":0.0,"poi_density":0.0,"poi_diversity":0.0,"gdp_density":0.0,"P":0.0,"I":0.0,"G":0.0},{"stationName":"广州仙涌(地铁站)","station_id":"广州仙涌(地铁站)_22.98570_113.19290","lineId":"广州地铁2号线","lat":22.9857025,"lon":113.19289673,"area_km2":1.92,"D":0.0,"C":0.0,"T":0.0225,"U1":0.045,"U2":0.0,"couplingDegree":0.0,"level":"极度失调","road_density":20.6115,"walk_accessibility":0.3849,"metro_line_density":2.4744,"station_count":1,"line_count":1,"population_density":0.0,"poi_density":0.0,"poi_diversity":0.0,"gdp_density":0.0,"P":0.0,"I":0.0,"G":0.0},{"stationName":"广州石洲(地铁站)","station_id":"广州石洲(地铁站)_22.99331_113.21080","lineId":"广州地铁2号线","lat":22.99331114,"lon":113.21079849,"area_km2":2.0754,"D":0.0,"C":0.0,"T":0.0216,"U1":0.0432,"U2":0.0,"couplingDegree":0.0,"level":"极度失调","road_density":19.0232,"walk_accessibility":0.4161,"metro_line_density":2.4703,"station_count":1,"line_count":1,"population_density":0.0,"poi_density":0.0,"poi_diversity":0.0,"gdp_density":0.0,"P":0.0,"I":0.0,"G":0.0},{"stationName":"广州林岳西(地铁站)","station_id":"广州林岳西(地铁站)_22.99648_113.23184","lineId":"广州地铁2号线","lat":22.99647914,"lon":113.231844905,"area_km2":1.7857,"D":0.0,"C":0.0,"T":0.0277,"U1":0.0554,"U2":0.0,"couplingDegree":0.0,"level":"极度失调","road_density":23.8314,"walk_accessibility":0.358,"metro_line_density":3.2549,"station_count":1,"line_count":1,"population_density":0.0,"poi_density":0.0,"poi_diversity":0.0,"gdp_density":0.0,"P":0.0,"I":0.0,"G":0.0},{"stationName":"广州林岳东(2号线)(地铁站)","station_id":"广州林岳东(2号线)(地铁站)_22.99665_113.24438","lineId":"广州地铁2号线","lat":22.99664607,"lon":113.24437798,"area_km2":0.9744,"D":0.0,"C":0.0,"T":0.0346,"U1":0.0692,"U2":0.0,"couplingDegree":0.0,"level":"极度失调","road_density":29.1435,"walk_accessibility":0.1954,"metro_line_density":5.2301,"station_count":1,"line_count":1,"population_density":0.0,"poi_density":0.0,"poi_diversity":0.0,"gdp_density":0.0,"P":0.0,"I":0.0,"G":0.0},{"stationName":"广州机场北(2号航站楼)(地铁站)","station_id":"广州机场北(2号航站楼)(地铁站)_23.39806_113.29862","lineId":"广州地铁22号线 / 广州地铁3号线","lat":23.398061685000002,"lon":113.298622825,"area_km2":0.7143,"D":0.0,"C":0.0,"T":0.1291,"U1":0.2581,"U2":0.0,"couplingDegree":0.0,"level":"极度失调","road_density":41.2013,"walk_accessibility":0.1432,"metro_line_density":7.9473,"station_count":2,"line_count":2,"population_density":0.0,"poi_density":0.0,"poi_diversity":0.0,"gdp_density":0.0,"P":0.0,"I":0.0,"G":0.0},{"stationName":"广州机场南(1号航站楼)(地铁站)","station_id":"广州机场南(1号航站楼)(地铁站)_23.38751_113.29649","lineId":"广州地铁22号线 / 广州地铁3号线","lat":23.387508816666667,"lon":113.29649164333334,"area_km2":0.777,"D":0.2072,"C":0.2986,"T":0.1438,"U1":0.281,"U2":0.0066,"couplingDegree":0.2072,"level":"中度失调","road_density":41.3371,"walk_accessibility":0.1558,"metro_line_density":11.7672,"station_count":2,"line_count":2,"population_density":4435.0263,"poi_density":0.0,"poi_diversity":0.0,"gdp_density":0.0,"P":4435.0263,"I":0.0,"G":0.0},{"stationName":"广州高增(地铁站)","station_id":"广州高增(地铁站)_23.35773_113.29012","lineId":"广州地铁3号线","lat":23.35773387,"lon":113.29012133,"area_km2":0.9267,"D":0.104,"C":0.7916,"T":0.0137,"U1":0.022,"U2":0.0053,"couplingDegree":0.104,"level":"极度失调","road_density":19.0778,"walk_accessibility":0.1858,"metro_line_density":1.2005,"station_count":1,"line_count":1,"population_density":3594.5502,"poi_density":0.0,"poi_diversity":0.0,"gdp_density":0.0,"P":3594.5502,"I":0.0,"G":0.0},{"stationName":"广州人和(地铁站)","station_id":"广州人和(地铁站)_23.33824_113.28921","lineId":"广州地铁22号线 / 广州地铁3号线","lat":23.33823735,"lon":113.289210885,"area_km2":1.6594,"D":0.1878,"C":0.4765,"T":0.0741,"U1":0.1392,"U2":0.0089,"couplingDegree":0.1878,"level":"极度失调","road_density":20.6035,"walk_accessibility":0.3327,"metro_line_density":5.3169,"station_count":1,"line_count":2,"population_density":6051.4772,"poi_density":0.0,"poi_diversity":0.0,"gdp_density":0.0,"P":6051.4772,"I":0.0,"G":0.0},{"stationName":"广州龙归(地铁站)","station_id":"广州龙归(地铁站)_23.29132_113.29545","lineId":"广州地铁3号线","lat":23.291315230000002,"lon":113.29544661,"area_km2":2.0495,"D":0.1955,"C":0.9894,"T":0.0386,"U1":0.0442,"U2":0.033,"couplingDegree":0.1955,"level":"极度失调","road_density":19.4525,"walk_accessibility":0.4109,"metro_line_density":2.54,"station_count":1,"line_count":1,"population_density":12103.1027,"poi_density":0.4879,"poi_diversity":0.0,"gdp_density":12846.708,"P":12103.1027,"I":0.4879,"G":12846.708},{"stationName":"广州白云大道北(地铁站)","station_id":"广州白云大道北(地铁站)_23.22475_113.29210","lineId":"广州地铁3号线","lat":23.224754485,"lon":113.292103325,"area_km2":2.446,"D":0.5403,"C":1.0,"T":0.2919,"U1":0.2934,"U2":0.2904,"couplingDegree":0.5403,"level":"勉强协调","road_density":32.1233,"walk_accessibility":0.4904,"metro_line_density":2.3756,"station_count":3,"line_count":2,"population_density":4976.7161,"poi_density":11.4473,"poi_diversity":2.5027,"gdp_density":19886.6271,"P":4976.7161,"I":11.4473,"G":19886.6271},{"stationName":"广州永泰(地铁站)","station_id":"广州永泰(地铁站)_23.22247_113.30084","lineId":"广州地铁3号线","lat":23.22247335,"lon":113.30084268,"area_km2":2.1658,"D":0.4401,"C":0.9476,"T":0.2044,"U1":0.1391,"U2":0.2697,"couplingDegree":0.4401,"level":"勉强协调","road_density":30.8315,"walk_accessibility":0.4342,"metro_line_density":2.4664,"station_count":2,"line_count":1,"population_density":1486.2932,"poi_density":10.158,"poi_diversity":2.3658,"gdp_density":22459.4653,"P":1486.2932,"I":10.158,"G":22459.4653},{"stationName":"广州同和(地铁站)","station_id":"广州同和(地铁站)_23.19962_113.32083","lineId":"广州地铁3号线","lat":23.19962259,"lon":113.32083262,"area_km2":1.5674,"D":0.1596,"C":0.8982,"T":0.0284,"U1":0.0408,"U2":0.0159,"couplingDegree":0.1596,"level":"极度失调","road_density":18.9745,"walk_accessibility":0.3143,"metro_line_density":3.1701,"station_count":1,"line_count":1,"population_density":10746.1267,"poi_density":0.0,"poi_diversity":0.0,"gdp_density":0.0,"P":10746.1267,"I":0.0,"G":0.0},{"stationName":"广州京溪南方医院(地铁站)","station_id":"广州京溪南方医院(地铁站)_23.18779_113.32070","lineId":"广州地铁3号线","lat":23.1877933,"lon":113.32069648,"area_km2":1.5741,"D":0.2122,"C":0.9997,"T":0.0451,"U1":0.0462,"U2":0.0439,"couplingDegree":0.2122,"level":"中度失调","road_density":19.2015,"walk_accessibility":0.3156,"metro_line_density":4.0108,"station_count":1,"line_count":1,"population_density":27321.0786,"poi_density":0.6353,"poi_diversity":0.0,"gdp_density":0.0,"P":27321.0786,"I":0.6353,"G":0.0},{"stationName":"广州梅花园(地铁站)","station_id":"广州梅花园(地铁站)_23.17768_113.31499","lineId":"广州地铁3号线","lat":23.17767977,"lon":113.31498956,"area_km2":1.475,"D":0.2292,"C":0.9592,"T":0.0547,"U1":0.0393,"U2":0.0702,"couplingDegree":0.2292,"level":"中度失调","road_density":18.9193,"walk_accessibility":0.2957,"metro_line_density":3.1195,"station_count":1,"line_count":1,"population_density":47490.2148,"poi_density":0.0,"poi_diversity":0.0,"gdp_density":0.0,"P":47490.2148,"I":0.0,"G":0.0},{"stationName":"广州燕塘(地铁站)","station_id":"广州燕塘(地铁站)_23.16283_113.32163","lineId":"广州地铁3号线","lat":23.16283329,"lon":113.32162731,"area_km2":1.5528,"D":0.6727,"C":0.9851,"T":0.4593,"U1":0.5383,"U2":0.3803,"couplingDegree":0.6727,"level":"良好协调","road_density":28.413,"walk_accessibility":0.3113,"metro_line_density":6.0699,"station_count":3,"line_count":5,"population_density":60415.5212,"poi_density":1.288,"poi_diversity":0.6931,"gdp_density":236096.8617,"P":60415.5212,"I":1.288,"G":236096.8617},{"stationName":"广州林和西(地铁站)","station_id":"广州林和西(地铁站)_23.14346_113.31823","lineId":"广州地铁3号线 / 广州广州APM线(广州塔--林和西)","lat":23.14346264,"lon":113.31822610500001,"area_km2":2.4249,"D":0.6642,"C":0.8896,"T":0.496,"U1":0.7225,"U2":0.2695,"couplingDegree":0.6642,"level":"良好协调","road_density":34.7168,"walk_accessibility":0.4862,"metro_line_density":7.8899,"station_count":4,"line_count":6,"population_density":16446.1664,"poi_density":9.4848,"poi_diversity":2.4042,"gdp_density":0.0,"P":16446.1664,"I":9.4848,"G":0.0},{"stationName":"广州海傍(地铁站)","station_id":"广州海傍(地铁站)_22.94266_113.47033","lineId":"广州地铁3号线 / 广州地铁4号线","lat":22.942664164999997,"lon":113.47033204499999,"area_km2":1.2915,"D":0.0684,"C":0.0626,"T":0.0746,"U1":0.1491,"U2":0.0001,"couplingDegree":0.0684,"level":"极度失调","road_density":32.5613,"walk_accessibility":0.2589,"metro_line_density":2.9158,"station_count":1,"line_count":2,"population_density":99.1134,"poi_density":0.0,"poi_diversity":0.0,"gdp_density":0.0,"P":99.1134,"I":0.0,"G":0.0},{"stationName":"广州海涌路(地铁站)","station_id":"广州海涌路(地铁站)_22.94459_113.45226","lineId":"广州地铁3号线","lat":22.94459027,"lon":113.45225741,"area_km2":0.8856,"D":0.0731,"C":0.2249,"T":0.0238,"U1":0.047,"U2":0.0006,"couplingDegree":0.0731,"level":"极度失调","road_density":22.452,"walk_accessibility":0.1776,"metro_line_density":4.2764,"station_count":1,"line_count":1,"population_density":412.1721,"poi_density":0.0,"poi_diversity":0.0,"gdp_density":0.0,"P":412.1721,"I":0.0,"G":0.0},{"stationName":"广州石碁南(地铁站)","station_id":"广州石碁南(地铁站)_22.94076_113.43420","lineId":"广州地铁3号线","lat":22.94076249,"lon":113.43420182,"area_km2":0.9176,"D":0.1137,"C":0.4614,"T":0.028,"U1":0.0529,"U2":0.0032,"couplingDegree":0.1137,"level":"极度失调","road_density":21.6519,"walk_accessibility":0.184,"metro_line_density":5.5776,"station_count":1,"line_count":1,"population_density":2138.1199,"poi_density":0.0,"poi_diversity":0.0,"gdp_density":0.0,"P":2138.1199,"I":0.0,"G":0.0},{"stationName":"广州傍江(地铁站)","station_id":"广州傍江(地铁站)_22.93928_113.40457","lineId":"广州地铁3号线","lat":22.93927978,"lon":113.40456738,"area_km2":1.4073,"D":0.1439,"C":0.7252,"T":0.0286,"U1":0.0482,"U2":0.0089,"couplingDegree":0.1439,"level":"极度失调","road_density":21.9065,"walk_accessibility":0.2822,"metro_line_density":3.6037,"station_count":1,"line_count":1,"population_density":6015.7082,"poi_density":0.0,"poi_diversity":0.0,"gdp_density":0.0,"P":6015.7082,"I":0.0,"G":0.0},{"stationName":"广州番禺广场(地铁站)","station_id":"广州番禺广场(地铁站)_22.93806_113.38013","lineId":"广州地铁3号线","lat":22.93806417,"lon":113.38013013,"area_km2":2.7796,"D":0.3941,"C":0.8404,"T":0.1848,"U1":0.0846,"U2":0.2849,"couplingDegree":0.3941,"level":"中度失调","road_density":36.7962,"walk_accessibility":0.5573,"metro_line_density":0.9153,"station_count":1,"line_count":1,"population_density":9338.6769,"poi_density":8.2745,"poi_diversity":2.8114,"gdp_density":0.0,"P":9338.6769,"I":8.2745,"G":0.0},{"stationName":"广州黄村(地铁站)","station_id":"广州黄村(地铁站)_23.13568_113.40116","lineId":"广州地铁21号线 / 广州地铁4号线","lat":23.135682833333334,"lon":113.40116035,"area_km2":1.662,"D":0.189,"C":0.4515,"T":0.0791,"U1":0.1497,"U2":0.0085,"couplingDegree":0.189,"level":"极度失调","road_density":30.0651,"walk_accessibility":0.3332,"metro_line_density":3.2626,"station_count":1,"line_count":2,"population_density":5765.1951,"poi_density":0.0,"poi_diversity":0.0,"gdp_density":0.0,"P":5765.1951,"I":0.0,"G":0.0},{"stationName":"广州车陂(地铁站)","station_id":"广州车陂(地铁站)_23.12707_113.39067","lineId":"广州地铁13号线 / 广州地铁4号线","lat":23.127069765,"lon":113.390674455,"area_km2":1.8077,"D":0.3213,"C":0.5734,"T":0.18,"U1":0.3274,"U2":0.0325,"couplingDegree":0.3213,"level":"中度失调","road_density":26.6413,"walk_accessibility":0.3624,"metro_line_density":9.5238,"station_count":2,"line_count":3,"population_density":22002.5685,"poi_density":0.0,"poi_diversity":0.0,"gdp_density":0.0,"P":22002.5685,"I":0.0,"G":0.0},{"stationName":"广州车陂南(地铁站)","station_id":"广州车陂南(地铁站)_23.11836_113.38448","lineId":"广州地铁4号线 / 广州地铁5号线","lat":23.118358545,"lon":113.38448477,"area_km2":1.6987,"D":0.2971,"C":0.5207,"T":0.1696,"U1":0.3143,"U2":0.0248,"couplingDegree":0.2971,"level":"中度失调","road_density":27.8826,"walk_accessibility":0.3406,"metro_line_density":6.9427,"station_count":2,"line_count":3,"population_density":16775.4637,"poi_density":0.0,"poi_diversity":0.0,"gdp_density":0.0,"P":16775.4637,"I":0.0,"G":0.0},{"stationName":"广州万胜围(地铁站)","station_id":"广州万胜围(地铁站)_23.10027_113.37904","lineId":"广州地铁4号线","lat":23.10027266,"lon":113.37904334,"area_km2":1.7792,"D":0.1938,"C":0.8386,"T":0.0448,"U1":0.0692,"U2":0.0204,"couplingDegree":0.1938,"level":"极度失调","road_density":27.2035,"walk_accessibility":0.3567,"metro_line_density":4.3025,"station_count":1,"line_count":1,"population_density":13790.1439,"poi_density":0.0,"poi_diversity":0.0,"gdp_density":0.0,"P":13790.1439,"I":0.0,"G":0.0},{"stationName":"广州官洲(地铁站)","station_id":"广州官洲(地铁站)_23.07017_113.37139","lineId":"广州地铁12号线 / 广州地铁4号线","lat":23.070168586666668,"lon":113.37138594999999,"area_km2":1.1347,"D":0.1724,"C":0.3811,"T":0.078,"U1":0.1501,"U2":0.0059,"couplingDegree":0.1724,"level":"极度失调","road_density":30.9463,"walk_accessibility":0.2275,"metro_line_density":4.0932,"station_count":1,"line_count":2,"population_density":3980.8217,"poi_density":0.0,"poi_diversity":0.0,"gdp_density":0.0,"P":3980.8217,"I":0.0,"G":0.0},{"stationName":"广州大学城北(地铁站)","station_id":"广州大学城北(地铁站)_23.06047_113.38028","lineId":"广州地铁4号线","lat":23.06046717,"lon":113.38027887,"area_km2":2.0403,"D":0.1236,"C":0.486,"T":0.0314,"U1":0.0589,"U2":0.004,"couplingDegree":0.1236,"level":"极度失调","road_density":26.3608,"walk_accessibility":0.4091,"metro_line_density":2.2811,"station_count":1,"line_count":1,"population_density":2679.048,"poi_density":0.0,"poi_diversity":0.0,"gdp_density":0.0,"P":2679.048,"I":0.0,"G":0.0},{"stationName":"广州大学城南(地铁站)","station_id":"广州大学城南(地铁站)_23.04594_113.39496","lineId":"广州地铁4号线","lat":23.04593859,"lon":113.39495803,"area_km2":2.5023,"D":0.1886,"C":0.6006,"T":0.0592,"U1":0.1066,"U2":0.0119,"couplingDegree":0.1886,"level":"极度失调","road_density":39.8856,"walk_accessibility":0.5017,"metro_line_density":4.0945,"station_count":1,"line_count":1,"population_density":1625.2956,"poi_density":0.0,"poi_diversity":0.0,"gdp_density":9796.3322,"P":1625.2956,"I":0.0,"G":9796.3322},{"stationName":"广州新造(地铁站)","station_id":"广州新造(地铁站)_23.03072_113.41020","lineId":"广州地铁4号线","lat":23.03072258,"lon":113.41020155,"area_km2":1.3472,"D":0.1442,"C":0.7774,"T":0.0267,"U1":0.0436,"U2":0.0099,"couplingDegree":0.1442,"level":"极度失调","road_density":24.796,"walk_accessibility":0.2701,"metro_line_density":1.7231,"station_count":1,"line_count":1,"population_density":6708.7473,"poi_density":0.0,"poi_diversity":0.0,"gdp_density":0.0,"P":6708.7473,"I":0.0,"G":0.0},{"stationName":"广州官桥(地铁站)","station_id":"广州官桥(地铁站)_22.98355_113.43903","lineId":"广州地铁4号线","lat":22.98354846,"lon":113.43902686,"area_km2":0.5263,"D":0.0893,"C":0.9625,"T":0.0083,"U1":0.0105,"U2":0.006,"couplingDegree":0.0893,"level":"极度失调","road_density":18.1212,"walk_accessibility":0.1055,"metro_line_density":0.44,"station_count":1,"line_count":1,"population_density":4086.9779,"poi_density":0.0,"poi_diversity":0.0,"gdp_density":0.0,"P":4086.9779,"I":0.0,"G":0.0},{"stationName":"广州石碁(地铁站)","station_id":"广州石碁(地铁站)_22.95984_113.45981","lineId":"广州地铁4号线","lat":22.95983691,"lon":113.4598146,"area_km2":1.1474,"D":0.1122,"C":0.8227,"T":0.0153,"U1":0.024,"U2":0.0066,"couplingDegree":0.1122,"level":"极度失调","road_density":19.1068,"walk_accessibility":0.2301,"metro_line_density":1.0658,"station_count":1,"line_count":1,"population_density":4467.3974,"poi_density":0.0,"poi_diversity":0.0,"gdp_density":0.0,"P":4467.3974,"I":0.0,"G":0.0},{"stationName":"广州低涌(地铁站)","station_id":"广州低涌(地铁站)_22.92219_113.47947","lineId":"广州地铁4号线","lat":22.92218608,"lon":113.47947099,"area_km2":1.651,"D":0.1307,"C":0.7734,"T":0.0221,"U1":0.0361,"U2":0.0081,"couplingDegree":0.1307,"level":"极度失调","road_density":16.3961,"walk_accessibility":0.331,"metro_line_density":3.2223,"station_count":1,"line_count":1,"population_density":5467.4846,"poi_density":0.0,"poi_diversity":0.0,"gdp_density":0.0,"P":5467.4846,"I":0.0,"G":0.0},{"stationName":"广州东涌(地铁站)","station_id":"广州东涌(地铁站)_22.88830_113.47359","lineId":"广州地铁4号线","lat":22.88829546,"lon":113.47359215,"area_km2":1.5436,"D":0.1504,"C":0.9027,"T":0.0251,"U1":0.0358,"U2":0.0143,"couplingDegree":0.1504,"level":"极度失调","road_density":18.6943,"walk_accessibility":0.3095,"metro_line_density":2.4638,"station_count":1,"line_count":1,"population_density":946.5064,"poi_density":0.0,"poi_diversity":0.0,"gdp_density":13317.0084,"P":946.5064,"I":0.0,"G":13317.0084},{"stationName":"广州庆盛(地铁站)","station_id":"广州庆盛(地铁站)_22.86976_113.48513","lineId":"广州地铁4号线","lat":22.86976012,"lon":113.48513261,"area_km2":1.3899,"D":0.1188,"C":0.5638,"T":0.025,"U1":0.0457,"U2":0.0044,"couplingDegree":0.1188,"level":"极度失调","road_density":24.9697,"walk_accessibility":0.2787,"metro_line_density":1.9319,"station_count":1,"line_count":1,"population_density":2945.5358,"poi_density":0.0,"poi_diversity":0.0,"gdp_density":0.0,"P":2945.5358,"I":0.0,"G":0.0},{"stationName":"广州黄阁汽车城(地铁站)","station_id":"广州黄阁汽车城(地铁站)_22.83864_113.50446","lineId":"广州地铁4号线","lat":22.83864251,"lon":113.504464935,"area_km2":0.9799,"D":0.2539,"C":0.9717,"T":0.0663,"U1":0.0507,"U2":0.082,"couplingDegree":0.2539,"level":"中度失调","road_density":21.3907,"walk_accessibility":0.1965,"metro_line_density":5.1628,"station_count":1,"line_count":1,"population_density":885.8188,"poi_density":0.0,"poi_diversity":0.0,"gdp_density":83414.4304,"P":885.8188,"I":0.0,"G":83414.4304},{"stationName":"广州黄阁(地铁站)","station_id":"广州黄阁(地铁站)_22.82760_113.51355","lineId":"广州地铁4号线","lat":22.82759681,"lon":113.51354647,"area_km2":1.0953,"D":0.0651,"C":0.2278,"T":0.0186,"U1":0.0367,"U2":0.0005,"couplingDegree":0.0651,"level":"极度失调","road_density":18.0622,"walk_accessibility":0.2196,"metro_line_density":3.8314,"station_count":1,"line_count":1,"population_density":330.4904,"poi_density":0.0,"poi_diversity":0.0,"gdp_density":0.0,"P":330.4904,"I":0.0,"G":0.0},{"stationName":"广州蕉门(地铁站)","station_id":"广州蕉门(地铁站)_22.80360_113.52231","lineId":"广州地铁4号线","lat":22.80359812,"lon":113.52231004,"area_km2":1.7436,"D":0.1637,"C":0.7736,"T":0.0346,"U1":0.0566,"U2":0.0127,"couplingDegree":0.1637,"level":"极度失调","road_density":26.7032,"walk_accessibility":0.3496,"metro_line_density":2.3743,"station_count":1,"line_count":1,"population_density":8582.3328,"poi_density":0.0,"poi_diversity":0.0,"gdp_density":0.0,"P":8582.3328,"I":0.0,"G":0.0},{"stationName":"广州金洲(地铁站)","station_id":"广州金洲(地铁站)_22.79510_113.53373","lineId":"广州地铁4号线","lat":22.79510434,"lon":113.53373069,"area_km2":1.1106,"D":0.134,"C":0.303,"T":0.0593,"U1":0.1158,"U2":0.0028,"couplingDegree":0.134,"level":"极度失调","road_density":22.6158,"walk_accessibility":0.2227,"metro_line_density":4.0132,"station_count":2,"line_count":1,"population_density":1884.6411,"poi_density":0.0,"poi_diversity":0.0,"gdp_density":0.0,"P":1884.6411,"I":0.0,"G":0.0},{"stationName":"广州飞沙角(地铁站)","station_id":"广州飞沙角(地铁站)_22.78479_113.53561","lineId":"广州地铁4号线","lat":22.78478867,"lon":113.53560729,"area_km2":0.8355,"D":0.143,"C":0.2283,"T":0.0895,"U1":0.1767,"U2":0.0024,"couplingDegree":0.143,"level":"极度失调","road_density":20.6383,"walk_accessibility":0.1675,"metro_line_density":4.3176,"station_count":3,"line_count":1,"population_density":1599.0002,"poi_density":0.0,"poi_diversity":0.0,"gdp_density":0.0,"P":1599.0002,"I":0.0,"G":0.0},{"stationName":"广州广隆(地铁站)","station_id":"广州广隆(地铁站)_22.77508_113.53558","lineId":"广州地铁4号线","lat":22.77508039,"lon":113.5355785,"area_km2":0.8593,"D":0.1246,"C":0.3194,"T":0.0486,"U1":0.0946,"U2":0.0025,"couplingDegree":0.1246,"level":"极度失调","road_density":16.2298,"walk_accessibility":0.1723,"metro_line_density":3.4705,"station_count":2,"line_count":1,"population_density":1721.1357,"poi_density":0.0,"poi_diversity":0.0,"gdp_density":0.0,"P":1721.1357,"I":0.0,"G":0.0},{"stationName":"广州大涌(地铁站)","station_id":"广州大涌(地铁站)_22.76205_113.55087","lineId":"广州地铁4号线","lat":22.76204976,"lon":113.55086527,"area_km2":1.1204,"D":0.0673,"C":0.1882,"T":0.0241,"U1":0.0477,"U2":0.0004,"couplingDegree":0.0673,"level":"极度失调","road_density":20.35,"walk_accessibility":0.2246,"metro_line_density":4.7714,"station_count":1,"line_count":1,"population_density":290.976,"poi_density":0.0,"poi_diversity":0.0,"gdp_density":0.0,"P":290.976,"I":0.0,"G":0.0},{"stationName":"广州塘坑(地铁站)","station_id":"广州塘坑(地铁站)_22.75610_113.56799","lineId":"广州地铁4号线","lat":22.7560984,"lon":113.56798771,"area_km2":1.1488,"D":0.1473,"C":0.7012,"T":0.0309,"U1":0.053,"U2":0.0089,"couplingDegree":0.1473,"level":"极度失调","road_density":22.5786,"walk_accessibility":0.2303,"metro_line_density":4.7223,"station_count":1,"line_count":1,"population_density":6008.2011,"poi_density":0.0,"poi_diversity":0.0,"gdp_density":0.0,"P":6008.2011,"I":0.0,"G":0.0},{"stationName":"广州南横(地铁站)","station_id":"广州南横(地铁站)_22.75090_113.58933","lineId":"广州地铁4号线","lat":22.7509002,"lon":113.58932783,"area_km2":1.2323,"D":0.1289,"C":0.6678,"T":0.0249,"U1":0.0434,"U2":0.0064,"couplingDegree":0.1289,"level":"极度失调","road_density":19.4206,"walk_accessibility":0.2471,"metro_line_density":4.1564,"station_count":1,"line_count":1,"population_density":4300.9191,"poi_density":0.0,"poi_diversity":0.0,"gdp_density":0.0,"P":4300.9191,"I":0.0,"G":0.0},{"stationName":"广州南沙客运港(地铁站)","station_id":"广州南沙客运港(地铁站)_22.76999_113.60592","lineId":"广州地铁4号线","lat":22.76999321,"lon":113.60591772,"area_km2":1.0573,"D":0.0484,"C":0.1282,"T":0.0183,"U1":0.0364,"U2":0.0002,"couplingDegree":0.0484,"level":"极度失调","road_density":21.1861,"walk_accessibility":0.212,"metro_line_density":2.5822,"station_count":1,"line_count":1,"population_density":102.1444,"poi_density":0.0,"poi_diversity":0.0,"gdp_density":0.0,"P":102.1444,"I":0.0,"G":0.0},{"stationName":"广州滘口(地铁站)","station_id":"广州滘口(地铁站)_23.11645_113.20309","lineId":"广州地铁5号线","lat":23.11645274,"lon":113.20308939,"area_km2":1.7134,"D":0.1564,"C":0.8222,"T":0.0298,"U1":0.0467,"U2":0.0128,"couplingDegree":0.1564,"level":"极度失调","road_density":26.428,"walk_accessibility":0.3435,"metro_line_density":0.8156,"station_count":1,"line_count":1,"population_density":8669.0961,"poi_density":0.0,"poi_diversity":0.0,"gdp_density":0.0,"P":8669.0961,"I":0.0,"G":0.0},{"stationName":"广州坦尾(地铁站)","station_id":"广州坦尾(地铁站)_23.12790_113.21305","lineId":"广州地铁5号线","lat":23.12789781,"lon":113.21304759,"area_km2":1.717,"D":0.2704,"C":0.6224,"T":0.1175,"U1":0.2094,"U2":0.0255,"couplingDegree":0.2704,"level":"中度失调","road_density":21.4505,"walk_accessibility":0.3443,"metro_line_density":5.3897,"station_count":2,"line_count":2,"population_density":17268.3633,"poi_density":0.0,"poi_diversity":0.0,"gdp_density":0.0,"P":17268.3633,"I":0.0,"G":0.0},{"stationName":"广州中山八(地铁站)","station_id":"广州中山八(地铁站)_23.12898_113.22803","lineId":"广州地铁5号线","lat":23.12898299,"lon":113.22802937,"area_km2":2.3473,"D":0.3672,"C":0.9164,"T":0.1471,"U1":0.0882,"U2":0.206,"couplingDegree":0.3672,"level":"中度失调","road_density":27.5243,"walk_accessibility":0.4706,"metro_line_density":6.2985,"station_count":1,"line_count":1,"population_density":33404.2804,"poi_density":2.9822,"poi_diversity":1.7479,"gdp_density":0.0,"P":33404.2804,"I":2.9822,"G":0.0},{"stationName":"广州西场(地铁站)","station_id":"广州西场(地铁站)_23.14006_113.23273","lineId":"广州地铁5号线","lat":23.14005659,"lon":113.23272961,"area_km2":1.9288,"D":0.4041,"C":0.9821,"T":0.1663,"U1":0.1976,"U2":0.1349,"couplingDegree":0.4041,"level":"勉强协调","road_density":36.9045,"walk_accessibility":0.3867,"metro_line_density":10.7366,"station_count":2,"line_count":1,"population_density":32319.7998,"poi_density":0.0,"poi_diversity":0.0,"gdp_density":90123.3861,"P":32319.7998,"I":0.0,"G":90123.3861},{"stationName":"广州西村(地铁站)","station_id":"广州西村(地铁站)_23.14490_113.23680","lineId":"广州地铁5号线","lat":23.14489689,"lon":113.23679991,"area_km2":2.1511,"D":0.4019,"C":0.9926,"T":0.1627,"U1":0.1824,"U2":0.1429,"couplingDegree":0.4019,"level":"勉强协调","road_density":36.5179,"walk_accessibility":0.4313,"metro_line_density":7.755,"station_count":2,"line_count":1,"population_density":30781.8268,"poi_density":2.3244,"poi_diversity":1.0549,"gdp_density":0.0,"P":30781.8268,"I":2.3244,"G":0.0},{"stationName":"广州小北(地铁站)","station_id":"广州小北(地铁站)_23.14209_113.27156","lineId":"广州地铁5号线","lat":23.14208615,"lon":113.27156432,"area_km2":2.9351,"D":0.7318,"C":0.8927,"T":0.5999,"U1":0.3296,"U2":0.8702,"couplingDegree":0.7318,"level":"良好协调","road_density":34.1064,"walk_accessibility":0.5885,"metro_line_density":4.4096,"station_count":2,"line_count":3,"population_density":52532.5822,"poi_density":48.7208,"poi_diversity":2.7631,"gdp_density":312681.3476,"P":52532.5822,"I":48.7208,"G":312681.3476},{"stationName":"广州淘金(地铁站)","station_id":"广州淘金(地铁站)_23.13657_113.28004","lineId":"广州地铁12号线 / 广州地铁13号线 / 广州地铁5号线","lat":23.136571503333332,"lon":113.28003749999999,"area_km2":2.487,"D":0.7851,"C":0.9992,"T":0.6168,"U1":0.6412,"U2":0.5924,"couplingDegree":0.7851,"level":"良好协调","road_density":36.378,"walk_accessibility":0.4986,"metro_line_density":7.0552,"station_count":4,"line_count":5,"population_density":57207.3499,"poi_density":52.6738,"poi_diversity":2.711,"gdp_density":0.0,"P":57207.3499,"I":52.6738,"G":0.0},{"stationName":"广州区庄(地铁站)","station_id":"广州区庄(地铁站)_23.13693_113.29146","lineId":"广州地铁5号线 / 广州地铁6号线","lat":23.136927686666667,"lon":113.29145703666666,"area_km2":2.5778,"D":0.8322,"C":0.9998,"T":0.6927,"U1":0.7066,"U2":0.6789,"couplingDegree":0.8322,"level":"优质协调","road_density":33.5019,"walk_accessibility":0.5168,"metro_line_density":7.7277,"station_count":5,"line_count":5,"population_density":36551.4723,"poi_density":14.3532,"poi_diversity":2.3829,"gdp_density":366656.7743,"P":36551.4723,"I":14.3532,"G":366656.7743},{"stationName":"广州动物园(地铁站)","station_id":"广州动物园(地铁站)_23.13734_113.30190","lineId":"广州地铁5号线","lat":23.137335444999998,"lon":113.3019041,"area_km2":2.4904,"D":0.7182,"C":0.9978,"T":0.517,"U1":0.4827,"U2":0.5512,"couplingDegree":0.7182,"level":"良好协调","road_density":35.5273,"walk_accessibility":0.4993,"metro_line_density":8.0676,"station_count":4,"line_count":3,"population_density":44840.7679,"poi_density":2.0077,"poi_diversity":1.3322,"gdp_density":379521.7107,"P":44840.7679,"I":2.0077,"G":379521.7107},{"stationName":"广州五羊邨(地铁站)","station_id":"广州五羊邨(地铁站)_23.12236_113.30778","lineId":"广州地铁10号线 / 广州地铁5号线","lat":23.122362080000002,"lon":113.307780705,"area_km2":2.8846,"D":0.507,"C":0.9163,"T":0.2805,"U1":0.3928,"U2":0.1682,"couplingDegree":0.507,"level":"勉强协调","road_density":34.2476,"walk_accessibility":0.5784,"metro_line_density":3.7592,"station_count":3,"line_count":3,"population_density":12335.5598,"poi_density":4.16,"poi_diversity":1.5833,"gdp_density":0.0,"P":12335.5598,"I":4.16,"G":0.0},{"stationName":"广州珠江新城(地铁站)","station_id":"广州珠江新城(地铁站)_23.12197_113.31579","lineId":"广州地铁5号线","lat":23.12196898,"lon":113.31578602,"area_km2":3.1943,"D":0.4944,"C":0.9476,"T":0.258,"U1":0.3404,"U2":0.1755,"couplingDegree":0.4944,"level":"勉强协调","road_density":42.1058,"walk_accessibility":0.6405,"metro_line_density":4.9042,"station_count":3,"line_count":2,"population_density":18825.4811,"poi_density":3.7566,"poi_diversity":1.5833,"gdp_density":0.0,"P":18825.4811,"I":3.7566,"G":0.0},{"stationName":"广州猎德(地铁站)","station_id":"广州猎德(地铁站)_23.12112_113.32667","lineId":"广州地铁5号线","lat":23.12112075,"lon":113.32666753,"area_km2":2.9589,"D":0.3264,"C":0.8915,"T":0.1195,"U1":0.1736,"U2":0.0654,"couplingDegree":0.3264,"level":"中度失调","road_density":39.1908,"walk_accessibility":0.5932,"metro_line_density":3.3756,"station_count":2,"line_count":1,"population_density":10753.4463,"poi_density":1.6898,"poi_diversity":0.5004,"gdp_density":0.0,"P":10753.4463,"I":1.6898,"G":0.0},{"stationName":"广州潭村(地铁站)","station_id":"广州潭村(地铁站)_23.11992_113.34048","lineId":"广州地铁5号线","lat":23.11992279,"lon":113.3404832,"area_km2":2.1347,"D":0.1954,"C":0.8374,"T":0.0456,"U1":0.0706,"U2":0.0207,"couplingDegree":0.1954,"level":"极度失调","road_density":28.4047,"walk_accessibility":0.428,"metro_line_density":3.2854,"station_count":1,"line_count":1,"population_density":13987.0036,"poi_density":0.0,"poi_diversity":0.0,"gdp_density":0.0,"P":13987.0036,"I":0.0,"G":0.0},{"stationName":"广州员村(地铁站)","station_id":"广州员村(地铁站)_23.11747_113.35822","lineId":"广州地铁11号线 / 广州地铁5号线","lat":23.117467595,"lon":113.358221265,"area_km2":1.3392,"D":0.2969,"C":0.8974,"T":0.0983,"U1":0.1416,"U2":0.0549,"couplingDegree":0.2969,"level":"中度失调","road_density":22.8343,"walk_accessibility":0.2685,"metro_line_density":5.5129,"station_count":1,"line_count":2,"population_density":34349.4669,"poi_density":0.7467,"poi_diversity":0.0,"gdp_density":0.0,"P":34349.4669,"I":0.7467,"G":0.0},{"stationName":"广州科韵路(地铁站)","station_id":"广州科韵路(地铁站)_23.12179_113.37170","lineId":"广州地铁5号线","lat":23.12179091,"lon":113.37170322,"area_km2":2.2691,"D":0.2509,"C":0.9868,"T":0.0638,"U1":0.0742,"U2":0.0535,"couplingDegree":0.2509,"level":"中度失调","road_density":28.2282,"walk_accessibility":0.455,"metro_line_density":3.7021,"station_count":1,"line_count":1,"population_density":34514.9432,"poi_density":0.4407,"poi_diversity":0.0,"gdp_density":0.0,"P":34514.9432,"I":0.4407,"G":0.0},{"stationName":"广州东圃(地铁站)","station_id":"广州东圃(地铁站)_23.11189_113.39604","lineId":"广州地铁5号线","lat":23.11189403,"lon":113.39603774,"area_km2":1.4871,"D":0.1641,"C":0.8162,"T":0.033,"U1":0.0521,"U2":0.0139,"couplingDegree":0.1641,"level":"极度失调","road_density":23.2117,"walk_accessibility":0.2982,"metro_line_density":3.5691,"station_count":1,"line_count":1,"population_density":9424.8543,"poi_density":0.0,"poi_diversity":0.0,"gdp_density":0.0,"P":9424.8543,"I":0.0,"G":0.0},{"stationName":"广州三溪(地铁站)","station_id":"广州三溪(地铁站)_23.10661_113.41027","lineId":"广州地铁5号线","lat":23.10660722,"lon":113.41026741,"area_km2":1.5018,"D":0.311,"C":0.8598,"T":0.1125,"U1":0.0551,"U2":0.17,"couplingDegree":0.311,"level":"中度失调","road_density":24.8085,"walk_accessibility":0.3011,"metro_line_density":3.4066,"station_count":1,"line_count":1,"population_density":20490.4772,"poi_density":0.0,"poi_diversity":0.0,"gdp_density":144463.6242,"P":20490.4772,"I":0.0,"G":144463.6242},{"stationName":"广州鱼珠(地铁站)","station_id":"广州鱼珠(地铁站)_23.10287_113.42678","lineId":"广州地铁5号线","lat":23.1028697,"lon":113.4267831,"area_km2":1.022,"D":0.2581,"C":0.9659,"T":0.069,"U1":0.0868,"U2":0.0511,"couplingDegree":0.2581,"level":"中度失调","road_density":29.3454,"walk_accessibility":0.2049,"metro_line_density":8.1406,"station_count":1,"line_count":1,"population_density":34576.0362,"poi_density":0.0,"poi_diversity":0.0,"gdp_density":0.0,"P":34576.0362,"I":0.0,"G":0.0},{"stationName":"广州大沙地(地铁站)","station_id":"广州大沙地(地铁站)_23.10577_113.44060","lineId":"广州地铁5号线","lat":23.105774705,"lon":113.44060333499999,"area_km2":1.2617,"D":0.4361,"C":0.9969,"T":0.1908,"U1":0.2058,"U2":0.1757,"couplingDegree":0.4361,"level":"勉强协调","road_density":26.1349,"walk_accessibility":0.253,"metro_line_density":3.8009,"station_count":2,"line_count":2,"population_density":6591.8305,"poi_density":1.5851,"poi_diversity":0.6931,"gdp_density":105107.8742,"P":6591.8305,"I":1.5851,"G":105107.8742},{"stationName":"广州大沙东(地铁站)","station_id":"广州大沙东(地铁站)_23.10925_113.45231","lineId":"广州地铁5号线 / 广州地铁7号线","lat":23.109246119999998,"lon":113.45231028666666,"area_km2":1.6581,"D":0.277,"C":0.488,"T":0.1572,"U1":0.2944,"U2":0.02,"couplingDegree":0.277,"level":"中度失调","road_density":25.4363,"walk_accessibility":0.3325,"metro_line_density":6.9992,"station_count":3,"line_count":2,"population_density":13519.3458,"poi_density":0.0,"poi_diversity":0.0,"gdp_density":0.0,"P":13519.3458,"I":0.0,"G":0.0},{"stationName":"广州文冲(地铁站)","station_id":"广州文冲(地铁站)_23.10640_113.46359","lineId":"广州地铁5号线","lat":23.10639517,"lon":113.463594,"area_km2":1.6588,"D":0.2122,"C":0.4267,"T":0.1055,"U1":0.2009,"U2":0.0101,"couplingDegree":0.2122,"level":"中度失调","road_density":24.9713,"walk_accessibility":0.3326,"metro_line_density":2.5707,"station_count":2,"line_count":2,"population_density":6822.3736,"poi_density":0.0,"poi_diversity":0.0,"gdp_density":0.0,"P":6822.3736,"I":0.0,"G":0.0},{"stationName":"广州双沙(地铁站)","station_id":"广州双沙(地铁站)_23.10052_113.47888","lineId":"广州地铁5号线","lat":23.100517099999998,"lon":113.478884145,"area_km2":1.1377,"D":0.104,"C":0.4453,"T":0.0243,"U1":0.0461,"U2":0.0025,"couplingDegree":0.104,"level":"极度失调","road_density":25.5027,"walk_accessibility":0.2281,"metro_line_density":2.3194,"station_count":1,"line_count":1,"population_density":1719.2462,"poi_density":0.0,"poi_diversity":0.0,"gdp_density":0.0,"P":1719.2462,"I":0.0,"G":0.0},{"stationName":"广州庙头(地铁站)","station_id":"广州庙头(地铁站)_23.08757_113.49729","lineId":"广州地铁5号线","lat":23.087568835,"lon":113.497292225,"area_km2":1.0516,"D":0.196,"C":0.8443,"T":0.0455,"U1":0.0699,"U2":0.0211,"couplingDegree":0.196,"level":"极度失调","road_density":28.0733,"walk_accessibility":0.2108,"metro_line_density":5.6274,"station_count":1,"line_count":1,"population_density":14282.477,"poi_density":0.0,"poi_diversity":0.0,"gdp_density":0.0,"P":14282.477,"I":0.0,"G":0.0},{"stationName":"广州夏园(地铁站)","station_id":"广州夏园(地铁站)_23.08558_113.51315","lineId":"广州地铁5号线","lat":23.08557598,"lon":113.513151045,"area_km2":1.1127,"D":0.2351,"C":0.6238,"T":0.0886,"U1":0.1579,"U2":0.0194,"couplingDegree":0.2351,"level":"中度失调","road_density":27.6353,"walk_accessibility":0.2231,"metro_line_density":9.334,"station_count":2,"line_count":1,"population_density":13094.3811,"poi_density":0.0,"poi_diversity":0.0,"gdp_density":0.0,"P":13094.3811,"I":0.0,"G":0.0},{"stationName":"广州保盈大道(地铁站)","station_id":"广州保盈大道(地铁站)_23.07734_113.52085","lineId":"广州地铁5号线","lat":23.077335384999998,"lon":113.52085210999999,"area_km2":1.1219,"D":0.2537,"C":0.5501,"T":0.117,"U1":0.2148,"U2":0.0193,"couplingDegree":0.2537,"level":"中度失调","road_density":24.1592,"walk_accessibility":0.2249,"metro_line_density":8.9412,"station_count":3,"line_count":1,"population_density":13050.5466,"poi_density":0.0,"poi_diversity":0.0,"gdp_density":0.0,"P":13050.5466,"I":0.0,"G":0.0},{"stationName":"广州夏港(地铁站)","station_id":"广州夏港(地铁站)_23.06625_113.52002","lineId":"广州地铁5号线","lat":23.066252865000003,"lon":113.52002316,"area_km2":2.0123,"D":0.2358,"C":0.5138,"T":0.1082,"U1":0.201,"U2":0.0154,"couplingDegree":0.2358,"level":"中度失调","road_density":22.4073,"walk_accessibility":0.4035,"metro_line_density":5.3344,"station_count":3,"line_count":1,"population_density":10396.087,"poi_density":0.0,"poi_diversity":0.0,"gdp_density":0.0,"P":10396.087,"I":0.0,"G":0.0},{"stationName":"广州黄埔新港(地铁站)","station_id":"广州黄埔新港(地铁站)_23.05509_113.51951","lineId":"广州地铁5号线","lat":23.055087965,"lon":113.51951488,"area_km2":1.5851,"D":0.2002,"C":0.6138,"T":0.0653,"U1":0.1169,"U2":0.0137,"couplingDegree":0.2002,"level":"中度失调","road_density":22.5264,"walk_accessibility":0.3178,"metro_line_density":3.2266,"station_count":2,"line_count":1,"population_density":9298.3327,"poi_density":0.0,"poi_diversity":0.0,"gdp_density":0.0,"P":9298.3327,"I":0.0,"G":0.0},{"stationName":"广州香雪(地铁站)","station_id":"广州香雪(地铁站)_23.17505_113.49592","lineId":"广州地铁6号线","lat":23.17504691,"lon":113.49591832,"area_km2":2.1618,"D":0.1706,"C":0.8245,"T":0.0353,"U1":0.0553,"U2":0.0153,"couplingDegree":0.1706,"level":"极度失调","road_density":26.7216,"walk_accessibility":0.4334,"metro_line_density":1.2417,"station_count":1,"line_count":1,"population_density":10367.5072,"poi_density":0.0,"poi_diversity":0.0,"gdp_density":0.0,"P":10367.5072,"I":0.0,"G":0.0},{"stationName":"广州萝岗(地铁站)","station_id":"广州萝岗(地铁站)_23.17900_113.47631","lineId":"广州地铁6号线 / 广州地铁7号线","lat":23.17900146,"lon":113.47630703,"area_km2":1.6704,"D":0.1521,"C":0.1424,"T":0.1625,"U1":0.3233,"U2":0.0017,"couplingDegree":0.1521,"level":"极度失调","road_density":29.3053,"walk_accessibility":0.3349,"metro_line_density":8.0003,"station_count":2,"line_count":3,"population_density":1120.7203,"poi_density":0.0,"poi_diversity":0.0,"gdp_density":0.0,"P":1120.7203,"I":0.0,"G":0.0},{"stationName":"广州苏元(地铁站)","station_id":"广州苏元(地铁站)_23.17331_113.46279","lineId":"广州地铁21号线 / 广州地铁6号线","lat":23.173307523333335,"lon":113.46279111000001,"area_km2":1.3577,"D":0.1675,"C":0.1453,"T":0.193,"U1":0.384,"U2":0.002,"couplingDegree":0.1675,"level":"极度失调","road_density":24.6501,"walk_accessibility":0.2722,"metro_line_density":9.4542,"station_count":3,"line_count":3,"population_density":1385.456,"poi_density":0.0,"poi_diversity":0.0,"gdp_density":0.0,"P":1385.456,"I":0.0,"G":0.0},{"stationName":"广州暹岗(地铁站)","station_id":"广州暹岗(地铁站)_23.17485_113.45474","lineId":"广州地铁6号线","lat":23.17484542,"lon":113.45473653,"area_km2":1.3389,"D":0.1659,"C":0.1501,"T":0.1834,"U1":0.3647,"U2":0.0021,"couplingDegree":0.1659,"level":"极度失调","road_density":22.4692,"walk_accessibility":0.2684,"metro_line_density":6.9993,"station_count":3,"line_count":3,"population_density":1404.8796,"poi_density":0.0,"poi_diversity":0.0,"gdp_density":0.0,"P":1404.8796,"I":0.0,"G":0.0},{"stationName":"广州金峰(地铁站)","station_id":"广州金峰(地铁站)_23.18384_113.44561","lineId":"广州地铁6号线","lat":23.18384341,"lon":113.44560727,"area_km2":1.0946,"D":0.0,"C":0.0,"T":0.0259,"U1":0.0517,"U2":0.0,"couplingDegree":0.0,"level":"极度失调","road_density":22.1426,"walk_accessibility":0.2195,"metro_line_density":4.7931,"station_count":1,"line_count":1,"population_density":0.0,"poi_density":0.0,"poi_diversity":0.0,"gdp_density":0.0,"P":0.0,"I":0.0,"G":0.0},{"stationName":"广州黄陂(地铁站)","station_id":"广州黄陂(地铁站)_23.19087_113.42824","lineId":"广州地铁6号线","lat":23.19087201,"lon":113.4282373,"area_km2":1.656,"D":0.1022,"C":0.2959,"T":0.0353,"U1":0.0691,"U2":0.0016,"couplingDegree":0.1022,"level":"极度失调","road_density":30.5489,"walk_accessibility":0.332,"metro_line_density":3.1672,"station_count":1,"line_count":1,"population_density":1070.0499,"poi_density":0.0,"poi_diversity":0.0,"gdp_density":0.0,"P":1070.0499,"I":0.0,"G":0.0},{"stationName":"广州高塘石(地铁站)","station_id":"广州高塘石(地铁站)_23.19353_113.40488","lineId":"广州地铁6号线","lat":23.19352929,"lon":113.40488169,"area_km2":1.1687,"D":0.0805,"C":0.257,"T":0.0252,"U1":0.0495,"U2":0.0008,"couplingDegree":0.0805,"level":"极度失调","road_density":21.2509,"walk_accessibility":0.2343,"metro_line_density":4.6193,"station_count":1,"line_count":1,"population_density":572.4461,"poi_density":0.0,"poi_diversity":0.0,"gdp_density":0.0,"P":572.4461,"I":0.0,"G":0.0},{"stationName":"广州柯木塱(地铁站)","station_id":"广州柯木塱(地铁站)_23.19599_113.39107","lineId":"广州地铁6号线","lat":23.19599176,"lon":113.39107375,"area_km2":1.6587,"D":0.2434,"C":0.9539,"T":0.0621,"U1":0.0435,"U2":0.0808,"couplingDegree":0.2434,"level":"中度失调","road_density":19.4807,"walk_accessibility":0.3326,"metro_line_density":3.232,"station_count":1,"line_count":1,"population_density":894.0594,"poi_density":0.0,"poi_diversity":0.0,"gdp_density":82165.1448,"P":894.0594,"I":0.0,"G":82165.1448},{"stationName":"广州龙洞(地铁站)","station_id":"广州龙洞(地铁站)_23.19344_113.37200","lineId":"广州地铁6号线","lat":23.19344377,"lon":113.37200172,"area_km2":1.3213,"D":0.2036,"C":0.6243,"T":0.0664,"U1":0.1183,"U2":0.0145,"couplingDegree":0.2036,"level":"中度失调","road_density":22.6674,"walk_accessibility":0.2649,"metro_line_density":3.9858,"station_count":2,"line_count":1,"population_density":9829.4004,"poi_density":0.0,"poi_diversity":0.0,"gdp_density":0.0,"P":9829.4004,"I":0.0,"G":0.0},{"stationName":"广州植物园(地铁站)","station_id":"广州植物园(地铁站)_23.19266_113.36018","lineId":"广州地铁6号线","lat":23.19266205,"lon":113.36018238,"area_km2":1.7714,"D":0.3469,"C":0.9989,"T":0.1204,"U1":0.1148,"U2":0.1261,"couplingDegree":0.3469,"level":"中度失调","road_density":21.1167,"walk_accessibility":0.3552,"metro_line_density":3.0471,"station_count":2,"line_count":1,"population_density":1896.77,"poi_density":0.0,"poi_diversity":0.0,"gdp_density":127486.5121,"P":1896.77,"I":0.0,"G":127486.5121},{"stationName":"广州长湴(地铁站)","station_id":"广州长湴(地铁站)_23.18090_113.34385","lineId":"广州地铁6号线","lat":23.18089624,"lon":113.34384804,"area_km2":0.933,"D":0.0,"C":0.0,"T":0.1062,"U1":0.2123,"U2":0.0,"couplingDegree":0.0,"level":"极度失调","road_density":25.2023,"walk_accessibility":0.1871,"metro_line_density":6.0277,"station_count":2,"line_count":2,"population_density":0.0,"poi_density":0.0,"poi_diversity":0.0,"gdp_density":0.0,"P":0.0,"I":0.0,"G":0.0},{"stationName":"广州天河客运站(地铁站)","station_id":"广州天河客运站(地铁站)_23.17354_113.33860","lineId":"广州地铁10号线 / 广州地铁6号线","lat":23.173543746666667,"lon":113.33859633333333,"area_km2":2.0877,"D":0.2675,"C":0.6154,"T":0.1163,"U1":0.2079,"U2":0.0246,"couplingDegree":0.2675,"level":"中度失调","road_density":25.8573,"walk_accessibility":0.4186,"metro_line_density":2.5062,"station_count":2,"line_count":2,"population_density":14870.6797,"poi_density":0.479,"poi_diversity":0.0,"gdp_density":0.0,"P":14870.6797,"I":0.479,"G":0.0},{"stationName":"广州天平架(地铁站)","station_id":"广州天平架(地铁站)_23.16211_113.31593","lineId":"广州地铁6号线","lat":23.16211152,"lon":113.31593439,"area_km2":1.6821,"D":0.6539,"C":0.9365,"T":0.4566,"U1":0.6166,"U2":0.2965,"couplingDegree":0.6539,"level":"良好协调","road_density":30.5818,"walk_accessibility":0.3372,"metro_line_density":6.8561,"station_count":4,"line_count":5,"population_density":55773.2294,"poi_density":0.5945,"poi_diversity":0.0,"gdp_density":217955.3231,"P":55773.2294,"I":0.5945,"G":217955.3231},{"stationName":"广州沙河(地铁站)","station_id":"广州沙河(地铁站)_23.15477_113.30758","lineId":"广州地铁11号线 / 广州地铁6号线","lat":23.15476822,"lon":113.307578385,"area_km2":1.9952,"D":0.4696,"C":0.6443,"T":0.3422,"U1":0.604,"U2":0.0805,"couplingDegree":0.4696,"level":"勉强协调","road_density":29.9906,"walk_accessibility":0.4,"metro_line_density":4.2082,"station_count":4,"line_count":5,"population_density":52574.4148,"poi_density":0.5012,"poi_diversity":0.0,"gdp_density":0.0,"P":52574.4148,"I":0.5012,"G":0.0},{"stationName":"广州沙河顶(地铁站)","station_id":"广州沙河顶(地铁站)_23.14989_113.30158","lineId":"广州地铁6号线","lat":23.14989453,"lon":113.30157744,"area_km2":1.8581,"D":0.4595,"C":0.9549,"T":0.2211,"U1":0.2867,"U2":0.1554,"couplingDegree":0.4595,"level":"勉强协调","road_density":28.2771,"walk_accessibility":0.3726,"metro_line_density":4.0541,"station_count":3,"line_count":2,"population_density":63509.3266,"poi_density":1.0763,"poi_diversity":0.6931,"gdp_density":0.0,"P":63509.3266,"I":1.0763,"G":0.0},{"stationName":"广州黄花岗(地铁站)","station_id":"广州黄花岗(地铁站)_23.14376_113.29453","lineId":"广州地铁6号线","lat":23.14375933,"lon":113.29453143,"area_km2":1.9602,"D":0.4971,"C":0.9318,"T":0.2652,"U1":0.3615,"U2":0.169,"couplingDegree":0.4971,"level":"勉强协调","road_density":31.6161,"walk_accessibility":0.393,"metro_line_density":3.7833,"station_count":4,"line_count":2,"population_density":72872.1399,"poi_density":1.0203,"poi_diversity":0.6931,"gdp_density":0.0,"P":72872.1399,"I":1.0203,"G":0.0},{"stationName":"广州东湖(地铁站)","station_id":"广州东湖(地铁站)_23.11791_113.28354","lineId":"广州地铁10号线 / 广州地铁6号线","lat":23.117914120000002,"lon":113.283539805,"area_km2":2.1926,"D":0.6594,"C":0.9766,"T":0.4453,"U1":0.5409,"U2":0.3496,"couplingDegree":0.6594,"level":"良好协调","road_density":32.7071,"walk_accessibility":0.4396,"metro_line_density":5.847,"station_count":4,"line_count":4,"population_density":19680.8597,"poi_density":24.1718,"poi_diversity":2.3339,"gdp_density":0.0,"P":19680.8597,"I":24.1718,"G":0.0},{"stationName":"广州团一大广场(地铁站)","station_id":"广州团一大广场(地铁站)_23.12078_113.27292","lineId":"广州地铁6号线","lat":23.120782005000002,"lon":113.272924895,"area_km2":2.8543,"D":0.6906,"C":0.9764,"T":0.4885,"U1":0.5941,"U2":0.383,"couplingDegree":0.6906,"level":"良好协调","road_density":31.3703,"walk_accessibility":0.5723,"metro_line_density":2.5188,"station_count":5,"line_count":4,"population_density":15623.4053,"poi_density":31.1809,"poi_diversity":2.3435,"gdp_density":0.0,"P":15623.4053,"I":31.1809,"G":0.0},{"stationName":"广州北京路(地铁站)","station_id":"广州北京路(地铁站)_23.12144_113.26499","lineId":"广州地铁6号线","lat":23.12143812,"lon":113.26499364,"area_km2":2.9897,"D":0.6666,"C":0.9877,"T":0.4499,"U1":0.5203,"U2":0.3794,"couplingDegree":0.6666,"level":"良好协调","road_density":30.9259,"walk_accessibility":0.5994,"metro_line_density":3.7006,"station_count":5,"line_count":3,"population_density":40919.4344,"poi_density":23.0794,"poi_diversity":2.3899,"gdp_density":0.0,"P":40919.4344,"I":23.0794,"G":0.0},{"stationName":"广州一德路(地铁站)","station_id":"广州一德路(地铁站)_23.11552_113.25223","lineId":"广州地铁6号线","lat":23.11552276,"lon":113.25223263,"area_km2":2.609,"D":0.5275,"C":0.9993,"T":0.2784,"U1":0.2887,"U2":0.2682,"couplingDegree":0.5275,"level":"勉强协调","road_density":28.9567,"walk_accessibility":0.5231,"metro_line_density":2.5057,"station_count":3,"line_count":2,"population_density":46889.7833,"poi_density":5.7493,"poi_diversity":2.0838,"gdp_density":0.0,"P":46889.7833,"I":5.7493,"G":0.0},{"stationName":"广州文化公园(地铁站)","station_id":"广州文化公园(地铁站)_23.11167_113.24463","lineId":"广州地铁6号线","lat":23.11166968,"lon":113.24463033,"area_km2":2.988,"D":0.5313,"C":0.998,"T":0.2829,"U1":0.3009,"U2":0.2649,"couplingDegree":0.5313,"level":"勉强协调","road_density":33.6123,"walk_accessibility":0.5991,"metro_line_density":1.9114,"station_count":3,"line_count":2,"population_density":38569.139,"poi_density":5.0201,"poi_diversity":2.246,"gdp_density":0.0,"P":38569.139,"I":5.0201,"G":0.0},{"stationName":"广州如意坊(地铁站)","station_id":"广州如意坊(地铁站)_23.11784_113.22578","lineId":"广州地铁6号线","lat":23.11784371,"lon":113.22578145,"area_km2":2.0636,"D":0.4598,"C":0.9243,"T":0.2287,"U1":0.316,"U2":0.1415,"couplingDegree":0.4598,"level":"勉强协调","road_density":30.3313,"walk_accessibility":0.4137,"metro_line_density":7.9047,"station_count":3,"line_count":2,"population_density":13744.9135,"poi_density":3.3921,"poi_diversity":1.277,"gdp_density":0.0,"P":13744.9135,"I":3.3921,"G":0.0},{"stationName":"广州河沙(地铁站)","station_id":"广州河沙(地铁站)_23.13823_113.21206","lineId":"广州地铁6号线","lat":23.13823428,"lon":113.21206314,"area_km2":1.291,"D":0.3077,"C":0.81,"T":0.1169,"U1":0.1854,"U2":0.0483,"couplingDegree":0.3077,"level":"中度失调","road_density":19.8328,"walk_accessibility":0.2588,"metro_line_density":2.75,"station_count":2,"line_count":2,"population_density":32687.1554,"poi_density":0.0,"poi_diversity":0.0,"gdp_density":0.0,"P":32687.1554,"I":0.0,"G":0.0},{"stationName":"广州沙贝(地铁站)","station_id":"广州沙贝(地铁站)_23.15497_113.20595","lineId":"广州地铁6号线","lat":23.15496679,"lon":113.20595089,"area_km2":1.4899,"D":0.2345,"C":0.7619,"T":0.0722,"U1":0.1189,"U2":0.0254,"couplingDegree":0.2345,"level":"中度失调","road_density":25.9744,"walk_accessibility":0.2987,"metro_line_density":2.365,"station_count":2,"line_count":1,"population_density":17196.04,"poi_density":0.0,"poi_diversity":0.0,"gdp_density":0.0,"P":17196.04,"I":0.0,"G":0.0},{"stationName":"广州横沙(地铁站)","station_id":"广州横沙(地铁站)_23.16082_113.20143","lineId":"广州地铁6号线","lat":23.16082413,"lon":113.201434,"area_km2":1.7479,"D":0.2539,"C":0.4579,"T":0.1408,"U1":0.2659,"U2":0.0156,"couplingDegree":0.2539,"level":"中度失调","road_density":24.3011,"walk_accessibility":0.3504,"metro_line_density":2.2734,"station_count":3,"line_count":2,"population_density":10570.6885,"poi_density":0.0,"poi_diversity":0.0,"gdp_density":0.0,"P":10570.6885,"I":0.0,"G":0.0},{"stationName":"广州浔峰岗(地铁站)","station_id":"广州浔峰岗(地铁站)_23.16768_113.19651","lineId":"广州地铁12号线 / 广州地铁6号线","lat":23.167678090000003,"lon":113.196509975,"area_km2":1.7351,"D":0.0812,"C":0.0669,"T":0.0984,"U1":0.1966,"U2":0.0002,"couplingDegree":0.0812,"level":"极度失调","road_density":22.3568,"walk_accessibility":0.3479,"metro_line_density":2.727,"station_count":2,"line_count":2,"population_density":149.2745,"poi_density":0.0,"poi_diversity":0.0,"gdp_density":0.0,"P":149.2745,"I":0.0,"G":0.0},{"stationName":"广州燕山(地铁站)","station_id":"广州燕山(地铁站)_23.19744_113.46958","lineId":"广州地铁7号线","lat":23.19744076,"lon":113.469583755,"area_km2":0.5091,"D":0.4195,"C":0.9958,"T":0.1768,"U1":0.193,"U2":0.1605,"couplingDegree":0.4195,"level":"勉强协调","road_density":18.8564,"walk_accessibility":0.1021,"metro_line_density":6.1658,"station_count":2,"line_count":2,"population_density":26570.8718,"poi_density":0.0,"poi_diversity":0.0,"gdp_density":125361.5343,"P":26570.8718,"I":0.0,"G":125361.5343},{"stationName":"广州水西(地铁站)","station_id":"广州水西(地铁站)_23.18994_113.47347","lineId":"广州地铁21号线 / 广州地铁7号线","lat":23.1899355225,"lon":113.47346759,"area_km2":1.7091,"D":0.3674,"C":0.6366,"T":0.2121,"U1":0.3756,"U2":0.0485,"couplingDegree":0.3674,"level":"中度失调","road_density":25.8058,"walk_accessibility":0.3427,"metro_line_density":6.7423,"station_count":3,"line_count":3,"population_density":8398.455,"poi_density":0.0,"poi_diversity":0.0,"gdp_density":37338.2822,"P":8398.455,"I":0.0,"G":37338.2822},{"stationName":"广州科丰路(地铁站)","station_id":"广州科丰路(地铁站)_23.16543_113.46076","lineId":"广州地铁7号线","lat":23.16542662,"lon":113.46076123,"area_km2":1.4252,"D":0.2171,"C":0.2419,"T":0.1948,"U1":0.3837,"U2":0.0058,"couplingDegree":0.2171,"level":"中度失调","road_density":24.4397,"walk_accessibility":0.2857,"metro_line_density":9.3421,"station_count":3,"line_count":3,"population_density":3913.8423,"poi_density":0.0,"poi_diversity":0.0,"gdp_density":0.0,"P":3913.8423,"I":0.0,"G":0.0},{"stationName":"广州加庄(地铁站)","station_id":"广州加庄(地铁站)_23.15074_113.45480","lineId":"广州地铁7号线","lat":23.15074178,"lon":113.45480176999999,"area_km2":1.1157,"D":0.0844,"C":0.1747,"T":0.0407,"U1":0.0808,"U2":0.0006,"couplingDegree":0.0844,"level":"极度失调","road_density":22.5244,"walk_accessibility":0.2237,"metro_line_density":9.7012,"station_count":1,"line_count":1,"population_density":423.9412,"poi_density":0.0,"poi_diversity":0.0,"gdp_density":0.0,"P":423.9412,"I":0.0,"G":0.0},{"stationName":"广州姬堂(地铁站)","station_id":"广州姬堂(地铁站)_23.13486_113.45053","lineId":"广州地铁7号线","lat":23.134864775,"lon":113.45052834500001,"area_km2":0.7793,"D":0.204,"C":0.7341,"T":0.0567,"U1":0.0951,"U2":0.0182,"couplingDegree":0.204,"level":"中度失调","road_density":24.4171,"walk_accessibility":0.1562,"metro_line_density":12.1546,"station_count":1,"line_count":1,"population_density":12304.1026,"poi_density":0.0,"poi_diversity":0.0,"gdp_density":0.0,"P":12304.1026,"I":0.0,"G":0.0},{"stationName":"广州裕丰围(地铁站)","station_id":"广州裕丰围(地铁站)_23.09742_113.45037","lineId":"广州地铁7号线","lat":23.097418255,"lon":113.45036667,"area_km2":0.7376,"D":0.2091,"C":0.9203,"T":0.0475,"U1":0.0661,"U2":0.0289,"couplingDegree":0.2091,"level":"中度失调","road_density":25.7227,"walk_accessibility":0.1479,"metro_line_density":6.6044,"station_count":1,"line_count":1,"population_density":19563.0408,"poi_density":0.0,"poi_diversity":0.0,"gdp_density":0.0,"P":19563.0408,"I":0.0,"G":0.0},{"stationName":"广州洪圣沙(地铁站)","station_id":"广州洪圣沙(地铁站)_23.08512_113.43830","lineId":"广州地铁7号线","lat":23.08512025,"lon":113.43829864,"area_km2":0.2739,"D":0.0,"C":0.0,"T":0.0053,"U1":0.0105,"U2":0.0,"couplingDegree":0.0,"level":"极度失调","road_density":15.4354,"walk_accessibility":0.0549,"metro_line_density":2.087,"station_count":1,"line_count":1,"population_density":0.0,"poi_density":0.0,"poi_diversity":0.0,"gdp_density":0.0,"P":0.0,"I":0.0,"G":0.0},{"stationName":"广州长洲(地铁站)","station_id":"广州长洲(地铁站)_23.07853_113.42362","lineId":"广州地铁7号线 / 广州地铁8号线","lat":23.0785328375,"lon":113.4236245525,"area_km2":1.3449,"D":0.1552,"C":0.3002,"T":0.0802,"U1":0.1567,"U2":0.0037,"couplingDegree":0.1552,"level":"极度失调","road_density":16.1254,"walk_accessibility":0.2696,"metro_line_density":10.9176,"station_count":1,"line_count":2,"population_density":2502.8723,"poi_density":0.0,"poi_diversity":0.0,"gdp_density":0.0,"P":2502.8723,"I":0.0,"G":0.0},{"stationName":"广州深井(地铁站)","station_id":"广州深井(地铁站)_23.07178_113.40474","lineId":"广州地铁7号线","lat":23.0717796,"lon":113.40473629,"area_km2":1.6054,"D":0.1448,"C":0.5017,"T":0.0418,"U1":0.0779,"U2":0.0056,"couplingDegree":0.1448,"level":"极度失调","road_density":21.9365,"walk_accessibility":0.3219,"metro_line_density":8.3818,"station_count":1,"line_count":1,"population_density":3813.387,"poi_density":0.0,"poi_diversity":0.0,"gdp_density":0.0,"P":3813.387,"I":0.0,"G":0.0},{"stationName":"广州板桥(地铁站)","station_id":"广州板桥(地铁站)_23.01939_113.38262","lineId":"广州地铁7号线","lat":23.019390289999997,"lon":113.382624815,"area_km2":1.9916,"D":0.1748,"C":0.8657,"T":0.0353,"U1":0.053,"U2":0.0176,"couplingDegree":0.1748,"level":"极度失调","road_density":23.7036,"walk_accessibility":0.3993,"metro_line_density":2.442,"station_count":1,"line_count":1,"population_density":355.4957,"poi_density":0.0,"poi_diversity":0.0,"gdp_density":17686.5367,"P":355.4957,"I":0.0,"G":17686.5367},{"stationName":"广州员岗(地铁站)","station_id":"广州员岗(地铁站)_23.01853_113.36015","lineId":"广州地铁7号线","lat":23.01853128,"lon":113.36014926,"area_km2":1.5376,"D":0.2041,"C":0.9821,"T":0.0424,"U1":0.0504,"U2":0.0344,"couplingDegree":0.2041,"level":"中度失调","road_density":22.5053,"walk_accessibility":0.3083,"metro_line_density":3.4595,"station_count":1,"line_count":1,"population_density":5545.022,"poi_density":0.0,"poi_diversity":0.0,"gdp_density":27101.409,"P":5545.022,"I":0.0,"G":27101.409},{"stationName":"广州南村万博(地铁站)","station_id":"广州南村万博(地铁站)_23.00739_113.34209","lineId":"广州地铁7号线","lat":23.00739183,"lon":113.34209459,"area_km2":2.0657,"D":0.1149,"C":0.3631,"T":0.0364,"U1":0.0703,"U2":0.0025,"couplingDegree":0.1149,"level":"极度失调","road_density":30.5545,"walk_accessibility":0.4142,"metro_line_density":2.4999,"station_count":1,"line_count":1,"population_density":1679.3576,"poi_density":0.0,"poi_diversity":0.0,"gdp_density":0.0,"P":1679.3576,"I":0.0,"G":0.0},{"stationName":"广州汉溪长隆(地铁站)","station_id":"广州汉溪长隆(地铁站)_22.99660_113.32474","lineId":"广州地铁7号线","lat":22.99660449,"lon":113.32473855,"area_km2":1.8236,"D":0.0867,"C":0.2497,"T":0.0301,"U1":0.0593,"U2":0.001,"couplingDegree":0.0867,"level":"极度失调","road_density":26.048,"walk_accessibility":0.3656,"metro_line_density":2.9417,"station_count":1,"line_count":1,"population_density":644.8799,"poi_density":0.0,"poi_diversity":0.0,"gdp_density":0.0,"P":644.8799,"I":0.0,"G":0.0},{"stationName":"广州钟村(地铁站)","station_id":"广州钟村(地铁站)_22.98939_113.31115","lineId":"广州地铁7号线","lat":22.98939464,"lon":113.31115495,"area_km2":1.5452,"D":0.134,"C":0.5938,"T":0.0302,"U1":0.0546,"U2":0.0059,"couplingDegree":0.134,"level":"极度失调","road_density":24.3148,"walk_accessibility":0.3098,"metro_line_density":3.4304,"station_count":1,"line_count":1,"population_density":3996.8788,"poi_density":0.0,"poi_diversity":0.0,"gdp_density":0.0,"P":3996.8788,"I":0.0,"G":0.0},{"stationName":"广州谢村(地铁站)","station_id":"广州谢村(地铁站)_22.99328_113.29047","lineId":"广州地铁7号线","lat":22.99328038,"lon":113.29047375,"area_km2":0.9356,"D":0.0922,"C":0.3143,"T":0.0271,"U1":0.0528,"U2":0.0014,"couplingDegree":0.0922,"level":"极度失调","road_density":24.7938,"walk_accessibility":0.1876,"metro_line_density":4.2248,"station_count":1,"line_count":1,"population_density":927.7163,"poi_density":0.0,"poi_diversity":0.0,"gdp_density":0.0,"P":927.7163,"I":0.0,"G":0.0},{"stationName":"广州大洲(地铁站)","station_id":"广州大洲(地铁站)_22.98653_113.25198","lineId":"广州地铁7号线","lat":22.98653472,"lon":113.25197895,"area_km2":1.5787,"D":0.0541,"C":0.1609,"T":0.0182,"U1":0.0361,"U2":0.0002,"couplingDegree":0.0541,"level":"极度失调","road_density":18.1268,"walk_accessibility":0.3165,"metro_line_density":2.6739,"station_count":1,"line_count":1,"population_density":160.2552,"poi_density":0.0,"poi_diversity":0.0,"gdp_density":0.0,"P":160.2552,"I":0.0,"G":0.0},{"stationName":"广州陈村北(地铁站)","station_id":"广州陈村北(地铁站)_22.97887_113.23993","lineId":"广州地铁7号线","lat":22.97886864,"lon":113.23993109,"area_km2":1.2446,"D":0.0,"C":0.0,"T":0.0606,"U1":0.1212,"U2":0.0,"couplingDegree":0.0,"level":"极度失调","road_density":23.7691,"walk_accessibility":0.2495,"metro_line_density":4.2012,"station_count":2,"line_count":1,"population_density":0.0,"poi_density":0.0,"poi_diversity":0.0,"gdp_density":0.0,"P":0.0,"I":0.0,"G":0.0},{"stationName":"广州陈村(地铁站)","station_id":"广州陈村(地铁站)_22.97074_113.23155","lineId":"广州地铁7号线","lat":22.97073765,"lon":113.23155369,"area_km2":1.9055,"D":0.0,"C":0.0,"T":0.0578,"U1":0.1157,"U2":0.0,"couplingDegree":0.0,"level":"极度失调","road_density":21.9673,"walk_accessibility":0.382,"metro_line_density":2.5576,"station_count":2,"line_count":1,"population_density":0.0,"poi_density":0.0,"poi_diversity":0.0,"gdp_density":0.0,"P":0.0,"I":0.0,"G":0.0},{"stationName":"广州锦龙(地铁站)","station_id":"广州锦龙(地铁站)_22.95589_113.23619","lineId":"广州地铁7号线","lat":22.95589185,"lon":113.23618779,"area_km2":2.2822,"D":0.0,"C":0.0,"T":0.0291,"U1":0.0581,"U2":0.0,"couplingDegree":0.0,"level":"极度失调","road_density":24.8002,"walk_accessibility":0.4576,"metro_line_density":2.2716,"station_count":1,"line_count":1,"population_density":0.0,"poi_density":0.0,"poi_diversity":0.0,"gdp_density":0.0,"P":0.0,"I":0.0,"G":0.0},{"stationName":"广州南涌(地铁站)","station_id":"广州南涌(地铁站)_22.94208_113.23286","lineId":"广州地铁7号线","lat":22.94207907,"lon":113.23285927,"area_km2":1.7574,"D":0.0,"C":0.0,"T":0.022,"U1":0.044,"U2":0.0,"couplingDegree":0.0,"level":"极度失调","road_density":20.0426,"walk_accessibility":0.3524,"metro_line_density":2.8773,"station_count":1,"line_count":1,"population_density":0.0,"poi_density":0.0,"poi_diversity":0.0,"gdp_density":0.0,"P":0.0,"I":0.0,"G":0.0},{"stationName":"广州美的(地铁站)","station_id":"广州美的(地铁站)_22.93626_113.22155","lineId":"广州地铁7号线","lat":22.93625927,"lon":113.22154868,"area_km2":2.0333,"D":0.0,"C":0.0,"T":0.0249,"U1":0.0499,"U2":0.0,"couplingDegree":0.0,"level":"极度失调","road_density":22.0579,"walk_accessibility":0.4077,"metro_line_density":2.4909,"station_count":1,"line_count":1,"population_density":0.0,"poi_density":0.0,"poi_diversity":0.0,"gdp_density":0.0,"P":0.0,"I":0.0,"G":0.0},{"stationName":"广州北滘公园(地铁站)","station_id":"广州北滘公园(地铁站)_22.93279_113.20676","lineId":"广州地铁7号线","lat":22.93278847,"lon":113.20675861,"area_km2":2.2758,"D":0.0,"C":0.0,"T":0.0311,"U1":0.0623,"U2":0.0,"couplingDegree":0.0,"level":"极度失调","road_density":27.7221,"walk_accessibility":0.4563,"metro_line_density":1.8117,"station_count":1,"line_count":1,"population_density":0.0,"poi_density":0.0,"poi_diversity":0.0,"gdp_density":0.0,"P":0.0,"I":0.0,"G":0.0},{"stationName":"广州美的大道(地铁站)","station_id":"广州美的大道(地铁站)_22.94749_113.20243","lineId":"广州地铁7号线","lat":22.94749396,"lon":113.20242633,"area_km2":1.9315,"D":0.0,"C":0.0,"T":0.0228,"U1":0.0457,"U2":0.0,"couplingDegree":0.0,"level":"极度失调","road_density":23.9753,"walk_accessibility":0.3873,"metro_line_density":1.1803,"station_count":1,"line_count":1,"population_density":0.0,"poi_density":0.0,"poi_diversity":0.0,"gdp_density":0.0,"P":0.0,"I":0.0,"G":0.0},{"stationName":"广州黄埔古港(地铁站)","station_id":"广州黄埔古港(地铁站)_23.09562_113.39558","lineId":"广州地铁8号线","lat":23.09561769,"lon":113.39557877,"area_km2":1.5646,"D":0.2319,"C":0.6399,"T":0.084,"U1":0.1486,"U2":0.0195,"couplingDegree":0.2319,"level":"中度失调","road_density":27.1965,"walk_accessibility":0.3137,"metro_line_density":6.9191,"station_count":2,"line_count":1,"population_density":10779.6351,"poi_density":0.6391,"poi_diversity":0.0,"gdp_density":0.0,"P":10779.6351,"I":0.6391,"G":0.0},{"stationName":"广州新洲(地铁站)","station_id":"广州新洲(地铁站)_23.08999_113.40195","lineId":"广州地铁8号线","lat":23.089994895,"lon":113.40194846,"area_km2":0.9054,"D":0.231,"C":0.728,"T":0.0733,"U1":0.1236,"U2":0.023,"couplingDegree":0.231,"level":"中度失调","road_density":18.6413,"walk_accessibility":0.1815,"metro_line_density":7.4651,"station_count":2,"line_count":1,"population_density":15589.6431,"poi_density":0.0,"poi_diversity":0.0,"gdp_density":0.0,"P":15589.6431,"I":0.0,"G":0.0},{"stationName":"广州沙亭(地铁站)","station_id":"广州沙亭(地铁站)_23.06132_113.44742","lineId":"广州地铁8号线","lat":23.06131542,"lon":113.447424195,"area_km2":1.6332,"D":0.1171,"C":0.4675,"T":0.0293,"U1":0.0552,"U2":0.0034,"couplingDegree":0.1171,"level":"极度失调","road_density":24.3101,"walk_accessibility":0.3274,"metro_line_density":3.3611,"station_count":1,"line_count":1,"population_density":2301.0386,"poi_density":0.0,"poi_diversity":0.0,"gdp_density":0.0,"P":2301.0386,"I":0.0,"G":0.0},{"stationName":"广州化龙(地铁站)","station_id":"广州化龙(地铁站)_23.04776_113.45330","lineId":"广州地铁8号线","lat":23.04776156,"lon":113.45330123,"area_km2":1.2403,"D":0.1851,"C":0.9671,"T":0.0354,"U1":0.0444,"U2":0.0264,"couplingDegree":0.1851,"level":"极度失调","road_density":21.9843,"walk_accessibility":0.2487,"metro_line_density":3.2626,"station_count":1,"line_count":1,"population_density":6371.6966,"poi_density":0.0,"poi_diversity":0.0,"gdp_density":17560.4618,"P":6371.6966,"I":0.0,"G":17560.4618},{"stationName":"广州仙岭(地铁站)","station_id":"广州仙岭(地铁站)_23.02053_113.46426","lineId":"广州地铁8号线","lat":23.02052815,"lon":113.46425789,"area_km2":1.45,"D":0.1845,"C":0.5001,"T":0.0681,"U1":0.127,"U2":0.0091,"couplingDegree":0.1845,"level":"极度失调","road_density":20.0343,"walk_accessibility":0.2907,"metro_line_density":6.3261,"station_count":2,"line_count":1,"population_density":6172.2364,"poi_density":0.0,"poi_diversity":0.0,"gdp_density":0.0,"P":6172.2364,"I":0.0,"G":0.0},{"stationName":"广州龙泽路(地铁站)","station_id":"广州龙泽路(地铁站)_23.01659_113.47380","lineId":"广州地铁8号线","lat":23.01659175,"lon":113.47379601,"area_km2":1.3458,"D":0.2022,"C":0.6227,"T":0.0656,"U1":0.117,"U2":0.0143,"couplingDegree":0.2022,"level":"中度失调","road_density":20.0877,"walk_accessibility":0.2698,"metro_line_density":4.7721,"station_count":2,"line_count":1,"population_density":526.8356,"poi_density":0.0,"poi_diversity":0.0,"gdp_density":13963.7443,"P":526.8356,"I":0.0,"G":13963.7443},{"stationName":"广州莲花(地铁站)","station_id":"广州莲花(地铁站)_23.00451_113.48924","lineId":"广州地铁8号线","lat":23.00451317,"lon":113.48923708,"area_km2":0.8952,"D":0.0395,"C":0.2278,"T":0.0068,"U1":0.0135,"U2":0.0002,"couplingDegree":0.0395,"level":"极度失调","road_density":17.9586,"walk_accessibility":0.1795,"metro_line_density":0.2381,"station_count":1,"line_count":1,"population_density":121.7555,"poi_density":0.0,"poi_diversity":0.0,"gdp_density":0.0,"P":121.7555,"I":0.0,"G":0.0},{"stationName":"广州滘心(地铁站)","station_id":"广州滘心(地铁站)_23.23951_113.21163","lineId":"广州地铁8号线","lat":23.23950912,"lon":113.21163232,"area_km2":0.9853,"D":0.0892,"C":0.9039,"T":0.0088,"U1":0.0126,"U2":0.005,"couplingDegree":0.0892,"level":"极度失调","road_density":16.4553,"walk_accessibility":0.1975,"metro_line_density":0.4968,"station_count":1,"line_count":1,"population_density":3405.199,"poi_density":0.0,"poi_diversity":0.0,"gdp_density":0.0,"P":3405.199,"I":0.0,"G":0.0},{"stationName":"广州凤翔路(地铁站)","station_id":"广州凤翔路(地铁站)_23.25985_113.21007","lineId":"广州地铁8号线","lat":23.25985405,"lon":113.21006705,"area_km2":1.2705,"D":0.178,"C":0.9978,"T":0.0318,"U1":0.0339,"U2":0.0297,"couplingDegree":0.178,"level":"极度失调","road_density":17.5847,"walk_accessibility":0.2547,"metro_line_density":3.1567,"station_count":1,"line_count":1,"population_density":5252.1963,"poi_density":0.0,"poi_diversity":0.0,"gdp_density":22645.3251,"P":5252.1963,"I":0.0,"G":22645.3251},{"stationName":"广州江高(地铁站)","station_id":"广州江高(地铁站)_23.27926_113.21803","lineId":"广州地铁8号线","lat":23.2792583,"lon":113.21802804,"area_km2":1.3739,"D":0.185,"C":0.5892,"T":0.0581,"U1":0.105,"U2":0.0112,"couplingDegree":0.185,"level":"极度失调","road_density":18.9569,"walk_accessibility":0.2755,"metro_line_density":3.0644,"station_count":2,"line_count":1,"population_density":7542.1217,"poi_density":0.0,"poi_diversity":0.0,"gdp_density":0.0,"P":7542.1217,"I":0.0,"G":0.0},{"stationName":"广州江村(地铁站)","station_id":"广州江村(地铁站)_23.27757_113.23016","lineId":"广州地铁8号线","lat":23.27757225,"lon":113.23016384,"area_km2":1.2248,"D":0.174,"C":0.5486,"T":0.0552,"U1":0.1013,"U2":0.009,"couplingDegree":0.174,"level":"极度失调","road_density":18.374,"walk_accessibility":0.2456,"metro_line_density":2.9848,"station_count":2,"line_count":1,"population_density":6117.8738,"poi_density":0.0,"poi_diversity":0.0,"gdp_density":0.0,"P":6117.8738,"I":0.0,"G":0.0},{"stationName":"广州江府(地铁站)","station_id":"广州江府(地铁站)_23.29348_113.23654","lineId":"广州地铁8号线","lat":23.293479155,"lon":113.236537935,"area_km2":0.8547,"D":0.1331,"C":0.4522,"T":0.0392,"U1":0.0741,"U2":0.0042,"couplingDegree":0.1331,"level":"极度失调","road_density":22.4825,"walk_accessibility":0.1714,"metro_line_density":9.1016,"station_count":1,"line_count":1,"population_density":2865.2615,"poi_density":0.0,"poi_diversity":0.0,"gdp_density":0.0,"P":2865.2615,"I":0.0,"G":0.0},{"stationName":"广州水沥(地铁站)","station_id":"广州水沥(地铁站)_23.30733_113.23200","lineId":"广州地铁8号线","lat":23.307325565,"lon":113.231995305,"area_km2":1.1841,"D":0.1071,"C":0.503,"T":0.0228,"U1":0.0425,"U2":0.0031,"couplingDegree":0.1071,"level":"极度失调","road_density":18.5695,"walk_accessibility":0.2374,"metro_line_density":4.4573,"station_count":1,"line_count":1,"population_density":2093.5698,"poi_density":0.0,"poi_diversity":0.0,"gdp_density":0.0,"P":2093.5698,"I":0.0,"G":0.0},{"stationName":"广州神山东(地铁站)","station_id":"广州神山东(地铁站)_23.32931_113.22507","lineId":"广州地铁8号线","lat":23.32931214,"lon":113.22506901,"area_km2":1.488,"D":0.1404,"C":0.8248,"T":0.0239,"U1":0.0374,"U2":0.0104,"couplingDegree":0.1404,"level":"极度失调","road_density":16.8386,"walk_accessibility":0.2983,"metro_line_density":3.6265,"station_count":1,"line_count":1,"population_density":7028.2749,"poi_density":0.0,"poi_diversity":0.0,"gdp_density":0.0,"P":7028.2749,"I":0.0,"G":0.0},{"stationName":"广州东镜(地铁站)","station_id":"广州东镜(地铁站)_23.34440_113.22133","lineId":"广州地铁8号线","lat":23.34439532,"lon":113.22132999,"area_km2":1.6158,"D":0.1651,"C":0.9252,"T":0.0295,"U1":0.0406,"U2":0.0183,"couplingDegree":0.1651,"level":"极度失调","road_density":18.2208,"walk_accessibility":0.324,"metro_line_density":3.3443,"station_count":1,"line_count":1,"population_density":12362.2562,"poi_density":0.0,"poi_diversity":0.0,"gdp_density":0.0,"P":12362.2562,"I":0.0,"G":0.0},{"stationName":"广州雅源(地铁站)","station_id":"广州雅源(地铁站)_23.35619_113.22096","lineId":"广州地铁8号线","lat":23.35619473,"lon":113.22095809999999,"area_km2":1.0528,"D":0.189,"C":0.9088,"T":0.0393,"U1":0.0557,"U2":0.0229,"couplingDegree":0.189,"level":"极度失调","road_density":23.1445,"walk_accessibility":0.2111,"metro_line_density":5.1646,"station_count":1,"line_count":1,"population_density":15485.6029,"poi_density":0.0,"poi_diversity":0.0,"gdp_density":0.0,"P":15485.6029,"I":0.0,"G":0.0},{"stationName":"广州雅瑶(地铁站)","station_id":"广州雅瑶(地铁站)_23.36845_113.21601","lineId":"广州地铁8号线","lat":23.36845022,"lon":113.21600679,"area_km2":1.2513,"D":0.2533,"C":0.8352,"T":0.0768,"U1":0.1191,"U2":0.0346,"couplingDegree":0.2533,"level":"中度失调","road_density":23.5918,"walk_accessibility":0.2509,"metro_line_density":3.8889,"station_count":2,"line_count":1,"population_density":23378.5873,"poi_density":0.0,"poi_diversity":0.0,"gdp_density":0.0,"P":23378.5873,"I":0.0,"G":0.0},{"stationName":"广州秀全公园(地铁站)","station_id":"广州秀全公园(地铁站)_23.37439_113.20675","lineId":"广州地铁8号线","lat":23.374394805,"lon":113.20674532000001,"area_km2":1.5718,"D":0.2963,"C":0.9676,"T":0.0907,"U1":0.1136,"U2":0.0678,"couplingDegree":0.2963,"level":"中度失调","road_density":18.6375,"walk_accessibility":0.3151,"metro_line_density":4.2923,"station_count":2,"line_count":1,"population_density":35364.793,"poi_density":0.0,"poi_diversity":0.0,"gdp_density":16066.5628,"P":35364.793,"I":0.0,"G":16066.5628},{"stationName":"广州广州北站(地铁站)","station_id":"广州广州北站(地铁站)_23.37832_113.19439","lineId":"广州地铁8号线 / 广州地铁9号线","lat":23.378322095,"lon":113.19439353,"area_km2":1.2233,"D":0.1985,"C":0.5228,"T":0.0754,"U1":0.1397,"U2":0.0111,"couplingDegree":0.1985,"level":"极度失调","road_density":24.0893,"walk_accessibility":0.2453,"metro_line_density":4.908,"station_count":1,"line_count":2,"population_density":7524.1741,"poi_density":0.0,"poi_diversity":0.0,"gdp_density":0.0,"P":7524.1741,"I":0.0,"G":0.0},{"stationName":"广州桃源(地铁站)","station_id":"广州桃源(地铁站)_23.26786_113.24049","lineId":"广州地铁8号线","lat":23.26785531,"lon":113.24049377,"area_km2":1.4783,"D":0.1282,"C":0.7268,"T":0.0226,"U1":0.0382,"U2":0.0071,"couplingDegree":0.1282,"level":"极度失调","road_density":17.6421,"walk_accessibility":0.2964,"metro_line_density":3.4443,"station_count":1,"line_count":1,"population_density":4792.7843,"poi_density":0.0,"poi_diversity":0.0,"gdp_density":0.0,"P":4792.7843,"I":0.0,"G":0.0},{"stationName":"广州均禾(地铁站)","station_id":"广州均禾(地铁站)_23.25669_113.24670","lineId":"广州地铁8号线","lat":23.25669205,"lon":113.24670198,"area_km2":1.6897,"D":0.1579,"C":0.4496,"T":0.0555,"U1":0.105,"U2":0.0059,"couplingDegree":0.1579,"level":"极度失调","road_density":17.3613,"walk_accessibility":0.3388,"metro_line_density":3.0515,"station_count":2,"line_count":1,"population_density":4006.0639,"poi_density":0.0,"poi_diversity":0.0,"gdp_density":0.0,"P":4006.0639,"I":0.0,"G":0.0},{"stationName":"广州白云大朗(地铁站)","station_id":"广州白云大朗(地铁站)_23.24627_113.24806","lineId":"广州地铁8号线","lat":23.24627016,"lon":113.24805858,"area_km2":1.3307,"D":0.1452,"C":0.3572,"T":0.059,"U1":0.1141,"U2":0.0039,"couplingDegree":0.1452,"level":"极度失调","road_density":21.286,"walk_accessibility":0.2668,"metro_line_density":3.7979,"station_count":2,"line_count":1,"population_density":2633.144,"poi_density":0.0,"poi_diversity":0.0,"gdp_density":0.0,"P":2633.144,"I":0.0,"G":0.0},{"stationName":"广州夏茅(地铁站)","station_id":"广州夏茅(地铁站)_23.23053_113.25475","lineId":"广州地铁22号线 / 广州地铁8号线","lat":23.23052991,"lon":113.25474501,"area_km2":1.3285,"D":0.2304,"C":0.6397,"T":0.083,"U1":0.1468,"U2":0.0192,"couplingDegree":0.2304,"level":"中度失调","road_density":23.1894,"walk_accessibility":0.2664,"metro_line_density":6.2955,"station_count":1,"line_count":2,"population_density":10178.2668,"poi_density":0.7527,"poi_diversity":0.0,"gdp_density":0.0,"P":10178.2668,"I":0.7527,"G":0.0},{"stationName":"广州黄石(地铁站)","station_id":"广州黄石(地铁站)_23.20731_113.24724","lineId":"广州地铁8号线","lat":23.20731226,"lon":113.24724033,"area_km2":1.796,"D":0.1773,"C":0.8708,"T":0.0361,"U1":0.0539,"U2":0.0184,"couplingDegree":0.1773,"level":"极度失调","road_density":23.642,"walk_accessibility":0.3601,"metro_line_density":3.0473,"station_count":1,"line_count":1,"population_density":12418.6466,"poi_density":0.0,"poi_diversity":0.0,"gdp_density":0.0,"P":12418.6466,"I":0.0,"G":0.0},{"stationName":"广州白云(地铁站)","station_id":"广州白云(地铁站)_23.19482_113.24256","lineId":"广州地铁8号线","lat":23.19481849,"lon":113.24256059,"area_km2":1.8673,"D":0.2117,"C":0.8486,"T":0.0528,"U1":0.0807,"U2":0.0249,"couplingDegree":0.2117,"level":"中度失调","road_density":27.2266,"walk_accessibility":0.3744,"metro_line_density":6.1321,"station_count":1,"line_count":1,"population_density":14824.8115,"poi_density":0.5355,"poi_diversity":0.0,"gdp_density":0.0,"P":14824.8115,"I":0.5355,"G":0.0},{"stationName":"广州棠景(地铁站)","station_id":"广州棠景(地铁站)_23.18200_113.24600","lineId":"广州地铁8号线","lat":23.18200046,"lon":113.24599839,"area_km2":2.0566,"D":0.4313,"C":0.9718,"T":0.1914,"U1":0.1463,"U2":0.2366,"couplingDegree":0.4313,"level":"勉强协调","road_density":26.0549,"walk_accessibility":0.4123,"metro_line_density":5.9275,"station_count":2,"line_count":1,"population_density":52706.1933,"poi_density":4.3761,"poi_diversity":1.677,"gdp_density":0.0,"P":52706.1933,"I":4.3761,"G":0.0},{"stationName":"广州远景(地铁站)","station_id":"广州远景(地铁站)_23.17592_113.24549","lineId":"广州地铁8号线","lat":23.17592116,"lon":113.24548837,"area_km2":1.6905,"D":0.4515,"C":0.9099,"T":0.224,"U1":0.1311,"U2":0.317,"couplingDegree":0.4515,"level":"勉强协调","road_density":25.5241,"walk_accessibility":0.3389,"metro_line_density":4.2623,"station_count":2,"line_count":1,"population_density":63851.9859,"poi_density":8.2816,"poi_diversity":2.2056,"gdp_density":0.0,"P":63851.9859,"I":8.2816,"G":0.0},{"stationName":"广州梓元岗(地铁站)","station_id":"广州梓元岗(地铁站)_23.15614_113.25772","lineId":"广州地铁11号线 / 广州地铁8号线","lat":23.156139345,"lon":113.257724095,"area_km2":1.9503,"D":0.6107,"C":0.8579,"T":0.4346,"U1":0.6579,"U2":0.2114,"couplingDegree":0.6107,"level":"良好协调","road_density":37.4118,"walk_accessibility":0.391,"metro_line_density":8.2585,"station_count":3,"line_count":6,"population_density":46805.4275,"poi_density":3.0764,"poi_diversity":1.5607,"gdp_density":0.0,"P":46805.4275,"I":3.0764,"G":0.0}]}