{"cityCode":"440100","year":2003,"stations":[{"stationName":"广州西塱(地铁站)","station_id":"广州西塱(地铁站)_23.06821_113.22651","lineId":"广州地铁10号线 / 广州地铁1号线 / 广州地铁22号线 / 广州广州广佛线(新城东--沥滘)","lat":23.068209426000003,"lon":113.226507804,"area_km2":1.6968,"D":0.4201,"C":0.8193,"T":0.2154,"U1":0.339,"U2":0.0919,"couplingDegree":0.4201,"level":"勉强协调","road_density":26.3285,"walk_accessibility":0.3402,"metro_line_density":6.9731,"station_count":1,"line_count":4,"population_density":24676.4641,"poi_density":0.0,"poi_diversity":0.0,"gdp_density":0.0,"P":24676.4641,"I":0.0,"G":0.0},{"stationName":"广州坑口(地铁站)","station_id":"广州坑口(地铁站)_23.08157_113.22717","lineId":"广州地铁1号线","lat":23.08157413,"lon":113.22717253,"area_km2":2.5888,"D":0.2766,"C":0.7081,"T":0.1081,"U1":0.1844,"U2":0.0318,"couplingDegree":0.2766,"level":"中度失调","road_density":29.5079,"walk_accessibility":0.519,"metro_line_density":3.535,"station_count":2,"line_count":1,"population_density":8527.6068,"poi_density":0.0,"poi_diversity":0.0,"gdp_density":0.0,"P":8527.6068,"I":0.0,"G":0.0},{"stationName":"广州花地湾(地铁站)","station_id":"广州花地湾(地铁站)_23.08975_113.22871","lineId":"广州地铁1号线","lat":23.08974785,"lon":113.22870587,"area_km2":2.6639,"D":0.3179,"C":0.7639,"T":0.1323,"U1":0.2177,"U2":0.0469,"couplingDegree":0.3179,"level":"中度失调","road_density":33.1286,"walk_accessibility":0.5341,"metro_line_density":4.8753,"station_count":2,"line_count":1,"population_density":12598.7138,"poi_density":0.0,"poi_diversity":0.0,"gdp_density":0.0,"P":12598.7138,"I":0.0,"G":0.0},{"stationName":"广州芳村(地铁站)","station_id":"广州芳村(地铁站)_23.10157_113.23069","lineId":"广州地铁11号线 / 广州地铁1号线 / 广州地铁22号线","lat":23.101569972,"lon":113.230690944,"area_km2":2.4325,"D":0.4499,"C":0.9318,"T":0.2172,"U1":0.2961,"U2":0.1383,"couplingDegree":0.4499,"level":"勉强协调","road_density":29.65,"walk_accessibility":0.4877,"metro_line_density":6.7234,"station_count":1,"line_count":3,"population_density":37138.0853,"poi_density":0.0,"poi_diversity":0.0,"gdp_density":0.0,"P":37138.0853,"I":0.0,"G":0.0},{"stationName":"广州黄沙(地铁站)","station_id":"广州黄沙(地铁站)_23.11242_113.23510","lineId":"广州地铁1号线 / 广州地铁6号线","lat":23.112418535000003,"lon":113.235100905,"area_km2":2.1562,"D":0.3627,"C":0.772,"T":0.1704,"U1":0.2787,"U2":0.0621,"couplingDegree":0.3627,"level":"中度失调","road_density":32.1177,"walk_accessibility":0.4323,"metro_line_density":5.4232,"station_count":2,"line_count":2,"population_density":16670.2596,"poi_density":0.0,"poi_diversity":0.0,"gdp_density":0.0,"P":16670.2596,"I":0.0,"G":0.0},{"stationName":"广州长寿路(地铁站)","station_id":"广州长寿路(地铁站)_23.12109_113.23695","lineId":"广州地铁1号线","lat":23.12108553,"lon":113.23694782499999,"area_km2":3.1815,"D":0.5173,"C":0.9851,"T":0.2716,"U1":0.3184,"U2":0.2249,"couplingDegree":0.5173,"level":"勉强协调","road_density":28.0217,"walk_accessibility":0.6379,"metro_line_density":2.2972,"station_count":3,"line_count":2,"population_density":60381.2818,"poi_density":0.0,"poi_diversity":0.0,"gdp_density":0.0,"P":60381.2818,"I":0.0,"G":0.0},{"stationName":"广州陈家祠(地铁站)","station_id":"广州陈家祠(地铁站)_23.12841_113.24111","lineId":"广州地铁1号线","lat":23.12840889,"lon":113.24111492,"area_km2":3.0666,"D":0.4638,"C":0.9822,"T":0.219,"U1":0.2602,"U2":0.1779,"couplingDegree":0.4638,"level":"勉强协调","road_density":30.341,"walk_accessibility":0.6148,"metro_line_density":2.8115,"station_count":3,"line_count":1,"population_density":47745.8486,"poi_density":0.0,"poi_diversity":0.0,"gdp_density":0.0,"P":47745.8486,"I":0.0,"G":0.0},{"stationName":"广州西门口(地铁站)","station_id":"广州西门口(地铁站)_23.12790_113.25050","lineId":"广州地铁1号线","lat":23.127900420000003,"lon":113.25050498,"area_km2":3.5231,"D":0.6252,"C":0.9321,"T":0.4193,"U1":0.5712,"U2":0.2674,"couplingDegree":0.6252,"level":"良好协调","road_density":32.1814,"walk_accessibility":0.7064,"metro_line_density":3.6105,"station_count":4,"line_count":4,"population_density":71790.6914,"poi_density":0.0,"poi_diversity":0.0,"gdp_density":0.0,"P":71790.6914,"I":0.0,"G":0.0},{"stationName":"广州公园前(地铁站)","station_id":"广州公园前(地铁站)_23.12810_113.25885","lineId":"广州地铁1号线","lat":23.12809794,"lon":113.25885318,"area_km2":3.2838,"D":0.5796,"C":0.7627,"T":0.4405,"U1":0.7254,"U2":0.1556,"couplingDegree":0.5796,"level":"勉强协调","road_density":31.5047,"walk_accessibility":0.6584,"metro_line_density":5.1549,"station_count":5,"line_count":5,"population_density":41764.0007,"poi_density":0.0,"poi_diversity":0.0,"gdp_density":0.0,"P":41764.0007,"I":0.0,"G":0.0},{"stationName":"广州农讲所(地铁站)","station_id":"广州农讲所(地铁站)_23.12929_113.27026","lineId":"广州地铁1号线","lat":23.12929255,"lon":113.27026288,"area_km2":3.2668,"D":0.7141,"C":0.9509,"T":0.5363,"U1":0.3702,"U2":0.7023,"couplingDegree":0.7141,"level":"良好协调","road_density":32.2013,"walk_accessibility":0.655,"metro_line_density":4.7849,"station_count":3,"line_count":2,"population_density":77864.0541,"poi_density":0.0,"poi_diversity":0.0,"gdp_density":7214.5258,"P":77864.0541,"I":0.0,"G":7214.5258},{"stationName":"广州烈士陵园(地铁站)","station_id":"广州烈士陵园(地铁站)_23.12867_113.28080","lineId":"广州地铁12号线 / 广州地铁1号线","lat":23.12866966,"lon":113.28079735,"area_km2":2.9241,"D":0.5963,"C":0.9636,"T":0.369,"U1":0.4677,"U2":0.2704,"couplingDegree":0.5963,"level":"勉强协调","road_density":34.1382,"walk_accessibility":0.5863,"metro_line_density":6.8814,"station_count":3,"line_count":3,"population_density":72588.3701,"poi_density":0.0,"poi_diversity":0.0,"gdp_density":0.0,"P":72588.3701,"I":0.0,"G":0.0},{"stationName":"广州东山口(地铁站)","station_id":"广州东山口(地铁站)_23.12652_113.29043","lineId":"广州地铁1号线 / 广州地铁6号线","lat":23.126521175,"lon":113.2904276,"area_km2":3.0671,"D":0.5858,"C":0.9889,"T":0.3471,"U1":0.3987,"U2":0.2954,"couplingDegree":0.5858,"level":"勉强协调","road_density":30.7666,"walk_accessibility":0.6149,"metro_line_density":7.5123,"station_count":2,"line_count":3,"population_density":79308.2758,"poi_density":0.0,"poi_diversity":0.0,"gdp_density":0.0,"P":79308.2758,"I":0.0,"G":0.0},{"stationName":"广州杨箕(地铁站)","station_id":"广州杨箕(地铁站)_23.13014_113.30283","lineId":"广州地铁1号线 / 广州地铁5号线","lat":23.130141115,"lon":113.30282725500001,"area_km2":2.2657,"D":0.5112,"C":0.9964,"T":0.2622,"U1":0.2845,"U2":0.24,"couplingDegree":0.5112,"level":"勉强协调","road_density":38.3154,"walk_accessibility":0.4543,"metro_line_density":9.104,"station_count":1,"line_count":2,"population_density":64434.858,"poi_density":0.0,"poi_diversity":0.0,"gdp_density":0.0,"P":64434.858,"I":0.0,"G":0.0},{"stationName":"广州体育西路(地铁站)","station_id":"广州体育西路(地铁站)_23.13542_113.31711","lineId":"广州地铁10号线 / 广州地铁1号线","lat":23.135422016666666,"lon":113.31710547333334,"area_km2":2.8779,"D":0.6906,"C":0.9864,"T":0.4834,"U1":0.4041,"U2":0.5628,"couplingDegree":0.6906,"level":"良好协调","road_density":45.0716,"walk_accessibility":0.577,"metro_line_density":9.8035,"station_count":2,"line_count":2,"population_density":26178.4753,"poi_density":0.0,"poi_diversity":0.0,"gdp_density":8141.8515,"P":26178.4753,"I":0.0,"G":8141.8515},{"stationName":"广州体育中心(地铁站)","station_id":"广州体育中心(地铁站)_23.13715_113.32295","lineId":"广州地铁1号线","lat":23.13715107,"lon":113.32294731,"area_km2":3.1275,"D":0.6783,"C":0.9789,"T":0.4701,"U1":0.3739,"U2":0.5663,"couplingDegree":0.6783,"level":"良好协调","road_density":41.9356,"walk_accessibility":0.6271,"metro_line_density":7.9619,"station_count":2,"line_count":2,"population_density":37074.5592,"poi_density":0.0,"poi_diversity":0.0,"gdp_density":7492.1062,"P":37074.5592,"I":0.0,"G":7492.1062},{"stationName":"广州广州东站(地铁站)","station_id":"广州广州东站(地铁站)_23.15339_113.31958","lineId":"广州地铁11号线 / 广州地铁18号线 / 广州地铁1号线 / 广州地铁3号线","lat":23.1533919375,"lon":113.3195788075,"area_km2":1.5228,"D":0.4828,"C":0.8873,"T":0.2627,"U1":0.3839,"U2":0.1415,"couplingDegree":0.4828,"level":"勉强协调","road_density":34.2442,"walk_accessibility":0.3053,"metro_line_density":8.5864,"station_count":1,"line_count":4,"population_density":37994.1625,"poi_density":0.0,"poi_diversity":0.0,"gdp_density":0.0,"P":37994.1625,"I":0.0,"G":0.0},{"stationName":"广州广州南站(地铁站)","station_id":"广州广州南站(地铁站)_22.99152_113.26361","lineId":"广州地铁2号线 / 广州地铁7号线","lat":22.991516100000002,"lon":113.26360775,"area_km2":1.6,"D":0.5112,"C":0.9846,"T":0.2655,"U1":0.219,"U2":0.3119,"couplingDegree":0.5112,"level":"勉强协调","road_density":30.0987,"walk_accessibility":0.3208,"metro_line_density":2.7638,"station_count":2,"line_count":2,"population_density":227.4956,"poi_density":0.0,"poi_diversity":0.0,"gdp_density":5443.1399,"P":227.4956,"I":0.0,"G":5443.1399},{"stationName":"广州石壁(地铁站)","station_id":"广州石壁(地铁站)_22.99687_113.27331","lineId":"广州地铁2号线 / 广州地铁7号线","lat":22.996867006666665,"lon":113.27331355000001,"area_km2":1.477,"D":0.1068,"C":0.111,"T":0.1028,"U1":0.2051,"U2":0.0006,"couplingDegree":0.1068,"level":"极度失调","road_density":29.1067,"walk_accessibility":0.2961,"metro_line_density":2.2522,"station_count":2,"line_count":2,"population_density":170.6122,"poi_density":0.0,"poi_diversity":0.0,"gdp_density":0.0,"P":170.6122,"I":0.0,"G":0.0},{"stationName":"广州会江(地铁站)","station_id":"广州会江(地铁站)_23.01575_113.28105","lineId":"广州地铁2号线","lat":23.01575206,"lon":113.28104841,"area_km2":1.5662,"D":0.0759,"C":0.232,"T":0.0248,"U1":0.049,"U2":0.0007,"couplingDegree":0.0759,"level":"极度失调","road_density":26.7174,"walk_accessibility":0.314,"metro_line_density":1.5746,"station_count":1,"line_count":1,"population_density":181.9662,"poi_density":0.0,"poi_diversity":0.0,"gdp_density":0.0,"P":181.9662,"I":0.0,"G":0.0},{"stationName":"广州南浦(地铁站)","station_id":"广州南浦(地铁站)_23.03562_113.28780","lineId":"广州地铁2号线","lat":23.03561612,"lon":113.28779802,"area_km2":2.0582,"D":0.12,"C":0.2232,"T":0.0646,"U1":0.1275,"U2":0.0016,"couplingDegree":0.12,"level":"极度失调","road_density":22.079,"walk_accessibility":0.4127,"metro_line_density":2.2901,"station_count":2,"line_count":1,"population_density":437.2666,"poi_density":0.0,"poi_diversity":0.0,"gdp_density":0.0,"P":437.2666,"I":0.0,"G":0.0},{"stationName":"广州洛溪(地铁站)","station_id":"广州洛溪(地铁站)_23.04557_113.29330","lineId":"广州地铁2号线","lat":23.04557025,"lon":113.29329905,"area_km2":2.2862,"D":0.4268,"C":0.9525,"T":0.1912,"U1":0.133,"U2":0.2494,"couplingDegree":0.4268,"level":"勉强协调","road_density":23.4802,"walk_accessibility":0.4584,"metro_line_density":1.9207,"station_count":2,"line_count":1,"population_density":375.2924,"poi_density":0.0,"poi_diversity":0.0,"gdp_density":4339.9373,"P":375.2924,"I":0.0,"G":4339.9373},{"stationName":"广州南洲(地铁站)","station_id":"广州南洲(地铁站)_23.06705_113.29228","lineId":"广州地铁2号线 / 广州广州广佛线(新城东--沥滘)","lat":23.067046689999998,"lon":113.29228402999999,"area_km2":2.0158,"D":0.3398,"C":0.6183,"T":0.1868,"U1":0.3336,"U2":0.04,"couplingDegree":0.3398,"level":"中度失调","road_density":28.7488,"walk_accessibility":0.4042,"metro_line_density":5.4052,"station_count":2,"line_count":3,"population_density":10732.9215,"poi_density":0.0,"poi_diversity":0.0,"gdp_density":0.0,"P":10732.9215,"I":0.0,"G":0.0},{"stationName":"广州东晓南(地铁站)","station_id":"广州东晓南(地铁站)_23.07382_113.28831","lineId":"广州地铁10号线 / 广州地铁2号线","lat":23.073824185,"lon":113.288305735,"area_km2":2.4767,"D":0.6805,"C":0.9501,"T":0.4874,"U1":0.3354,"U2":0.6395,"couplingDegree":0.6805,"level":"良好协调","road_density":26.7811,"walk_accessibility":0.4966,"metro_line_density":5.1268,"station_count":2,"line_count":3,"population_density":28181.7868,"poi_density":0.0,"poi_diversity":0.0,"gdp_density":9353.3405,"P":28181.7868,"I":0.0,"G":9353.3405},{"stationName":"广州江泰路(地铁站)","station_id":"广州江泰路(地铁站)_23.08473_113.27448","lineId":"广州地铁11号线 / 广州地铁2号线","lat":23.084725855000002,"lon":113.27447567,"area_km2":1.8654,"D":0.3695,"C":0.9025,"T":0.1512,"U1":0.2164,"U2":0.0861,"couplingDegree":0.3695,"level":"中度失调","road_density":24.5891,"walk_accessibility":0.374,"metro_line_density":3.3721,"station_count":2,"line_count":2,"population_density":23118.7505,"poi_density":0.0,"poi_diversity":0.0,"gdp_density":0.0,"P":23118.7505,"I":0.0,"G":0.0},{"stationName":"广州昌岗(地铁站)","station_id":"广州昌岗(地铁站)_23.09278_113.27177","lineId":"广州地铁2号线","lat":23.092775465000003,"lon":113.271770785,"area_km2":2.862,"D":0.4414,"C":0.9008,"T":0.2163,"U1":0.3102,"U2":0.1223,"couplingDegree":0.4414,"level":"勉强协调","road_density":28.3273,"walk_accessibility":0.5738,"metro_line_density":2.2543,"station_count":3,"line_count":2,"population_density":32842.9369,"poi_density":0.0,"poi_diversity":0.0,"gdp_density":0.0,"P":32842.9369,"I":0.0,"G":0.0},{"stationName":"广州江南西(地铁站)","station_id":"广州江南西(地铁站)_23.09990_113.26858","lineId":"广州地铁2号线","lat":23.09989636,"lon":113.26858341,"area_km2":3.0765,"D":0.6127,"C":0.9186,"T":0.4087,"U1":0.2471,"U2":0.5702,"couplingDegree":0.6127,"level":"良好协调","road_density":30.9584,"walk_accessibility":0.6168,"metro_line_density":1.7326,"station_count":3,"line_count":1,"population_density":35714.1187,"poi_density":0.0,"poi_diversity":0.0,"gdp_density":7649.4681,"P":35714.1187,"I":0.0,"G":7649.4681},{"stationName":"广州市二宫(地铁站)","station_id":"广州市二宫(地铁站)_23.10868_113.26456","lineId":"广州地铁2号线","lat":23.10867898,"lon":113.26455869,"area_km2":2.8643,"D":0.6783,"C":0.9353,"T":0.4918,"U1":0.3178,"U2":0.6659,"couplingDegree":0.6783,"level":"良好协调","road_density":31.105,"walk_accessibility":0.5743,"metro_line_density":2.1328,"station_count":3,"line_count":2,"population_density":52701.3483,"poi_density":0.0,"poi_diversity":0.0,"gdp_density":8216.3678,"P":52701.3483,"I":0.0,"G":8216.3678},{"stationName":"广州海珠广场(地铁站)","station_id":"广州海珠广场(地铁站)_23.11743_113.26044","lineId":"广州地铁2号线 / 广州地铁6号线","lat":23.117431815000003,"lon":113.26044308499999,"area_km2":3.1122,"D":0.5344,"C":0.9475,"T":0.3014,"U1":0.3978,"U2":0.205,"couplingDegree":0.5344,"level":"勉强协调","road_density":27.0237,"walk_accessibility":0.624,"metro_line_density":3.3055,"station_count":3,"line_count":3,"population_density":55024.627,"poi_density":0.0,"poi_diversity":0.0,"gdp_density":0.0,"P":55024.627,"I":0.0,"G":0.0},{"stationName":"广州纪念堂(地铁站)","station_id":"广州纪念堂(地铁站)_23.13473_113.25708","lineId":"广州地铁13号线 / 广州地铁2号线 / 广州地铁8号线","lat":23.134734716666667,"lon":113.25708422666666,"area_km2":3.0782,"D":0.8079,"C":0.998,"T":0.654,"U1":0.6131,"U2":0.6949,"couplingDegree":0.8079,"level":"优质协调","road_density":32.9765,"walk_accessibility":0.6172,"metro_line_density":7.1913,"station_count":4,"line_count":4,"population_density":69093.502,"poi_density":0.0,"poi_diversity":0.0,"gdp_density":7656.7024,"P":69093.502,"I":0.0,"G":7656.7024},{"stationName":"广州越秀公园(地铁站)","station_id":"广州越秀公园(地铁站)_23.14244_113.25617","lineId":"广州地铁2号线","lat":23.14244166,"lon":113.25617401,"area_km2":2.5829,"D":0.6199,"C":0.8106,"T":0.474,"U1":0.7516,"U2":0.1965,"couplingDegree":0.6199,"level":"良好协调","road_density":34.8451,"walk_accessibility":0.5179,"metro_line_density":7.5763,"station_count":3,"line_count":7,"population_density":52740.5138,"poi_density":0.0,"poi_diversity":0.0,"gdp_density":0.0,"P":52740.5138,"I":0.0,"G":0.0},{"stationName":"广州广州火车站(地铁站)","station_id":"广州广州火车站(地铁站)_23.15084_113.25170","lineId":"广州地铁11号线 / 广州地铁14号线 / 广州地铁22号线 / 广州地铁2号线 / 广州地铁5号线","lat":23.15084483833333,"lon":113.25170346499999,"area_km2":2.3501,"D":0.5883,"C":0.831,"T":0.4165,"U1":0.6481,"U2":0.1848,"couplingDegree":0.5883,"level":"勉强协调","road_density":37.1019,"walk_accessibility":0.4712,"metro_line_density":10.065,"station_count":3,"line_count":5,"population_density":49616.373,"poi_density":0.0,"poi_diversity":0.0,"gdp_density":0.0,"P":49616.373,"I":0.0,"G":0.0},{"stationName":"广州三元里(地铁站)","station_id":"广州三元里(地铁站)_23.16207_113.25152","lineId":"广州地铁2号线","lat":23.1620706,"lon":113.25152331,"area_km2":1.9886,"D":0.6047,"C":0.8555,"T":0.4274,"U1":0.6487,"U2":0.2061,"couplingDegree":0.6047,"level":"良好协调","road_density":36.5183,"walk_accessibility":0.3987,"metro_line_density":10.9188,"station_count":3,"line_count":5,"population_density":55328.1197,"poi_density":0.0,"poi_diversity":0.0,"gdp_density":0.0,"P":55328.1197,"I":0.0,"G":0.0},{"stationName":"广州飞翔公园(地铁站)","station_id":"广州飞翔公园(地铁站)_23.17149_113.25830","lineId":"广州地铁2号线","lat":23.1714946,"lon":113.2583034,"area_km2":1.3297,"D":0.4227,"C":0.9963,"T":0.1793,"U1":0.1947,"U2":0.1639,"couplingDegree":0.4227,"level":"勉强协调","road_density":28.7009,"walk_accessibility":0.2666,"metro_line_density":6.8069,"station_count":2,"line_count":1,"population_density":44013.3927,"poi_density":0.0,"poi_diversity":0.0,"gdp_density":0.0,"P":44013.3927,"I":0.0,"G":0.0},{"stationName":"广州白云公园(地铁站)","station_id":"广州白云公园(地铁站)_23.18426_113.26563","lineId":"广州地铁2号线","lat":23.1842649,"lon":113.26562739,"area_km2":2.0487,"D":0.3222,"C":0.7513,"T":0.1382,"U1":0.2294,"U2":0.047,"couplingDegree":0.3222,"level":"中度失调","road_density":28.7257,"walk_accessibility":0.4108,"metro_line_density":2.9697,"station_count":2,"line_count":2,"population_density":12616.4011,"poi_density":0.0,"poi_diversity":0.0,"gdp_density":0.0,"P":12616.4011,"I":0.0,"G":0.0},{"stationName":"广州白云文化广场(地铁站)","station_id":"广州白云文化广场(地铁站)_23.19388_113.27084","lineId":"广州地铁12号线 / 广州地铁2号线","lat":23.193875730000002,"lon":113.27084250499999,"area_km2":1.8818,"D":0.6892,"C":0.9257,"T":0.5131,"U1":0.3191,"U2":0.7071,"couplingDegree":0.6892,"level":"良好协调","road_density":29.5813,"walk_accessibility":0.3773,"metro_line_density":4.4171,"station_count":3,"line_count":2,"population_density":683.3877,"poi_density":0.0,"poi_diversity":0.0,"gdp_density":12328.9361,"P":683.3877,"I":0.0,"G":12328.9361},{"stationName":"广州萧岗(地铁站)","station_id":"广州萧岗(地铁站)_23.20122_113.27535","lineId":"广州地铁2号线","lat":23.20121738,"lon":113.27534695,"area_km2":1.6302,"D":0.2878,"C":0.6301,"T":0.1314,"U1":0.2335,"U2":0.0294,"couplingDegree":0.2878,"level":"中度失调","road_density":31.1829,"walk_accessibility":0.3269,"metro_line_density":3.4677,"station_count":2,"line_count":2,"population_density":7886.7602,"poi_density":0.0,"poi_diversity":0.0,"gdp_density":0.0,"P":7886.7602,"I":0.0,"G":0.0},{"stationName":"广州江夏(地铁站)","station_id":"广州江夏(地铁站)_23.21393_113.27810","lineId":"广州地铁2号线","lat":23.21393056,"lon":113.27809704,"area_km2":1.9634,"D":0.1396,"C":0.2407,"T":0.081,"U1":0.1596,"U2":0.0024,"couplingDegree":0.1396,"level":"极度失调","road_density":33.4297,"walk_accessibility":0.3937,"metro_line_density":2.0582,"station_count":2,"line_count":1,"population_density":639.189,"poi_density":0.0,"poi_diversity":0.0,"gdp_density":0.0,"P":639.189,"I":0.0,"G":0.0},{"stationName":"广州黄边(地铁站)","station_id":"广州黄边(地铁站)_23.22427_113.28202","lineId":"广州地铁2号线","lat":23.22426556,"lon":113.28201544999999,"area_km2":2.006,"D":0.1746,"C":0.3231,"T":0.0944,"U1":0.1837,"U2":0.0051,"couplingDegree":0.1746,"level":"极度失调","road_density":25.595,"walk_accessibility":0.4022,"metro_line_density":5.493,"station_count":2,"line_count":1,"population_density":1358.893,"poi_density":0.0,"poi_diversity":0.0,"gdp_density":0.0,"P":1358.893,"I":0.0,"G":0.0},{"stationName":"广州嘉禾望岗(地铁站)","station_id":"广州嘉禾望岗(地铁站)_23.24006_113.28373","lineId":"广州地铁14号线 / 广州地铁2号线","lat":23.24006153,"lon":113.28373465,"area_km2":1.81,"D":0.1562,"C":0.3285,"T":0.0742,"U1":0.1443,"U2":0.0041,"couplingDegree":0.1562,"level":"极度失调","road_density":23.7737,"walk_accessibility":0.3629,"metro_line_density":3.5644,"station_count":1,"line_count":2,"population_density":1106.0493,"poi_density":0.0,"poi_diversity":0.0,"gdp_density":0.0,"P":1106.0493,"I":0.0,"G":0.0},{"stationName":"广州南庄(地铁站)","station_id":"广州南庄(地铁站)_22.98568_113.00127","lineId":"广州地铁2号线","lat":22.9856765,"lon":113.00126738,"area_km2":1.0821,"D":0.0,"C":0.0,"T":0.0103,"U1":0.0207,"U2":0.0,"couplingDegree":0.0,"level":"极度失调","road_density":18.5412,"walk_accessibility":0.2169,"metro_line_density":2.414,"station_count":1,"line_count":1,"population_density":0.0,"poi_density":0.0,"poi_diversity":0.0,"gdp_density":0.0,"P":0.0,"I":0.0,"G":0.0},{"stationName":"广州湖涌(地铁站)","station_id":"广州湖涌(地铁站)_23.00587_113.00606","lineId":"广州地铁2号线","lat":23.00586621,"lon":113.00605872,"area_km2":1.522,"D":0.0,"C":0.0,"T":0.0178,"U1":0.0356,"U2":0.0,"couplingDegree":0.0,"level":"极度失调","road_density":24.7763,"walk_accessibility":0.3052,"metro_line_density":1.172,"station_count":1,"line_count":1,"population_density":0.0,"poi_density":0.0,"poi_diversity":0.0,"gdp_density":0.0,"P":0.0,"I":0.0,"G":0.0},{"stationName":"广州绿岛湖(地铁站)","station_id":"广州绿岛湖(地铁站)_23.00462_113.02886","lineId":"广州地铁2号线","lat":23.00462025,"lon":113.02886193,"area_km2":1.4413,"D":0.0,"C":0.0,"T":0.0252,"U1":0.0504,"U2":0.0,"couplingDegree":0.0,"level":"极度失调","road_density":19.8971,"walk_accessibility":0.289,"metro_line_density":3.5049,"station_count":1,"line_count":1,"population_density":0.0,"poi_density":0.0,"poi_diversity":0.0,"gdp_density":0.0,"P":0.0,"I":0.0,"G":0.0},{"stationName":"广州智慧新城(地铁站)","station_id":"广州智慧新城(地铁站)_23.01375_113.04998","lineId":"广州地铁2号线","lat":23.01375057,"lon":113.04998269,"area_km2":1.4739,"D":0.0,"C":0.0,"T":0.0354,"U1":0.0708,"U2":0.0,"couplingDegree":0.0,"level":"极度失调","road_density":25.7561,"walk_accessibility":0.2955,"metro_line_density":3.4949,"station_count":1,"line_count":1,"population_density":0.0,"poi_density":0.0,"poi_diversity":0.0,"gdp_density":0.0,"P":0.0,"I":0.0,"G":0.0},{"stationName":"广州张槎(地铁站)","station_id":"广州张槎(地铁站)_23.01360_113.06229","lineId":"广州地铁2号线","lat":23.01360472,"lon":113.06228855,"area_km2":1.9482,"D":0.0,"C":0.0,"T":0.0356,"U1":0.0713,"U2":0.0,"couplingDegree":0.0,"level":"极度失调","road_density":25.3071,"walk_accessibility":0.3906,"metro_line_density":2.7477,"station_count":1,"line_count":1,"population_density":0.0,"poi_density":0.0,"poi_diversity":0.0,"gdp_density":0.0,"P":0.0,"I":0.0,"G":0.0},{"stationName":"广州石湾(地铁站)","station_id":"广州石湾(地铁站)_23.00785_113.07781","lineId":"广州地铁2号线","lat":23.00785134,"lon":113.07780596,"area_km2":1.8673,"D":0.0,"C":0.0,"T":0.0279,"U1":0.0559,"U2":0.0,"couplingDegree":0.0,"level":"极度失调","road_density":21.9283,"walk_accessibility":0.3744,"metro_line_density":2.6126,"station_count":1,"line_count":1,"population_density":0.0,"poi_density":0.0,"poi_diversity":0.0,"gdp_density":0.0,"P":0.0,"I":0.0,"G":0.0},{"stationName":"广州沙岗(地铁站)","station_id":"广州沙岗(地铁站)_22.99907_113.08876","lineId":"广州地铁2号线","lat":22.99907018,"lon":113.08876009,"area_km2":1.9,"D":0.0,"C":0.0,"T":0.0321,"U1":0.0641,"U2":0.0,"couplingDegree":0.0,"level":"极度失调","road_density":23.4604,"walk_accessibility":0.3809,"metro_line_density":2.7693,"station_count":1,"line_count":1,"population_density":0.0,"poi_density":0.0,"poi_diversity":0.0,"gdp_density":0.0,"P":0.0,"I":0.0,"G":0.0},{"stationName":"广州魁奇路(地铁站)","station_id":"广州魁奇路(地铁站)_22.99634_113.10313","lineId":"广州地铁2号线","lat":22.99634112,"lon":113.10312806,"area_km2":2.4573,"D":0.0,"C":0.0,"T":0.0852,"U1":0.1704,"U2":0.0,"couplingDegree":0.0,"level":"极度失调","road_density":24.125,"walk_accessibility":0.4927,"metro_line_density":4.0608,"station_count":2,"line_count":1,"population_density":0.0,"poi_density":0.0,"poi_diversity":0.0,"gdp_density":0.0,"P":0.0,"I":0.0,"G":0.0},{"stationName":"广州石梁(地铁站)","station_id":"广州石梁(地铁站)_22.99525_113.11326","lineId":"广州地铁2号线","lat":22.99525313,"lon":113.1132637,"area_km2":2.0501,"D":0.0,"C":0.0,"T":0.0692,"U1":0.1384,"U2":0.0,"couplingDegree":0.0,"level":"极度失调","road_density":22.3121,"walk_accessibility":0.411,"metro_line_density":3.0104,"station_count":2,"line_count":1,"population_density":0.0,"poi_density":0.0,"poi_diversity":0.0,"gdp_density":0.0,"P":0.0,"I":0.0,"G":0.0},{"stationName":"广州湾华(地铁站)","station_id":"广州湾华(地铁站)_22.99445_113.12618","lineId":"广州地铁2号线","lat":22.99444635,"lon":113.12617985,"area_km2":2.0562,"D":0.0,"C":0.0,"T":0.0292,"U1":0.0584,"U2":0.0,"couplingDegree":0.0,"level":"极度失调","road_density":21.5916,"walk_accessibility":0.4123,"metro_line_density":2.5123,"station_count":1,"line_count":1,"population_density":0.0,"poi_density":0.0,"poi_diversity":0.0,"gdp_density":0.0,"P":0.0,"I":0.0,"G":0.0},{"stationName":"广州登洲(地铁站)","station_id":"广州登洲(地铁站)_22.98190_113.14333","lineId":"广州地铁2号线","lat":22.98190002,"lon":113.14333221,"area_km2":2.007,"D":0.0,"C":0.0,"T":0.0295,"U1":0.0589,"U2":0.0,"couplingDegree":0.0,"level":"极度失调","road_density":23.4823,"walk_accessibility":0.4024,"metro_line_density":2.1999,"station_count":1,"line_count":1,"population_density":0.0,"poi_density":0.0,"poi_diversity":0.0,"gdp_density":0.0,"P":0.0,"I":0.0,"G":0.0},{"stationName":"广州花卉世界(地铁站)","station_id":"广州花卉世界(地铁站)_22.97602_113.15593","lineId":"广州地铁2号线","lat":22.97602016,"lon":113.15592703,"area_km2":2.0796,"D":0.0,"C":0.0,"T":0.0242,"U1":0.0485,"U2":0.0,"couplingDegree":0.0,"level":"极度失调","road_density":20.0667,"walk_accessibility":0.417,"metro_line_density":2.1333,"station_count":1,"line_count":1,"population_density":0.0,"poi_density":0.0,"poi_diversity":0.0,"gdp_density":0.0,"P":0.0,"I":0.0,"G":0.0},{"stationName":"广州仙涌(地铁站)","station_id":"广州仙涌(地铁站)_22.98570_113.19290","lineId":"广州地铁2号线","lat":22.9857025,"lon":113.19289673,"area_km2":1.92,"D":0.0,"C":0.0,"T":0.0255,"U1":0.0509,"U2":0.0,"couplingDegree":0.0,"level":"极度失调","road_density":20.6115,"walk_accessibility":0.3849,"metro_line_density":2.4744,"station_count":1,"line_count":1,"population_density":0.0,"poi_density":0.0,"poi_diversity":0.0,"gdp_density":0.0,"P":0.0,"I":0.0,"G":0.0},{"stationName":"广州石洲(地铁站)","station_id":"广州石洲(地铁站)_22.99331_113.21080","lineId":"广州地铁2号线","lat":22.99331114,"lon":113.21079849,"area_km2":2.0754,"D":0.0,"C":0.0,"T":0.0249,"U1":0.0497,"U2":0.0,"couplingDegree":0.0,"level":"极度失调","road_density":19.0232,"walk_accessibility":0.4161,"metro_line_density":2.4703,"station_count":1,"line_count":1,"population_density":0.0,"poi_density":0.0,"poi_diversity":0.0,"gdp_density":0.0,"P":0.0,"I":0.0,"G":0.0},{"stationName":"广州林岳西(地铁站)","station_id":"广州林岳西(地铁站)_22.99648_113.23184","lineId":"广州地铁2号线","lat":22.99647914,"lon":113.231844905,"area_km2":1.7857,"D":0.0,"C":0.0,"T":0.0346,"U1":0.0693,"U2":0.0,"couplingDegree":0.0,"level":"极度失调","road_density":23.8314,"walk_accessibility":0.358,"metro_line_density":3.2549,"station_count":1,"line_count":1,"population_density":0.0,"poi_density":0.0,"poi_diversity":0.0,"gdp_density":0.0,"P":0.0,"I":0.0,"G":0.0},{"stationName":"广州林岳东(2号线)(地铁站)","station_id":"广州林岳东(2号线)(地铁站)_22.99665_113.24438","lineId":"广州地铁2号线","lat":22.99664607,"lon":113.24437798,"area_km2":0.9744,"D":0.0,"C":0.0,"T":0.0468,"U1":0.0935,"U2":0.0,"couplingDegree":0.0,"level":"极度失调","road_density":29.1435,"walk_accessibility":0.1954,"metro_line_density":5.2301,"station_count":1,"line_count":1,"population_density":0.0,"poi_density":0.0,"poi_diversity":0.0,"gdp_density":0.0,"P":0.0,"I":0.0,"G":0.0}]}