{"cityCode":"510100","year":2023,"stations":[{"stationName":"成都韦家碾(地铁站)","station_id":"成都韦家碾(地铁站)_30.72083_104.08385","lineId":"成都地铁1号线 / 成都成都S11号线(德阳线)(韦家碾--德阳北站)","lat":30.72082873,"lon":104.08385342,"area_km2":1.6505,"D":0.2094,"C":0.4757,"T":0.0922,"U1":0.1733,"U2":0.0111,"couplingDegree":0.2094,"level":"中度失调","road_density":27.2158,"walk_accessibility":0.3309,"metro_line_density":3.2387,"station_count":1,"line_count":2,"population_density":5755.3468,"poi_density":0.6059,"poi_diversity":0.0,"gdp_density":0.0,"P":5755.3468,"I":0.6059,"G":0.0},{"stationName":"成都升仙湖(地铁站)","station_id":"成都升仙湖(地铁站)_30.70701_104.08094","lineId":"成都地铁1号线","lat":30.70700627,"lon":104.08093818,"area_km2":1.1795,"D":0.0,"C":0.0,"T":0.0258,"U1":0.0517,"U2":0.0,"couplingDegree":0.0,"level":"极度失调","road_density":23.8426,"walk_accessibility":0.2365,"metro_line_density":3.6751,"station_count":1,"line_count":1,"population_density":0.0,"poi_density":0.0,"poi_diversity":0.0,"gdp_density":0.0,"P":0.0,"I":0.0,"G":0.0},{"stationName":"成都火车北站(地铁站)","station_id":"成都火车北站(地铁站)_30.69790_104.07152","lineId":"成都地铁18号线 / 成都地铁1号线","lat":30.697896765,"lon":104.07152233,"area_km2":1.4845,"D":0.6109,"C":0.8472,"T":0.4405,"U1":0.6745,"U2":0.2065,"couplingDegree":0.6109,"level":"良好协调","road_density":25.5147,"walk_accessibility":0.2976,"metro_line_density":7.746,"station_count":4,"line_count":5,"population_density":58509.6011,"poi_density":4.7155,"poi_diversity":1.7479,"gdp_density":0.0,"P":58509.6011,"I":4.7155,"G":0.0},{"stationName":"成都人民北路(地铁站)","station_id":"成都人民北路(地铁站)_30.68776_104.07003","lineId":"成都地铁1号线 / 成都地铁6号线","lat":30.687759030000002,"lon":104.07002592500001,"area_km2":1.984,"D":0.7893,"C":0.9495,"T":0.6561,"U1":0.862,"U2":0.4503,"couplingDegree":0.7893,"level":"良好协调","road_density":18.2711,"walk_accessibility":0.3978,"metro_line_density":13.6863,"station_count":5,"line_count":6,"population_density":90686.1586,"poi_density":28.7299,"poi_diversity":2.6728,"gdp_density":0.0,"P":90686.1586,"I":28.7299,"G":0.0},{"stationName":"成都文殊院(地铁站)","station_id":"成都文殊院(地铁站)_30.67495_104.06552","lineId":"成都地铁1号线","lat":30.67494641,"lon":104.06552465,"area_km2":3.0021,"D":0.6535,"C":0.9984,"T":0.4277,"U1":0.4516,"U2":0.4038,"couplingDegree":0.6535,"level":"良好协调","road_density":22.1907,"walk_accessibility":0.6019,"metro_line_density":6.8563,"station_count":4,"line_count":3,"population_density":44969.9013,"poi_density":30.6455,"poi_diversity":2.6741,"gdp_density":0.0,"P":44969.9013,"I":30.6455,"G":0.0},{"stationName":"成都骡马市(地铁站)","station_id":"成都骡马市(地铁站)_30.66919_104.06343","lineId":"成都地铁1号线 / 成都地铁4号线","lat":30.669185919999997,"lon":104.06343204000001,"area_km2":3.106,"D":0.7285,"C":0.931,"T":0.5701,"U1":0.7782,"U2":0.3619,"couplingDegree":0.7285,"level":"良好协调","road_density":23.4212,"walk_accessibility":0.6227,"metro_line_density":7.5328,"station_count":6,"line_count":5,"population_density":47411.8329,"poi_density":24.1472,"poi_diversity":2.5916,"gdp_density":0.0,"P":47411.8329,"I":24.1472,"G":0.0},{"stationName":"成都天府广场(地铁站)","station_id":"成都天府广场(地铁站)_30.65956_104.06338","lineId":"成都地铁1号线","lat":30.65956312,"lon":104.06338318,"area_km2":3.3311,"D":0.7521,"C":0.967,"T":0.585,"U1":0.734,"U2":0.436,"couplingDegree":0.7521,"level":"良好协调","road_density":25.6197,"walk_accessibility":0.6679,"metro_line_density":6.8245,"station_count":5,"line_count":5,"population_density":57435.879,"poi_density":31.2209,"poi_diversity":2.8912,"gdp_density":0.0,"P":57435.879,"I":31.2209,"G":0.0},{"stationName":"成都锦江宾馆(地铁站)","station_id":"成都锦江宾馆(地铁站)_30.65247_104.06355","lineId":"成都地铁1号线","lat":30.65247035,"lon":104.06354593,"area_km2":3.048,"D":0.7065,"C":0.9766,"T":0.5111,"U1":0.621,"U2":0.4011,"couplingDegree":0.7065,"level":"良好协调","road_density":26.3841,"walk_accessibility":0.6111,"metro_line_density":7.2333,"station_count":5,"line_count":4,"population_density":27236.629,"poi_density":31.8246,"poi_diversity":2.8901,"gdp_density":0.0,"P":27236.629,"I":31.8246,"G":0.0},{"stationName":"成都华西坝(地铁站)","station_id":"成都华西坝(地铁站)_30.64567_104.06370","lineId":"成都地铁13号线 / 成都地铁1号线","lat":30.64567355,"lon":104.06369502999999,"area_km2":2.7431,"D":0.684,"C":0.9425,"T":0.4964,"U1":0.6622,"U2":0.3305,"couplingDegree":0.684,"level":"良好协调","road_density":24.3383,"walk_accessibility":0.55,"metro_line_density":7.5163,"station_count":6,"line_count":4,"population_density":39239.2126,"poi_density":18.2272,"poi_diversity":2.8576,"gdp_density":0.0,"P":39239.2126,"I":18.2272,"G":0.0},{"stationName":"成都省体育馆(地铁站)","station_id":"成都省体育馆(地铁站)_30.63588_104.06363","lineId":"成都地铁1号线 / 成都地铁3号线","lat":30.63587763,"lon":104.06363431,"area_km2":2.9869,"D":0.6637,"C":0.9144,"T":0.4817,"U1":0.6767,"U2":0.2867,"couplingDegree":0.6637,"level":"良好协调","road_density":23.5813,"walk_accessibility":0.5989,"metro_line_density":6.0711,"station_count":4,"line_count":5,"population_density":24238.6116,"poi_density":12.3873,"poi_diversity":3.0531,"gdp_density":0.0,"P":24238.6116,"I":12.3873,"G":0.0},{"stationName":"成都倪家桥(地铁站)","station_id":"成都倪家桥(地铁站)_30.62727_104.06399","lineId":"成都地铁18号线 / 成都地铁1号线 / 成都地铁8号线","lat":30.627269593333335,"lon":104.06398988333335,"area_km2":3.0066,"D":0.6318,"C":0.94,"T":0.4247,"U1":0.5697,"U2":0.2798,"couplingDegree":0.6318,"level":"良好协调","road_density":26.3134,"walk_accessibility":0.6028,"metro_line_density":6.4117,"station_count":4,"line_count":4,"population_density":16247.4383,"poi_density":18.9581,"poi_diversity":2.4168,"gdp_density":0.0,"P":16247.4383,"I":18.9581,"G":0.0},{"stationName":"成都桐梓林(地铁站)","station_id":"成都桐梓林(地铁站)_30.61775_104.06461","lineId":"成都地铁1号线","lat":30.61774792,"lon":104.06460685,"area_km2":2.6405,"D":0.5975,"C":0.9358,"T":0.3815,"U1":0.5159,"U2":0.247,"couplingDegree":0.5975,"level":"勉强协调","road_density":27.1106,"walk_accessibility":0.5294,"metro_line_density":5.5028,"station_count":3,"line_count":4,"population_density":15024.9466,"poi_density":14.3913,"poi_diversity":2.3664,"gdp_density":0.0,"P":15024.9466,"I":14.3913,"G":0.0},{"stationName":"成都火车南站(地铁站)","station_id":"成都火车南站(地铁站)_30.60723_104.06476","lineId":"成都地铁18号线 / 成都地铁1号线 / 成都地铁7号线","lat":30.60723415,"lon":104.064760252,"area_km2":2.51,"D":0.5738,"C":0.9525,"T":0.3456,"U1":0.4509,"U2":0.2404,"couplingDegree":0.5738,"level":"勉强协调","road_density":30.1828,"walk_accessibility":0.5032,"metro_line_density":5.3094,"station_count":4,"line_count":3,"population_density":11072.7285,"poi_density":10.7572,"poi_diversity":2.7217,"gdp_density":0.0,"P":11072.7285,"I":10.7572,"G":0.0},{"stationName":"成都高新(地铁站)","station_id":"成都高新(地铁站)_30.59682_104.06135","lineId":"成都地铁1号线","lat":30.59681777,"lon":104.06134696,"area_km2":3.108,"D":0.5618,"C":0.8956,"T":0.3524,"U1":0.5092,"U2":0.1957,"couplingDegree":0.5618,"level":"勉强协调","road_density":29.8077,"walk_accessibility":0.6232,"metro_line_density":2.773,"station_count":3,"line_count":4,"population_density":8080.3324,"poi_density":7.4002,"poi_diversity":2.3785,"gdp_density":0.0,"P":8080.3324,"I":7.4002,"G":0.0},{"stationName":"成都金融城(地铁站)","station_id":"成都金融城(地铁站)_30.58503_104.06165","lineId":"成都地铁1号线","lat":30.58503344,"lon":104.06164534,"area_km2":2.7404,"D":0.4573,"C":0.9556,"T":0.2188,"U1":0.2832,"U2":0.1544,"couplingDegree":0.4573,"level":"勉强协调","road_density":30.0402,"walk_accessibility":0.5494,"metro_line_density":3.6115,"station_count":3,"line_count":2,"population_density":8711.2201,"poi_density":4.379,"poi_diversity":1.9792,"gdp_density":0.0,"P":8711.2201,"I":4.379,"G":0.0},{"stationName":"成都孵化园(地铁站)","station_id":"成都孵化园(地铁站)_30.57818_104.06286","lineId":"成都地铁1号线 / 成都地铁9号线","lat":30.578179115,"lon":104.06286249499999,"area_km2":2.9676,"D":0.4238,"C":0.8343,"T":0.2153,"U1":0.3339,"U2":0.0966,"couplingDegree":0.4238,"level":"勉强协调","road_density":32.4125,"walk_accessibility":0.595,"metro_line_density":3.3401,"station_count":4,"line_count":2,"population_density":5379.8256,"poi_density":1.3479,"poi_diversity":1.3863,"gdp_density":0.0,"P":5379.8256,"I":1.3479,"G":0.0},{"stationName":"成都锦城广场(地铁站)","station_id":"成都锦城广场(地铁站)_30.57018_104.06402","lineId":"成都地铁1号线","lat":30.57017806,"lon":104.06402315,"area_km2":2.2024,"D":0.4703,"C":0.9711,"T":0.2277,"U1":0.2821,"U2":0.1734,"couplingDegree":0.4703,"level":"勉强协调","road_density":37.4084,"walk_accessibility":0.4416,"metro_line_density":2.2433,"station_count":3,"line_count":2,"population_density":1190.0623,"poi_density":6.8107,"poi_diversity":2.2111,"gdp_density":0.0,"P":1190.0623,"I":6.8107,"G":0.0},{"stationName":"成都世纪城(地铁站)","station_id":"成都世纪城(地铁站)_30.55733_104.06642","lineId":"成都地铁1号线","lat":30.55732774,"lon":104.06642126,"area_km2":2.9438,"D":0.3622,"C":0.9921,"T":0.1322,"U1":0.1156,"U2":0.1487,"couplingDegree":0.3622,"level":"中度失调","road_density":30.259,"walk_accessibility":0.5902,"metro_line_density":1.8623,"station_count":2,"line_count":1,"population_density":3540.2802,"poi_density":6.1145,"poi_diversity":1.8131,"gdp_density":0.0,"P":3540.2802,"I":6.1145,"G":0.0},{"stationName":"成都天府三街(地铁站)","station_id":"成都天府三街(地铁站)_30.54866_104.06670","lineId":"成都地铁1号线","lat":30.54866303,"lon":104.0666959,"area_km2":3.1711,"D":0.4963,"C":0.9172,"T":0.2686,"U1":0.1615,"U2":0.3756,"couplingDegree":0.4963,"level":"勉强协调","road_density":29.3473,"walk_accessibility":0.6358,"metro_line_density":1.7032,"station_count":3,"line_count":1,"population_density":4333.4771,"poi_density":5.6762,"poi_diversity":1.8751,"gdp_density":76394.9571,"P":4333.4771,"I":5.6762,"G":76394.9571},{"stationName":"成都天府五街(地铁站)","station_id":"成都天府五街(地铁站)_30.53957_104.06700","lineId":"成都地铁1号线","lat":30.53956871,"lon":104.0670019,"area_km2":2.3727,"D":0.3453,"C":0.9901,"T":0.1204,"U1":0.1035,"U2":0.1373,"couplingDegree":0.3453,"level":"中度失调","road_density":24.8404,"walk_accessibility":0.4757,"metro_line_density":2.3158,"station_count":2,"line_count":1,"population_density":3829.3556,"poi_density":2.9502,"poi_diversity":1.9459,"gdp_density":0.0,"P":3829.3556,"I":2.9502,"G":0.0},{"stationName":"成都华府大道(地铁站)","station_id":"成都华府大道(地铁站)_30.52821_104.06733","lineId":"成都地铁1号线","lat":30.52821079,"lon":104.06732647,"area_km2":1.7385,"D":0.3146,"C":0.9997,"T":0.099,"U1":0.0966,"U2":0.1015,"couplingDegree":0.3146,"level":"中度失调","road_density":21.9298,"walk_accessibility":0.3486,"metro_line_density":3.0561,"station_count":2,"line_count":1,"population_density":4621.708,"poi_density":2.3008,"poi_diversity":1.3863,"gdp_density":0.0,"P":4621.708,"I":2.3008,"G":0.0},{"stationName":"成都四河(地铁站)","station_id":"成都四河(地铁站)_30.51860_104.06762","lineId":"成都地铁1号线","lat":30.51860022,"lon":104.06761676,"area_km2":2.2315,"D":0.1406,"C":0.2662,"T":0.0743,"U1":0.1458,"U2":0.0027,"couplingDegree":0.1406,"level":"极度失调","road_density":22.5903,"walk_accessibility":0.4474,"metro_line_density":2.5681,"station_count":3,"line_count":1,"population_density":2098.5755,"poi_density":0.0,"poi_diversity":0.0,"gdp_density":0.0,"P":2098.5755,"I":0.0,"G":0.0},{"stationName":"成都广都(地铁站)","station_id":"成都广都(地铁站)_30.51322_104.07320","lineId":"成都地铁1号线","lat":30.513215459999998,"lon":104.07319614,"area_km2":2.2549,"D":0.1358,"C":0.2534,"T":0.0728,"U1":0.1432,"U2":0.0024,"couplingDegree":0.1358,"level":"极度失调","road_density":22.5927,"walk_accessibility":0.4521,"metro_line_density":2.0679,"station_count":3,"line_count":1,"population_density":1859.9821,"poi_density":0.0,"poi_diversity":0.0,"gdp_density":0.0,"P":1859.9821,"I":0.0,"G":0.0},{"stationName":"成都五根松(地铁站)","station_id":"成都五根松(地铁站)_30.50450_104.07885","lineId":"成都地铁1号线","lat":30.50450227,"lon":104.0788457,"area_km2":1.8097,"D":0.1366,"C":0.3963,"T":0.0471,"U1":0.0903,"U2":0.0039,"couplingDegree":0.1366,"level":"极度失调","road_density":23.4426,"walk_accessibility":0.3628,"metro_line_density":1.431,"station_count":2,"line_count":1,"population_density":3019.2819,"poi_density":0.0,"poi_diversity":0.0,"gdp_density":0.0,"P":3019.2819,"I":0.0,"G":0.0},{"stationName":"成都龙泉驿(地铁站)","station_id":"成都龙泉驿(地铁站)_30.56272_104.26558","lineId":"成都地铁2号线","lat":30.56272345,"lon":104.26558174,"area_km2":2.6595,"D":0.2696,"C":0.8755,"T":0.083,"U1":0.0429,"U2":0.1231,"couplingDegree":0.2696,"level":"中度失调","road_density":19.6324,"walk_accessibility":0.5332,"metro_line_density":0.8101,"station_count":1,"line_count":1,"population_density":13748.5927,"poi_density":2.256,"poi_diversity":1.5607,"gdp_density":0.0,"P":13748.5927,"I":2.256,"G":0.0},{"stationName":"成都龙平路(地铁站)","station_id":"成都龙平路(地铁站)_30.57554_104.25661","lineId":"成都地铁2号线","lat":30.57553663,"lon":104.25661269,"area_km2":2.0118,"D":0.1548,"C":0.7439,"T":0.0322,"U1":0.0537,"U2":0.0107,"couplingDegree":0.1548,"level":"极度失调","road_density":22.7275,"walk_accessibility":0.4034,"metro_line_density":2.9013,"station_count":1,"line_count":1,"population_density":8364.8451,"poi_density":0.0,"poi_diversity":0.0,"gdp_density":0.0,"P":8364.8451,"I":0.0,"G":0.0},{"stationName":"成都书房(地铁站)","station_id":"成都书房(地铁站)_30.57824_104.23977","lineId":"成都地铁2号线","lat":30.57823786,"lon":104.23976595,"area_km2":1.5713,"D":0.1096,"C":0.4391,"T":0.0274,"U1":0.052,"U2":0.0028,"couplingDegree":0.1096,"level":"极度失调","road_density":21.7449,"walk_accessibility":0.315,"metro_line_density":3.6449,"station_count":1,"line_count":1,"population_density":2177.2412,"poi_density":0.0,"poi_diversity":0.0,"gdp_density":0.0,"P":2177.2412,"I":0.0,"G":0.0},{"stationName":"成都界牌(地铁站)","station_id":"成都界牌(地铁站)_30.58540_104.22276","lineId":"成都地铁2号线","lat":30.58540211,"lon":104.22275954,"area_km2":1.4885,"D":0.2321,"C":0.9997,"T":0.0539,"U1":0.0553,"U2":0.0525,"couplingDegree":0.2321,"level":"中度失调","road_density":23.5996,"walk_accessibility":0.2984,"metro_line_density":3.8199,"station_count":1,"line_count":1,"population_density":845.8272,"poi_density":0.0,"poi_diversity":0.0,"gdp_density":17474.8305,"P":845.8272,"I":0.0,"G":17474.8305},{"stationName":"成都连山坡(地铁站)","station_id":"成都连山坡(地铁站)_30.59017_104.21037","lineId":"成都地铁2号线","lat":30.590165265,"lon":104.210370055,"area_km2":1.9664,"D":0.1494,"C":0.421,"T":0.053,"U1":0.1011,"U2":0.0049,"couplingDegree":0.1494,"level":"极度失调","road_density":23.8381,"walk_accessibility":0.3943,"metro_line_density":2.8972,"station_count":2,"line_count":1,"population_density":1396.4808,"poi_density":0.5086,"poi_diversity":0.0,"gdp_density":0.0,"P":1396.4808,"I":0.5086,"G":0.0},{"stationName":"成都大面铺(地铁站)","station_id":"成都大面铺(地铁站)_30.59497_104.19890","lineId":"成都地铁2号线","lat":30.59496629,"lon":104.19889628,"area_km2":1.4382,"D":0.0886,"C":0.1674,"T":0.047,"U1":0.0932,"U2":0.0007,"couplingDegree":0.0886,"level":"极度失调","road_density":20.1684,"walk_accessibility":0.2884,"metro_line_density":3.5067,"station_count":2,"line_count":1,"population_density":518.6933,"poi_density":0.0,"poi_diversity":0.0,"gdp_density":0.0,"P":518.6933,"I":0.0,"G":0.0},{"stationName":"成都成都行政学院(地铁站)","station_id":"成都成都行政学院(地铁站)_30.59963_104.16823","lineId":"成都地铁2号线","lat":30.59962531,"lon":104.168233705,"area_km2":2.264,"D":0.1236,"C":0.6089,"T":0.0251,"U1":0.045,"U2":0.0052,"couplingDegree":0.1236,"level":"极度失调","road_density":20.5102,"walk_accessibility":0.4539,"metro_line_density":1.6008,"station_count":1,"line_count":1,"population_density":4060.9717,"poi_density":0.0,"poi_diversity":0.0,"gdp_density":0.0,"P":4060.9717,"I":0.0,"G":0.0},{"stationName":"成都洪河(地铁站)","station_id":"成都洪河(地铁站)_30.60750_104.15503","lineId":"成都地铁2号线","lat":30.60749849,"lon":104.15502838,"area_km2":2.0288,"D":0.2198,"C":0.4338,"T":0.1114,"U1":0.2118,"U2":0.011,"couplingDegree":0.2198,"level":"中度失调","road_density":23.4923,"walk_accessibility":0.4068,"metro_line_density":2.3623,"station_count":2,"line_count":2,"population_density":8637.8305,"poi_density":0.0,"poi_diversity":0.0,"gdp_density":0.0,"P":8637.8305,"I":0.0,"G":0.0},{"stationName":"成都惠王陵(地铁站)","station_id":"成都惠王陵(地铁站)_30.61496_104.14989","lineId":"成都地铁2号线 / 成都地铁30号线","lat":30.614963966666664,"lon":104.14989259666667,"area_km2":1.8069,"D":0.241,"C":0.4967,"T":0.1169,"U1":0.2184,"U2":0.0154,"couplingDegree":0.241,"level":"中度失调","road_density":23.5768,"walk_accessibility":0.3623,"metro_line_density":3.8443,"station_count":2,"line_count":2,"population_density":12089.5463,"poi_density":0.0,"poi_diversity":0.0,"gdp_density":0.0,"P":12089.5463,"I":0.0,"G":0.0},{"stationName":"成都成渝立交(地铁站)","station_id":"成都成渝立交(地铁站)_30.62728_104.14493","lineId":"成都地铁2号线","lat":30.62727881,"lon":104.14493221,"area_km2":2.4707,"D":0.1919,"C":0.6235,"T":0.0591,"U1":0.1053,"U2":0.0129,"couplingDegree":0.1919,"level":"极度失调","road_density":26.0069,"walk_accessibility":0.4954,"metro_line_density":2.1175,"station_count":2,"line_count":1,"population_density":8133.578,"poi_density":0.4047,"poi_diversity":0.0,"gdp_density":0.0,"P":8133.578,"I":0.4047,"G":0.0},{"stationName":"成都成都东客站(地铁站)","station_id":"成都成都东客站(地铁站)_30.63177_104.13744","lineId":"成都地铁2号线","lat":30.63177323,"lon":104.13743786,"area_km2":2.6723,"D":0.4448,"C":0.8857,"T":0.2233,"U1":0.327,"U2":0.1196,"couplingDegree":0.4448,"level":"勉强协调","road_density":29.3821,"walk_accessibility":0.5358,"metro_line_density":3.5332,"station_count":4,"line_count":2,"population_density":10523.1445,"poi_density":2.9937,"poi_diversity":1.4942,"gdp_density":0.0,"P":10523.1445,"I":2.9937,"G":0.0},{"stationName":"成都塔子山公园(地铁站)","station_id":"成都塔子山公园(地铁站)_30.63189_104.12039","lineId":"成都地铁2号线","lat":30.63188768,"lon":104.12039026,"area_km2":2.0958,"D":0.3615,"C":0.9325,"T":0.1402,"U1":0.0895,"U2":0.1908,"couplingDegree":0.3615,"level":"中度失调","road_density":20.1528,"walk_accessibility":0.4202,"metro_line_density":1.7417,"station_count":2,"line_count":1,"population_density":11148.7346,"poi_density":6.6799,"poi_diversity":2.3046,"gdp_density":0.0,"P":11148.7346,"I":6.6799,"G":0.0},{"stationName":"成都东大路(地铁站)","station_id":"成都东大路(地铁站)_30.63623_104.10963","lineId":"成都地铁2号线","lat":30.63622797,"lon":104.10963337,"area_km2":2.3597,"D":0.3879,"C":0.999,"T":0.1506,"U1":0.1573,"U2":0.1439,"couplingDegree":0.3879,"level":"中度失调","road_density":22.7602,"walk_accessibility":0.4731,"metro_line_density":4.2607,"station_count":3,"line_count":1,"population_density":28481.3176,"poi_density":2.119,"poi_diversity":1.6094,"gdp_density":0.0,"P":28481.3176,"I":2.119,"G":0.0},{"stationName":"成都牛市口(地铁站)","station_id":"成都牛市口(地铁站)_30.64032_104.10512","lineId":"成都地铁2号线","lat":30.64031993,"lon":104.10512122,"area_km2":2.3246,"D":0.6017,"C":0.9975,"T":0.3629,"U1":0.3886,"U2":0.3372,"couplingDegree":0.6017,"level":"良好协调","road_density":25.4637,"walk_accessibility":0.4661,"metro_line_density":4.2042,"station_count":3,"line_count":3,"population_density":36486.5151,"poi_density":2.5811,"poi_diversity":1.5607,"gdp_density":62165.0789,"P":36486.5151,"I":2.5811,"G":62165.0789},{"stationName":"成都牛王庙(地铁站)","station_id":"成都牛王庙(地铁站)_30.64715_104.09080","lineId":"成都地铁2号线 / 成都地铁6号线","lat":30.64715388,"lon":104.09079618333334,"area_km2":2.7475,"D":0.6026,"C":0.9843,"T":0.369,"U1":0.4341,"U2":0.3039,"couplingDegree":0.6026,"level":"良好协调","road_density":20.5153,"walk_accessibility":0.5509,"metro_line_density":4.7759,"station_count":4,"line_count":3,"population_density":43823.1288,"poi_density":16.7426,"poi_diversity":2.4605,"gdp_density":0.0,"P":43823.1288,"I":16.7426,"G":0.0},{"stationName":"成都东门大桥(地铁站)","station_id":"成都东门大桥(地铁站)_30.65060_104.08477","lineId":"成都地铁2号线","lat":30.65059639,"lon":104.08477173,"area_km2":3.0341,"D":0.6966,"C":0.9927,"T":0.4888,"U1":0.5475,"U2":0.43,"couplingDegree":0.6966,"level":"良好协调","road_density":22.965,"walk_accessibility":0.6083,"metro_line_density":3.5342,"station_count":4,"line_count":4,"population_density":44626.0161,"poi_density":34.9359,"poi_diversity":2.6754,"gdp_density":0.0,"P":44626.0161,"I":34.9359,"G":0.0},{"stationName":"成都春熙路(地铁站)","station_id":"成都春熙路(地铁站)_30.65573_104.07696","lineId":"成都地铁2号线 / 成都地铁3号线","lat":30.65572677,"lon":104.076964855,"area_km2":3.348,"D":0.6875,"C":0.9894,"T":0.4777,"U1":0.5472,"U2":0.4082,"couplingDegree":0.6875,"level":"良好协调","road_density":23.0828,"walk_accessibility":0.6713,"metro_line_density":2.9044,"station_count":4,"line_count":4,"population_density":38227.2286,"poi_density":34.648,"poi_diversity":2.4738,"gdp_density":0.0,"P":38227.2286,"I":34.648,"G":0.0},{"stationName":"成都人民公园(地铁站)","station_id":"成都人民公园(地铁站)_30.66214_104.05383","lineId":"成都地铁10号线 / 成都地铁2号线","lat":30.662142340000003,"lon":104.05383298333334,"area_km2":3.1708,"D":0.7968,"C":0.9264,"T":0.6853,"U1":0.9434,"U2":0.4273,"couplingDegree":0.7968,"level":"良好协调","road_density":23.9826,"walk_accessibility":0.6357,"metro_line_density":8.1762,"station_count":7,"line_count":6,"population_density":45186.6984,"poi_density":32.4835,"poi_diversity":2.8762,"gdp_density":0.0,"P":45186.6984,"I":32.4835,"G":0.0},{"stationName":"成都通惠门(地铁站)","station_id":"成都通惠门(地铁站)_30.66454_104.04606","lineId":"成都地铁2号线","lat":30.664538370000002,"lon":104.04605502000001,"area_km2":3.0922,"D":0.7559,"C":0.9075,"T":0.6296,"U1":0.8941,"U2":0.3652,"couplingDegree":0.7559,"level":"良好协调","road_density":26.2632,"walk_accessibility":0.62,"metro_line_density":7.1169,"station_count":6,"line_count":6,"population_density":41908.495,"poi_density":23.6081,"poi_diversity":2.8232,"gdp_density":0.0,"P":41908.495,"I":23.6081,"G":0.0},{"stationName":"成都中医大·省医院(地铁站)","station_id":"成都中医大·省医院(地铁站)_30.66857_104.03817","lineId":"成都地铁2号线 / 成都地铁4号线","lat":30.66857235,"lon":104.03816534,"area_km2":3.1212,"D":0.667,"C":0.9006,"T":0.4939,"U1":0.7087,"U2":0.2792,"couplingDegree":0.667,"level":"良好协调","road_density":27.0499,"walk_accessibility":0.6258,"metro_line_density":6.1549,"station_count":7,"line_count":4,"population_density":44820.0069,"poi_density":11.534,"poi_diversity":2.5675,"gdp_density":0.0,"P":44820.0069,"I":11.534,"G":0.0},{"stationName":"成都白果林(地铁站)","station_id":"成都白果林(地铁站)_30.67633_104.03085","lineId":"成都地铁2号线","lat":30.67633217,"lon":104.03085332,"area_km2":2.3443,"D":0.5262,"C":0.8712,"T":0.3178,"U1":0.4737,"U2":0.1618,"couplingDegree":0.5262,"level":"勉强协调","road_density":19.7804,"walk_accessibility":0.47,"metro_line_density":4.5949,"station_count":5,"line_count":3,"population_density":41008.2156,"poi_density":2.9859,"poi_diversity":1.5498,"gdp_density":0.0,"P":41008.2156,"I":2.9859,"G":0.0},{"stationName":"成都蜀汉路东(地铁站)","station_id":"成都蜀汉路东(地铁站)_30.68536_104.02664","lineId":"成都地铁2号线","lat":30.68535648,"lon":104.02663788,"area_km2":2.7866,"D":0.4275,"C":0.9408,"T":0.1943,"U1":0.2601,"U2":0.1284,"couplingDegree":0.4275,"level":"勉强协调","road_density":19.7852,"walk_accessibility":0.5587,"metro_line_density":2.4966,"station_count":3,"line_count":2,"population_density":18387.7928,"poi_density":2.1532,"poi_diversity":1.5607,"gdp_density":0.0,"P":18387.7928,"I":2.1532,"G":0.0},{"stationName":"成都一品天下(地铁站)","station_id":"成都一品天下(地铁站)_30.69151_104.01796","lineId":"成都地铁2号线 / 成都地铁7号线","lat":30.69151318,"lon":104.017957805,"area_km2":1.9833,"D":0.3013,"C":0.4504,"T":0.2015,"U1":0.3815,"U2":0.0216,"couplingDegree":0.3013,"level":"中度失调","road_density":17.3123,"walk_accessibility":0.3977,"metro_line_density":5.8931,"station_count":3,"line_count":3,"population_density":16913.9356,"poi_density":0.0,"poi_diversity":0.0,"gdp_density":0.0,"P":16913.9356,"I":0.0,"G":0.0},{"stationName":"成都羊犀立交(地铁站)","station_id":"成都羊犀立交(地铁站)_30.69588_104.00971","lineId":"成都地铁27号线 / 成都地铁2号线","lat":30.695884693333337,"lon":104.00971202,"area_km2":2.3643,"D":0.2944,"C":0.4866,"T":0.1781,"U1":0.3336,"U2":0.0225,"couplingDegree":0.2944,"level":"中度失调","road_density":19.4351,"walk_accessibility":0.474,"metro_line_density":4.3132,"station_count":2,"line_count":3,"population_density":15575.9648,"poi_density":0.423,"poi_diversity":0.0,"gdp_density":0.0,"P":15575.9648,"I":0.423,"G":0.0},{"stationName":"成都茶店子客运站(地铁站)","station_id":"成都茶店子客运站(地铁站)_30.70851_104.01133","lineId":"成都地铁2号线","lat":30.70850695,"lon":104.01133333,"area_km2":2.0727,"D":0.4538,"C":0.8103,"T":0.2541,"U1":0.1052,"U2":0.403,"couplingDegree":0.4538,"level":"勉强协调","road_density":27.6862,"walk_accessibility":0.4156,"metro_line_density":2.3167,"station_count":2,"line_count":1,"population_density":16186.0986,"poi_density":7.2369,"poi_diversity":2.4308,"gdp_density":66200.9455,"P":16186.0986,"I":7.2369,"G":66200.9455},{"stationName":"成都迎宾大道(地铁站)","station_id":"成都迎宾大道(地铁站)_30.71569_104.01117","lineId":"成都地铁2号线","lat":30.71568668,"lon":104.01116917,"area_km2":1.7924,"D":0.4149,"C":0.9782,"T":0.176,"U1":0.1394,"U2":0.2126,"couplingDegree":0.4149,"level":"勉强协调","road_density":21.7608,"walk_accessibility":0.3594,"metro_line_density":2.4678,"station_count":3,"line_count":1,"population_density":16450.7164,"poi_density":7.8108,"poi_diversity":2.441,"gdp_density":0.0,"P":16450.7164,"I":7.8108,"G":0.0},{"stationName":"成都金科北路(地铁站)","station_id":"成都金科北路(地铁站)_30.72330_104.00430","lineId":"成都地铁2号线","lat":30.72329698,"lon":104.00430181,"area_km2":2.406,"D":0.3478,"C":0.9931,"T":0.1218,"U1":0.136,"U2":0.1076,"couplingDegree":0.3478,"level":"中度失调","road_density":18.0143,"walk_accessibility":0.4824,"metro_line_density":1.8889,"station_count":3,"line_count":1,"population_density":12460.6795,"poi_density":1.6625,"poi_diversity":1.3863,"gdp_density":0.0,"P":12460.6795,"I":1.6625,"G":0.0},{"stationName":"成都金周路(地铁站)","station_id":"成都金周路(地铁站)_30.72420_103.99388","lineId":"成都地铁2号线","lat":30.72420352,"lon":103.99388075,"area_km2":1.4044,"D":0.2134,"C":0.814,"T":0.056,"U1":0.0884,"U2":0.0235,"couplingDegree":0.2134,"level":"中度失调","road_density":18.1747,"walk_accessibility":0.2816,"metro_line_density":3.3131,"station_count":2,"line_count":1,"population_density":14919.3776,"poi_density":0.712,"poi_diversity":0.0,"gdp_density":0.0,"P":14919.3776,"I":0.712,"G":0.0},{"stationName":"成都百草路(地铁站)","station_id":"成都百草路(地铁站)_30.73567_103.97709","lineId":"成都地铁2号线","lat":30.73567269,"lon":103.97709239,"area_km2":1.5693,"D":0.1521,"C":0.8187,"T":0.0282,"U1":0.0445,"U2":0.012,"couplingDegree":0.1521,"level":"极度失调","road_density":20.6069,"walk_accessibility":0.3146,"metro_line_density":2.688,"station_count":1,"line_count":1,"population_density":9418.3954,"poi_density":0.0,"poi_diversity":0.0,"gdp_density":0.0,"P":9418.3954,"I":0.0,"G":0.0},{"stationName":"成都天河路(地铁站)","station_id":"成都天河路(地铁站)_30.74850_103.97394","lineId":"成都地铁2号线","lat":30.74849582,"lon":103.97393786,"area_km2":1.4297,"D":0.1824,"C":0.9635,"T":0.0345,"U1":0.0438,"U2":0.0253,"couplingDegree":0.1824,"level":"极度失调","road_density":20.6984,"walk_accessibility":0.2867,"metro_line_density":2.7848,"station_count":1,"line_count":1,"population_density":16421.145,"poi_density":0.6994,"poi_diversity":0.0,"gdp_density":0.0,"P":16421.145,"I":0.6994,"G":0.0},{"stationName":"成都犀浦(地铁站)","station_id":"成都犀浦(地铁站)_30.76058_103.96839","lineId":"成都地铁2号线 / 成都地铁6号线","lat":30.76058166,"lon":103.96838909499999,"area_km2":2.1856,"D":0.4565,"C":0.9987,"T":0.2087,"U1":0.2194,"U2":0.1979,"couplingDegree":0.4565,"level":"勉强协调","road_density":23.3171,"walk_accessibility":0.4382,"metro_line_density":3.4485,"station_count":2,"line_count":2,"population_density":9710.7678,"poi_density":8.2357,"poi_diversity":2.2931,"gdp_density":0.0,"P":9710.7678,"I":8.2357,"G":0.0},{"stationName":"成都文庙广场(地铁站)","station_id":"成都文庙广场(地铁站)_31.12872_104.39022","lineId":"成都地铁3号线 / 成都成都S11号线(德阳线)(韦家碾--德阳北站)","lat":31.12872157,"lon":104.390223495,"area_km2":1.7579,"D":0.1654,"C":0.253,"T":0.1081,"U1":0.2127,"U2":0.0035,"couplingDegree":0.1654,"level":"极度失调","road_density":20.1874,"walk_accessibility":0.3525,"metro_line_density":3.9284,"station_count":2,"line_count":2,"population_density":0.0,"poi_density":0.5689,"poi_diversity":0.0,"gdp_density":0.0,"P":0.0,"I":0.5689,"G":0.0},{"stationName":"成都体育场站(地铁站)","station_id":"成都体育场站(地铁站)_31.12451_104.39223","lineId":"成都地铁3号线","lat":31.12451337,"lon":104.3922292,"area_km2":1.3384,"D":0.2116,"C":0.3958,"T":0.1131,"U1":0.217,"U2":0.0092,"couplingDegree":0.2116,"level":"中度失调","road_density":19.0337,"walk_accessibility":0.2683,"metro_line_density":5.7102,"station_count":2,"line_count":2,"population_density":0.0,"poi_density":1.4944,"poi_diversity":0.0,"gdp_density":0.0,"P":0.0,"I":1.4944,"G":0.0},{"stationName":"成都五洲广场站(地铁站)","station_id":"成都五洲广场站(地铁站)_31.10360_104.38596","lineId":"成都地铁3号线","lat":31.10360215,"lon":104.38595837,"area_km2":1.3336,"D":0.0,"C":0.0,"T":0.0277,"U1":0.0555,"U2":0.0,"couplingDegree":0.0,"level":"极度失调","road_density":16.6851,"walk_accessibility":0.2674,"metro_line_density":6.0945,"station_count":1,"line_count":1,"population_density":0.0,"poi_density":0.0,"poi_diversity":0.0,"gdp_density":0.0,"P":0.0,"I":0.0,"G":0.0},{"stationName":"成都四川建院北(地铁站)","station_id":"成都四川建院北(地铁站)_31.08802_104.38480","lineId":"成都地铁3号线","lat":31.08802206,"lon":104.3847956,"area_km2":1.0623,"D":0.0,"C":0.0,"T":0.0347,"U1":0.0695,"U2":0.0,"couplingDegree":0.0,"level":"极度失调","road_density":19.4227,"walk_accessibility":0.213,"metro_line_density":8.1727,"station_count":1,"line_count":1,"population_density":0.0,"poi_density":0.0,"poi_diversity":0.0,"gdp_density":0.0,"P":0.0,"I":0.0,"G":0.0},{"stationName":"成都成都医学院(地铁站)","station_id":"成都成都医学院(地铁站)_30.81914_104.19434","lineId":"成都地铁3号线","lat":30.81913814,"lon":104.19433703,"area_km2":2.1245,"D":0.2841,"C":0.88,"T":0.0917,"U1":0.1352,"U2":0.0481,"couplingDegree":0.2841,"level":"中度失调","road_density":21.9331,"walk_accessibility":0.4259,"metro_line_density":1.1247,"station_count":3,"line_count":1,"population_density":2761.1813,"poi_density":0.0,"poi_diversity":0.0,"gdp_density":15153.5477,"P":2761.1813,"I":0.0,"G":15153.5477},{"stationName":"成都双流西站(地铁站)","station_id":"成都双流西站(地铁站)_30.54610_103.91518","lineId":"成都地铁3号线","lat":30.54609533,"lon":103.91518066,"area_km2":0.9891,"D":0.1294,"C":0.3469,"T":0.0483,"U1":0.0936,"U2":0.003,"couplingDegree":0.1294,"level":"极度失调","road_density":22.2317,"walk_accessibility":0.1983,"metro_line_density":3.7504,"station_count":2,"line_count":1,"population_density":2347.6426,"poi_density":0.0,"poi_diversity":0.0,"gdp_density":0.0,"P":2347.6426,"I":0.0,"G":0.0},{"stationName":"成都三里坝(地铁站)","station_id":"成都三里坝(地铁站)_30.55637_103.91249","lineId":"成都地铁3号线","lat":30.5563689,"lon":103.91249006,"area_km2":1.3573,"D":0.1001,"C":0.2452,"T":0.0409,"U1":0.0805,"U2":0.0012,"couplingDegree":0.1001,"level":"极度失调","road_density":18.3536,"walk_accessibility":0.2721,"metro_line_density":1.9823,"station_count":2,"line_count":1,"population_density":976.957,"poi_density":0.0,"poi_diversity":0.0,"gdp_density":0.0,"P":976.957,"I":0.0,"G":0.0},{"stationName":"成都双流广场(地铁站)","station_id":"成都双流广场(地铁站)_30.56707_103.91811","lineId":"成都地铁3号线","lat":30.56706823,"lon":103.91811481,"area_km2":1.9035,"D":0.1747,"C":0.6431,"T":0.0474,"U1":0.0838,"U2":0.0111,"couplingDegree":0.1747,"level":"极度失调","road_density":18.9206,"walk_accessibility":0.3817,"metro_line_density":1.4368,"station_count":2,"line_count":1,"population_density":8700.5926,"poi_density":0.0,"poi_diversity":0.0,"gdp_density":0.0,"P":8700.5926,"I":0.0,"G":0.0},{"stationName":"成都东升(地铁站)","station_id":"成都东升(地铁站)_30.57401_103.92323","lineId":"成都地铁3号线","lat":30.57401116,"lon":103.92322624,"area_km2":1.9739,"D":0.1978,"C":0.7704,"T":0.0508,"U1":0.0832,"U2":0.0184,"couplingDegree":0.1978,"level":"极度失调","road_density":18.5762,"walk_accessibility":0.3958,"metro_line_density":1.3143,"station_count":2,"line_count":1,"population_density":11965.5881,"poi_density":0.5066,"poi_diversity":0.0,"gdp_density":0.0,"P":11965.5881,"I":0.5066,"G":0.0},{"stationName":"成都迎春桥(地铁站)","station_id":"成都迎春桥(地铁站)_30.58342_103.93282","lineId":"成都地铁3号线","lat":30.5834247,"lon":103.93281604,"area_km2":1.9998,"D":0.1569,"C":0.5345,"T":0.046,"U1":0.085,"U2":0.0071,"couplingDegree":0.1569,"level":"极度失调","road_density":19.6815,"walk_accessibility":0.401,"metro_line_density":1.2577,"station_count":2,"line_count":1,"population_density":5581.6104,"poi_density":0.0,"poi_diversity":0.0,"gdp_density":0.0,"P":5581.6104,"I":0.0,"G":0.0},{"stationName":"成都航都大街(地铁站)","station_id":"成都航都大街(地铁站)_30.59409_103.93476","lineId":"成都地铁3号线","lat":30.59409283,"lon":103.93476488,"area_km2":1.485,"D":0.1304,"C":0.4152,"T":0.041,"U1":0.0782,"U2":0.0037,"couplingDegree":0.1304,"level":"极度失调","road_density":17.3775,"walk_accessibility":0.2977,"metro_line_density":1.6499,"station_count":2,"line_count":1,"population_density":2895.0056,"poi_density":0.0,"poi_diversity":0.0,"gdp_density":0.0,"P":2895.0056,"I":0.0,"G":0.0},{"stationName":"成都龙桥路(地铁站)","station_id":"成都龙桥路(地铁站)_30.60669_103.94202","lineId":"成都地铁3号线","lat":30.60668762,"lon":103.94202382,"area_km2":1.9147,"D":0.1323,"C":0.65,"T":0.0269,"U1":0.0474,"U2":0.0065,"couplingDegree":0.1323,"level":"极度失调","road_density":25.8954,"walk_accessibility":0.3839,"metro_line_density":1.089,"station_count":1,"line_count":1,"population_density":5064.9024,"poi_density":0.0,"poi_diversity":0.0,"gdp_density":0.0,"P":5064.9024,"I":0.0,"G":0.0},{"stationName":"成都双凤桥(地铁站)","station_id":"成都双凤桥(地铁站)_30.61865_103.96701","lineId":"成都地铁3号线","lat":30.61864839,"lon":103.96700784,"area_km2":1.8497,"D":0.1652,"C":0.9011,"T":0.0303,"U1":0.0434,"U2":0.0171,"couplingDegree":0.1652,"level":"极度失调","road_density":22.323,"walk_accessibility":0.3709,"metro_line_density":1.5345,"station_count":1,"line_count":1,"population_density":13429.0164,"poi_density":0.0,"poi_diversity":0.0,"gdp_density":0.0,"P":13429.0164,"I":0.0,"G":0.0},{"stationName":"成都武青南路(地铁站)","station_id":"成都武青南路(地铁站)_30.62512_103.98288","lineId":"成都地铁3号线 / 成都地铁9号线","lat":30.62511545,"lon":103.98287674,"area_km2":2.5951,"D":0.5564,"C":0.9492,"T":0.3262,"U1":0.2235,"U2":0.4288,"couplingDegree":0.5564,"level":"勉强协调","road_density":23.8794,"walk_accessibility":0.5203,"metro_line_density":3.2701,"station_count":2,"line_count":2,"population_density":14604.9472,"poi_density":2.3121,"poi_diversity":1.5607,"gdp_density":103346.735,"P":14604.9472,"I":2.3121,"G":103346.735},{"stationName":"成都武侯立交(地铁站)","station_id":"成都武侯立交(地铁站)_30.62958_103.99114","lineId":"成都地铁3号线","lat":30.62957648,"lon":103.99113943,"area_km2":2.2004,"D":0.2219,"C":0.4347,"T":0.1132,"U1":0.2152,"U2":0.0113,"couplingDegree":0.2219,"level":"中度失调","road_density":25.921,"walk_accessibility":0.4412,"metro_line_density":1.9521,"station_count":2,"line_count":2,"population_density":8816.7604,"poi_density":0.0,"poi_diversity":0.0,"gdp_density":0.0,"P":8816.7604,"I":0.0,"G":0.0},{"stationName":"成都川藏立交(地铁站)","station_id":"成都川藏立交(地铁站)_30.62551_104.00414","lineId":"成都地铁3号线","lat":30.62551363,"lon":104.00413527,"area_km2":2.2368,"D":0.1915,"C":0.9405,"T":0.039,"U1":0.0523,"U2":0.0257,"couplingDegree":0.1915,"level":"极度失调","road_density":25.2173,"walk_accessibility":0.4485,"metro_line_density":1.555,"station_count":1,"line_count":1,"population_density":20163.2785,"poi_density":0.0,"poi_diversity":0.0,"gdp_density":0.0,"P":20163.2785,"I":0.0,"G":0.0},{"stationName":"成都太平园(地铁站)","station_id":"成都太平园(地铁站)_30.62799_104.01894","lineId":"成都地铁10号线 / 成都地铁3号线 / 成都地铁7号线","lat":30.6279949075,"lon":104.0189373425,"area_km2":2.0652,"D":0.3826,"C":0.7945,"T":0.1843,"U1":0.2962,"U2":0.0724,"couplingDegree":0.3826,"level":"中度失调","road_density":18.4507,"walk_accessibility":0.4141,"metro_line_density":6.5858,"station_count":1,"line_count":3,"population_density":20124.6293,"poi_density":0.9684,"poi_diversity":0.6931,"gdp_density":0.0,"P":20124.6293,"I":0.9684,"G":0.0},{"stationName":"成都红牌楼(地铁站)","station_id":"成都红牌楼(地铁站)_30.63748_104.02785","lineId":"成都地铁10号线 / 成都地铁3号线","lat":30.637480183333334,"lon":104.02785185666666,"area_km2":2.6509,"D":0.4979,"C":0.9602,"T":0.2582,"U1":0.3303,"U2":0.1861,"couplingDegree":0.4979,"level":"勉强协调","road_density":19.0697,"walk_accessibility":0.5315,"metro_line_density":3.3542,"station_count":2,"line_count":3,"population_density":25192.0221,"poi_density":5.6585,"poi_diversity":2.0262,"gdp_density":0.0,"P":25192.0221,"I":5.6585,"G":0.0},{"stationName":"成都高升桥(地铁站)","station_id":"成都高升桥(地铁站)_30.64302_104.03952","lineId":"成都地铁10号线 / 成都地铁3号线 / 成都地铁5号线","lat":30.643020619999998,"lon":104.03951983,"area_km2":2.4762,"D":0.7677,"C":0.9975,"T":0.5909,"U1":0.5491,"U2":0.6327,"couplingDegree":0.7677,"level":"良好协调","road_density":20.1693,"walk_accessibility":0.4965,"metro_line_density":5.5657,"station_count":4,"line_count":4,"population_density":31271.9195,"poi_density":22.211,"poi_diversity":2.6969,"gdp_density":100937.0188,"P":31271.9195,"I":22.211,"G":100937.0188},{"stationName":"成都衣冠庙(地铁站)","station_id":"成都衣冠庙(地铁站)_30.63694_104.04967","lineId":"成都地铁3号线","lat":30.6369407,"lon":104.04966796,"area_km2":2.8479,"D":0.6217,"C":0.9229,"T":0.4187,"U1":0.58,"U2":0.2575,"couplingDegree":0.6217,"level":"良好协调","road_density":21.9305,"walk_accessibility":0.571,"metro_line_density":1.8266,"station_count":5,"line_count":4,"population_density":24192.7672,"poi_density":11.5874,"poi_diversity":2.6405,"gdp_density":0.0,"P":24192.7672,"I":11.5874,"G":0.0},{"stationName":"成都磨子桥(地铁站)","station_id":"成都磨子桥(地铁站)_30.63984_104.07341","lineId":"成都地铁3号线","lat":30.63983939,"lon":104.07341086,"area_km2":2.7311,"D":0.6966,"C":0.9914,"T":0.4895,"U1":0.4253,"U2":0.5538,"couplingDegree":0.6966,"level":"良好协调","road_density":22.797,"walk_accessibility":0.5476,"metro_line_density":2.6566,"station_count":4,"line_count":3,"population_density":36205.327,"poi_density":10.6184,"poi_diversity":2.6024,"gdp_density":98206.6886,"P":36205.327,"I":10.6184,"G":98206.6886},{"stationName":"成都新南门(地铁站)","station_id":"成都新南门(地铁站)_30.64669_104.07304","lineId":"成都地铁13号线 / 成都地铁3号线","lat":30.646688775,"lon":104.07303531,"area_km2":3.3511,"D":0.7858,"C":0.9992,"T":0.6179,"U1":0.6425,"U2":0.5934,"couplingDegree":0.7858,"level":"良好协调","road_density":21.5275,"walk_accessibility":0.6719,"metro_line_density":3.885,"station_count":6,"line_count":4,"population_density":26247.5911,"poi_density":26.5588,"poi_diversity":2.726,"gdp_density":80038.7849,"P":26247.5911,"I":26.5588,"G":80038.7849},{"stationName":"成都市二医院(地铁站)","station_id":"成都市二医院(地铁站)_30.66294_104.08191","lineId":"成都地铁3号线 / 成都地铁4号线","lat":30.662936025,"lon":104.08190766,"area_km2":3.2968,"D":0.615,"C":0.9999,"T":0.3783,"U1":0.3845,"U2":0.3721,"couplingDegree":0.615,"level":"良好协调","road_density":21.4023,"walk_accessibility":0.661,"metro_line_density":2.9781,"station_count":3,"line_count":3,"population_density":52763.2445,"poi_density":25.1756,"poi_diversity":2.5394,"gdp_density":0.0,"P":52763.2445,"I":25.1756,"G":0.0},{"stationName":"成都红星桥(地铁站)","station_id":"成都红星桥(地铁站)_30.67457_104.08877","lineId":"成都地铁17号线 / 成都地铁3号线","lat":30.67456579,"lon":104.088768155,"area_km2":2.7776,"D":0.6059,"C":0.9964,"T":0.3685,"U1":0.3995,"U2":0.3374,"couplingDegree":0.6059,"level":"良好协调","road_density":22.7079,"walk_accessibility":0.5569,"metro_line_density":6.0621,"station_count":3,"line_count":3,"population_density":37225.7165,"poi_density":24.8416,"poi_diversity":2.3222,"gdp_density":0.0,"P":37225.7165,"I":24.8416,"G":0.0},{"stationName":"成都前锋路(地铁站)","station_id":"成都前锋路(地铁站)_30.68079_104.08995","lineId":"成都地铁3号线 / 成都地铁6号线","lat":30.680792335,"lon":104.08994505,"area_km2":2.3627,"D":0.6797,"C":0.9893,"T":0.467,"U1":0.5352,"U2":0.3987,"couplingDegree":0.6797,"level":"良好协调","road_density":22.0768,"walk_accessibility":0.4737,"metro_line_density":6.5481,"station_count":6,"line_count":3,"population_density":25078.175,"poi_density":35.9753,"poi_diversity":2.4585,"gdp_density":0.0,"P":25078.175,"I":35.9753,"G":0.0},{"stationName":"成都李家沱(地铁站)","station_id":"成都李家沱(地铁站)_30.69178_104.09199","lineId":"成都地铁3号线","lat":30.69177644,"lon":104.09198632,"area_km2":2.1854,"D":0.5346,"C":0.967,"T":0.2956,"U1":0.371,"U2":0.2202,"couplingDegree":0.5346,"level":"勉强协调","road_density":22.0902,"walk_accessibility":0.4382,"metro_line_density":2.3834,"station_count":3,"line_count":3,"population_density":47910.2864,"poi_density":7.7788,"poi_diversity":1.8906,"gdp_density":0.0,"P":47910.2864,"I":7.7788,"G":0.0},{"stationName":"成都驷马桥(地铁站)","station_id":"成都驷马桥(地铁站)_30.69796_104.09145","lineId":"成都地铁3号线 / 成都地铁7号线","lat":30.697962609999998,"lon":104.09145316499999,"area_km2":2.1304,"D":0.41,"C":0.9153,"T":0.1836,"U1":0.2576,"U2":0.1097,"couplingDegree":0.41,"level":"勉强协调","road_density":19.689,"walk_accessibility":0.4271,"metro_line_density":3.2304,"station_count":3,"line_count":2,"population_density":28562.1693,"poi_density":1.4082,"poi_diversity":1.0986,"gdp_density":0.0,"P":28562.1693,"I":1.4082,"G":0.0},{"stationName":"成都昭觉寺南路(地铁站)","station_id":"成都昭觉寺南路(地铁站)_30.70530_104.09428","lineId":"成都地铁3号线","lat":30.70530009,"lon":104.0942784,"area_km2":2.5417,"D":0.3987,"C":0.9717,"T":0.1636,"U1":0.2023,"U2":0.1249,"couplingDegree":0.3987,"level":"中度失调","road_density":18.812,"walk_accessibility":0.5096,"metro_line_density":1.1813,"station_count":2,"line_count":2,"population_density":13268.4341,"poi_density":2.754,"poi_diversity":1.5498,"gdp_density":0.0,"P":13268.4341,"I":2.754,"G":0.0},{"stationName":"成都动物园(地铁站)","station_id":"成都动物园(地铁站)_30.71602_104.10060","lineId":"成都地铁3号线","lat":30.71602154,"lon":104.10059647,"area_km2":2.6464,"D":0.3046,"C":0.8324,"T":0.1115,"U1":0.0497,"U2":0.1733,"couplingDegree":0.3046,"level":"中度失调","road_density":22.8759,"walk_accessibility":0.5306,"metro_line_density":1.074,"station_count":1,"line_count":1,"population_density":11352.1359,"poi_density":12.4699,"poi_diversity":1.3914,"gdp_density":0.0,"P":11352.1359,"I":12.4699,"G":0.0},{"stationName":"成都熊猫大道(熊猫基地南大门)(地铁站)","station_id":"成都熊猫大道(熊猫基地南大门)(地铁站)_30.72782_104.10546","lineId":"成都地铁3号线","lat":30.72781505,"lon":104.10545688,"area_km2":2.0594,"D":0.167,"C":0.8511,"T":0.0328,"U1":0.05,"U2":0.0156,"couplingDegree":0.167,"level":"极度失调","road_density":25.5702,"walk_accessibility":0.4129,"metro_line_density":1.366,"station_count":1,"line_count":1,"population_density":9831.6562,"poi_density":0.4856,"poi_diversity":0.0,"gdp_density":0.0,"P":9831.6562,"I":0.4856,"G":0.0},{"stationName":"成都军区总医院(熊猫基地西大门)(地铁站)","station_id":"成都军区总医院(熊猫基地西大门)(地铁站)_30.74711_104.11162","lineId":"成都地铁3号线","lat":30.74710952,"lon":104.11162359,"area_km2":1.8045,"D":0.218,"C":0.9849,"T":0.0482,"U1":0.0399,"U2":0.0566,"couplingDegree":0.218,"level":"中度失调","road_density":20.2413,"walk_accessibility":0.3618,"metro_line_density":1.6036,"station_count":1,"line_count":1,"population_density":7079.4465,"poi_density":1.1083,"poi_diversity":0.6931,"gdp_density":0.0,"P":7079.4465,"I":1.1083,"G":0.0},{"stationName":"成都植物园(地铁站)","station_id":"成都植物园(地铁站)_30.76571_104.11876","lineId":"成都地铁3号线","lat":30.76571474,"lon":104.11876123,"area_km2":1.5319,"D":0.2859,"C":0.9999,"T":0.0818,"U1":0.0809,"U2":0.0826,"couplingDegree":0.2859,"level":"中度失调","road_density":18.282,"walk_accessibility":0.3071,"metro_line_density":1.7773,"station_count":2,"line_count":1,"population_density":4711.7559,"poi_density":1.9583,"poi_diversity":1.0986,"gdp_density":0.0,"P":4711.7559,"I":1.9583,"G":0.0},{"stationName":"成都金华寺东路(地铁站)","station_id":"成都金华寺东路(地铁站)_30.77277_104.12291","lineId":"成都地铁3号线","lat":30.77276643,"lon":104.12291195,"area_km2":1.7396,"D":0.2623,"C":0.9657,"T":0.0713,"U1":0.0897,"U2":0.0528,"couplingDegree":0.2623,"level":"中度失调","road_density":23.2676,"walk_accessibility":0.3488,"metro_line_density":1.5071,"station_count":2,"line_count":1,"population_density":3895.0868,"poi_density":1.1497,"poi_diversity":0.6931,"gdp_density":0.0,"P":3895.0868,"I":1.1497,"G":0.0},{"stationName":"成都三河场(地铁站)","station_id":"成都三河场(地铁站)_30.78706_104.13639","lineId":"成都地铁3号线","lat":30.78705787,"lon":104.13639035,"area_km2":1.8033,"D":0.144,"C":0.7939,"T":0.0261,"U1":0.042,"U2":0.0102,"couplingDegree":0.144,"level":"极度失调","road_density":21.9232,"walk_accessibility":0.3616,"metro_line_density":1.4913,"station_count":1,"line_count":1,"population_density":8021.9778,"poi_density":0.0,"poi_diversity":0.0,"gdp_density":0.0,"P":8021.9778,"I":0.0,"G":0.0},{"stationName":"成都锦水河(地铁站)","station_id":"成都锦水河(地铁站)_30.79984_104.15081","lineId":"成都地铁3号线","lat":30.79983806,"lon":104.15081191,"area_km2":1.3027,"D":0.1512,"C":0.4798,"T":0.0477,"U1":0.0895,"U2":0.0058,"couplingDegree":0.1512,"level":"极度失调","road_density":24.0999,"walk_accessibility":0.2612,"metro_line_density":1.9781,"station_count":2,"line_count":1,"population_density":4575.7913,"poi_density":0.0,"poi_diversity":0.0,"gdp_density":0.0,"P":4575.7913,"I":0.0,"G":0.0},{"stationName":"成都团结新区(地铁站)","station_id":"成都团结新区(地铁站)_30.80678_104.15628","lineId":"成都地铁3号线","lat":30.80677767,"lon":104.15628123,"area_km2":1.383,"D":0.1816,"C":0.459,"T":0.0719,"U1":0.1357,"U2":0.008,"couplingDegree":0.1816,"level":"极度失调","road_density":23.8424,"walk_accessibility":0.2773,"metro_line_density":1.9521,"station_count":3,"line_count":1,"population_density":6281.111,"poi_density":0.0,"poi_diversity":0.0,"gdp_density":0.0,"P":6281.111,"I":0.0,"G":0.0},{"stationName":"成都马超西路(地铁站)","station_id":"成都马超西路(地铁站)_30.81554_104.16224","lineId":"成都地铁3号线","lat":30.81554174,"lon":104.16223731,"area_km2":2.1081,"D":0.1855,"C":0.6755,"T":0.0509,"U1":0.0885,"U2":0.0134,"couplingDegree":0.1855,"level":"极度失调","road_density":20.6954,"walk_accessibility":0.4227,"metro_line_density":1.3881,"station_count":2,"line_count":1,"population_density":10477.4551,"poi_density":0.0,"poi_diversity":0.0,"gdp_density":0.0,"P":10477.4551,"I":0.0,"G":0.0},{"stationName":"成都钟楼(地铁站)","station_id":"成都钟楼(地铁站)_30.82338_104.17286","lineId":"成都地铁3号线","lat":30.82337562,"lon":104.17285571,"area_km2":2.2653,"D":0.2924,"C":0.9972,"T":0.0857,"U1":0.0921,"U2":0.0793,"couplingDegree":0.2924,"level":"中度失调","road_density":22.3823,"walk_accessibility":0.4542,"metro_line_density":1.249,"station_count":2,"line_count":1,"population_density":7761.7158,"poi_density":2.2072,"poi_diversity":0.9503,"gdp_density":0.0,"P":7761.7158,"I":2.2072,"G":0.0},{"stationName":"成都石油大学(地铁站)","station_id":"成都石油大学(地铁站)_30.82119_104.18416","lineId":"成都地铁3号线","lat":30.82118837,"lon":104.18416346,"area_km2":2.6108,"D":0.3797,"C":0.9678,"T":0.149,"U1":0.1865,"U2":0.1115,"couplingDegree":0.3797,"level":"中度失调","road_density":22.4684,"walk_accessibility":0.5235,"metro_line_density":1.0238,"station_count":4,"line_count":1,"population_density":3582.0286,"poi_density":3.8302,"poi_diversity":1.4185,"gdp_density":0.0,"P":3582.0286,"I":3.8302,"G":0.0},{"stationName":"成都成都医学院(新都校区)(地铁站)","station_id":"成都成都医学院(新都校区)(地铁站)_30.81936_104.19226","lineId":"成都地铁3号线","lat":30.81936327,"lon":104.19225861,"area_km2":2.2834,"D":0.2797,"C":0.8624,"T":0.0907,"U1":0.1366,"U2":0.0448,"couplingDegree":0.2797,"level":"中度失调","road_density":21.6523,"walk_accessibility":0.4578,"metro_line_density":1.1661,"station_count":3,"line_count":1,"population_density":2568.9692,"poi_density":0.0,"poi_diversity":0.0,"gdp_density":14098.6745,"P":2568.9692,"I":0.0,"G":14098.6745},{"stationName":"成都西河(地铁站)","station_id":"成都西河(地铁站)_30.64985_104.21792","lineId":"成都地铁4号线","lat":30.649845605,"lon":104.2179158,"area_km2":1.4865,"D":0.1254,"C":0.6357,"T":0.0247,"U1":0.0438,"U2":0.0056,"couplingDegree":0.1254,"level":"极度失调","road_density":24.3319,"walk_accessibility":0.298,"metro_line_density":1.6572,"station_count":1,"line_count":1,"population_density":4415.0402,"poi_density":0.0,"poi_diversity":0.0,"gdp_density":0.0,"P":4415.0402,"I":0.0,"G":0.0},{"stationName":"成都明蜀王陵(地铁站)","station_id":"成都明蜀王陵(地铁站)_30.65071_104.19393","lineId":"成都地铁4号线","lat":30.65071365,"lon":104.19393318,"area_km2":2.5818,"D":0.1264,"C":0.5369,"T":0.0297,"U1":0.0548,"U2":0.0046,"couplingDegree":0.1264,"level":"极度失调","road_density":22.6017,"walk_accessibility":0.5176,"metro_line_density":2.141,"station_count":1,"line_count":1,"population_density":1766.2117,"poi_density":0.3873,"poi_diversity":0.0,"gdp_density":0.0,"P":1766.2117,"I":0.3873,"G":0.0},{"stationName":"成都成都大学(地铁站)","station_id":"成都成都大学(地铁站)_30.64920_104.17874","lineId":"成都地铁4号线","lat":30.64919995,"lon":104.17874374,"area_km2":1.8118,"D":0.2965,"C":0.9881,"T":0.0889,"U1":0.1026,"U2":0.0753,"couplingDegree":0.2965,"level":"中度失调","road_density":24.6702,"walk_accessibility":0.3633,"metro_line_density":3.1797,"station_count":2,"line_count":1,"population_density":482.3802,"poi_density":2.2077,"poi_diversity":1.0397,"gdp_density":0.0,"P":482.3802,"I":2.2077,"G":0.0},{"stationName":"成都十陵(地铁站)","station_id":"成都十陵(地铁站)_30.64832_104.16998","lineId":"成都地铁4号线","lat":30.64832224,"lon":104.16998306,"area_km2":2.1226,"D":0.3836,"C":1.0,"T":0.1471,"U1":0.1474,"U2":0.1468,"couplingDegree":0.3836,"level":"中度失调","road_density":23.6622,"walk_accessibility":0.4256,"metro_line_density":2.7208,"station_count":3,"line_count":1,"population_density":5726.4798,"poi_density":1.4134,"poi_diversity":1.0986,"gdp_density":22522.4263,"P":5726.4798,"I":1.4134,"G":22522.4263},{"stationName":"成都来龙(地铁站)","station_id":"成都来龙(地铁站)_30.64934_104.16201","lineId":"成都地铁4号线","lat":30.6493378,"lon":104.16200508,"area_km2":1.7307,"D":0.315,"C":0.9958,"T":0.0996,"U1":0.1088,"U2":0.0905,"couplingDegree":0.315,"level":"中度失调","road_density":28.5105,"walk_accessibility":0.347,"metro_line_density":3.2798,"station_count":2,"line_count":1,"population_density":4370.5608,"poi_density":0.5778,"poi_diversity":0.0,"gdp_density":27622.8226,"P":4370.5608,"I":0.5778,"G":27622.8226},{"stationName":"成都槐树店(地铁站)","station_id":"成都槐树店(地铁站)_30.65218_104.13688","lineId":"成都地铁4号线 / 成都地铁7号线","lat":30.652177445,"lon":104.13687785,"area_km2":2.1905,"D":0.257,"C":0.5478,"T":0.1206,"U1":0.2214,"U2":0.0197,"couplingDegree":0.257,"level":"中度失调","road_density":18.865,"walk_accessibility":0.4392,"metro_line_density":5.0449,"station_count":2,"line_count":2,"population_density":13217.9123,"poi_density":0.4565,"poi_diversity":0.0,"gdp_density":0.0,"P":13217.9123,"I":0.4565,"G":0.0},{"stationName":"成都万年场(地铁站)","station_id":"成都万年场(地铁站)_30.64664_104.11665","lineId":"成都地铁4号线","lat":30.64664325,"lon":104.1166529,"area_km2":1.9809,"D":0.4869,"C":0.9869,"T":0.2402,"U1":0.2789,"U2":0.2014,"couplingDegree":0.4869,"level":"勉强协调","road_density":27.126,"walk_accessibility":0.3972,"metro_line_density":5.0171,"station_count":3,"line_count":2,"population_density":14522.4146,"poi_density":11.6107,"poi_diversity":1.8933,"gdp_density":0.0,"P":14522.4146,"I":11.6107,"G":0.0},{"stationName":"成都双桥路(地铁站)","station_id":"成都双桥路(地铁站)_30.64865_104.11104","lineId":"成都地铁4号线 / 成都地铁8号线","lat":30.648653503333335,"lon":104.11104311000001,"area_km2":2.5177,"D":0.574,"C":0.9592,"T":0.3435,"U1":0.4406,"U2":0.2464,"couplingDegree":0.574,"level":"勉强协调","road_density":27.6107,"walk_accessibility":0.5048,"metro_line_density":4.267,"station_count":4,"line_count":3,"population_density":29962.1258,"poi_density":12.71,"poi_diversity":2.2071,"gdp_density":0.0,"P":29962.1258,"I":12.71,"G":0.0},{"stationName":"成都玉双路(地铁站)","station_id":"成都玉双路(地铁站)_30.65613_104.09642","lineId":"成都地铁4号线 / 成都地铁6号线","lat":30.656125045,"lon":104.09642392500001,"area_km2":2.7555,"D":0.5401,"C":0.9619,"T":0.3032,"U1":0.3861,"U2":0.2203,"couplingDegree":0.5401,"level":"勉强协调","road_density":21.1065,"walk_accessibility":0.5525,"metro_line_density":4.2721,"station_count":3,"line_count":3,"population_density":29652.5626,"poi_density":7.621,"poi_diversity":2.3063,"gdp_density":0.0,"P":29652.5626,"I":7.621,"G":0.0},{"stationName":"成都太升南路(地铁站)","station_id":"成都太升南路(地铁站)_30.66717_104.07405","lineId":"成都地铁4号线","lat":30.66717257,"lon":104.07405275,"area_km2":2.7426,"D":0.7119,"C":0.9833,"T":0.5154,"U1":0.4216,"U2":0.6092,"couplingDegree":0.7119,"level":"良好协调","road_density":20.2363,"walk_accessibility":0.5499,"metro_line_density":2.7374,"station_count":4,"line_count":3,"population_density":58846.5356,"poi_density":24.0647,"poi_diversity":2.2428,"gdp_density":86142.449,"P":58846.5356,"I":24.0647,"G":86142.449},{"stationName":"成都宽窄巷子(地铁站)","station_id":"成都宽窄巷子(地铁站)_30.66783_104.04820","lineId":"成都地铁4号线","lat":30.66782543,"lon":104.04820444,"area_km2":3.3737,"D":0.8104,"C":0.9569,"T":0.6864,"U1":0.8859,"U2":0.487,"couplingDegree":0.8104,"level":"优质协调","road_density":25.1639,"walk_accessibility":0.6764,"metro_line_density":5.5323,"station_count":6,"line_count":6,"population_density":39940.508,"poi_density":22.2307,"poi_diversity":2.82,"gdp_density":45187.835,"P":39940.508,"I":22.2307,"G":45187.835},{"stationName":"成都草堂北路(地铁站)","station_id":"成都草堂北路(地铁站)_30.67159_104.02578","lineId":"成都地铁4号线","lat":30.67159127,"lon":104.02577701,"area_km2":2.3482,"D":0.4503,"C":0.9032,"T":0.2245,"U1":0.3209,"U2":0.1281,"couplingDegree":0.4503,"level":"勉强协调","road_density":22.4179,"walk_accessibility":0.4708,"metro_line_density":5.0201,"station_count":4,"line_count":2,"population_density":26847.0447,"poi_density":2.5551,"poi_diversity":1.3297,"gdp_density":0.0,"P":26847.0447,"I":2.5551,"G":0.0},{"stationName":"成都西南财大(地铁站)","station_id":"成都西南财大(地铁站)_30.67299_104.01774","lineId":"成都地铁4号线","lat":30.67298897,"lon":104.01773865,"area_km2":2.3656,"D":0.6159,"C":0.9834,"T":0.3857,"U1":0.3158,"U2":0.4556,"couplingDegree":0.6159,"level":"良好协调","road_density":25.1243,"walk_accessibility":0.4743,"metro_line_density":3.3614,"station_count":4,"line_count":2,"population_density":28700.3558,"poi_density":2.1136,"poi_diversity":1.6094,"gdp_density":105779.536,"P":28700.3558,"I":2.1136,"G":105779.536},{"stationName":"成都文化宫(地铁站)","station_id":"成都文化宫(地铁站)_30.67437_104.00708","lineId":"成都地铁4号线 / 成都地铁7号线","lat":30.67437221,"lon":104.007083225,"area_km2":2.6628,"D":0.6771,"C":0.9987,"T":0.4591,"U1":0.4821,"U2":0.4361,"couplingDegree":0.6771,"level":"良好协调","road_density":24.5464,"walk_accessibility":0.5339,"metro_line_density":4.1158,"station_count":5,"line_count":3,"population_density":14545.5607,"poi_density":3.3799,"poi_diversity":2.0432,"gdp_density":93972.3139,"P":14545.5607,"I":3.3799,"G":93972.3139},{"stationName":"成都清江西路(地铁站)","station_id":"成都清江西路(地铁站)_30.67918_103.99629","lineId":"成都地铁4号线","lat":30.679184735,"lon":103.99628643,"area_km2":2.4313,"D":0.3797,"C":0.9156,"T":0.1575,"U1":0.2207,"U2":0.0942,"couplingDegree":0.3797,"level":"中度失调","road_density":24.274,"walk_accessibility":0.4875,"metro_line_density":2.973,"station_count":2,"line_count":2,"population_density":15292.7113,"poi_density":2.0565,"poi_diversity":1.0549,"gdp_density":0.0,"P":15292.7113,"I":2.0565,"G":0.0},{"stationName":"成都成都西站(地铁站)","station_id":"成都成都西站(地铁站)_30.68650_103.97376","lineId":"成都地铁4号线 / 成都地铁9号线","lat":30.686503635,"lon":103.973755705,"area_km2":2.129,"D":0.4343,"C":0.9994,"T":0.1887,"U1":0.1823,"U2":0.1952,"couplingDegree":0.4343,"level":"勉强协调","road_density":25.5707,"walk_accessibility":0.4269,"metro_line_density":4.4181,"station_count":1,"line_count":2,"population_density":6317.563,"poi_density":11.273,"poi_diversity":2.001,"gdp_density":0.0,"P":6317.563,"I":11.273,"G":0.0},{"stationName":"成都中坝(地铁站)","station_id":"成都中坝(地铁站)_30.67617_103.96193","lineId":"成都地铁4号线","lat":30.67617114,"lon":103.96192691,"area_km2":1.7046,"D":0.3269,"C":0.721,"T":0.1482,"U1":0.0455,"U2":0.2509,"couplingDegree":0.3269,"level":"中度失调","road_density":21.109,"walk_accessibility":0.3418,"metro_line_density":2.4891,"station_count":1,"line_count":1,"population_density":5817.2342,"poi_density":0.0,"poi_diversity":0.0,"gdp_density":82706.6858,"P":5817.2342,"I":0.0,"G":82706.6858},{"stationName":"成都蔡桥(地铁站)","station_id":"成都蔡桥(地铁站)_30.67220_103.94296","lineId":"成都地铁4号线","lat":30.67219904,"lon":103.94295843,"area_km2":2.0803,"D":0.112,"C":0.4843,"T":0.0259,"U1":0.0485,"U2":0.0032,"couplingDegree":0.112,"level":"极度失调","road_density":19.5072,"walk_accessibility":0.4171,"metro_line_density":2.8113,"station_count":1,"line_count":1,"population_density":2536.1304,"poi_density":0.0,"poi_diversity":0.0,"gdp_density":0.0,"P":2536.1304,"I":0.0,"G":0.0},{"stationName":"成都非遗博览园(地铁站)","station_id":"成都非遗博览园(地铁站)_30.67684_103.92039","lineId":"成都地铁4号线","lat":30.67684068,"lon":103.92038963,"area_km2":1.4513,"D":0.3857,"C":0.8972,"T":0.1658,"U1":0.0926,"U2":0.239,"couplingDegree":0.3857,"level":"中度失调","road_density":17.9862,"walk_accessibility":0.291,"metro_line_density":3.9878,"station_count":2,"line_count":1,"population_density":946.7681,"poi_density":0.0,"poi_diversity":0.0,"gdp_density":80766.7572,"P":946.7681,"I":0.0,"G":80766.7572},{"stationName":"成都马厂坝(地铁站)","station_id":"成都马厂坝(地铁站)_30.68018_103.91172","lineId":"成都地铁4号线","lat":30.6801823,"lon":103.91172082,"area_km2":1.5366,"D":0.0997,"C":0.2268,"T":0.0438,"U1":0.0865,"U2":0.0011,"couplingDegree":0.0997,"level":"极度失调","road_density":14.919,"walk_accessibility":0.3081,"metro_line_density":3.6813,"station_count":2,"line_count":1,"population_density":894.1603,"poi_density":0.0,"poi_diversity":0.0,"gdp_density":0.0,"P":894.1603,"I":0.0,"G":0.0},{"stationName":"成都凤凰大街(地铁站)","station_id":"成都凤凰大街(地铁站)_30.67970_103.88744","lineId":"成都地铁4号线","lat":30.67970298,"lon":103.88743571,"area_km2":1.3535,"D":0.1258,"C":0.5689,"T":0.0278,"U1":0.0507,"U2":0.0049,"couplingDegree":0.1258,"level":"极度失调","road_density":20.9101,"walk_accessibility":0.2714,"metro_line_density":4.0327,"station_count":1,"line_count":1,"population_density":3866.2429,"poi_density":0.0,"poi_diversity":0.0,"gdp_density":0.0,"P":3866.2429,"I":0.0,"G":0.0},{"stationName":"成都涌泉(地铁站)","station_id":"成都涌泉(地铁站)_30.68115_103.87098","lineId":"成都地铁4号线","lat":30.6811497,"lon":103.87097941,"area_km2":1.5913,"D":0.1153,"C":0.4507,"T":0.0295,"U1":0.0558,"U2":0.0032,"couplingDegree":0.1153,"level":"极度失调","road_density":25.3045,"walk_accessibility":0.3191,"metro_line_density":3.2551,"station_count":1,"line_count":1,"population_density":2478.4123,"poi_density":0.0,"poi_diversity":0.0,"gdp_density":0.0,"P":2478.4123,"I":0.0,"G":0.0},{"stationName":"成都光华公园(地铁站)","station_id":"成都光华公园(地铁站)_30.68704_103.85845","lineId":"成都地铁4号线","lat":30.68704152,"lon":103.85844658,"area_km2":1.7659,"D":0.1713,"C":0.5393,"T":0.0544,"U1":0.1003,"U2":0.0086,"couplingDegree":0.1713,"level":"极度失调","road_density":24.1679,"walk_accessibility":0.3541,"metro_line_density":3.0035,"station_count":2,"line_count":1,"population_density":3987.2261,"poi_density":0.5663,"poi_diversity":0.0,"gdp_density":0.0,"P":3987.2261,"I":0.5663,"G":0.0},{"stationName":"成都南熏大道(地铁站)","station_id":"成都南熏大道(地铁站)_30.69228_103.84966","lineId":"成都地铁4号线","lat":30.69227966,"lon":103.84965866,"area_km2":1.7384,"D":0.2917,"C":0.886,"T":0.096,"U1":0.1405,"U2":0.0515,"couplingDegree":0.2917,"level":"中度失调","road_density":21.1846,"walk_accessibility":0.3486,"metro_line_density":2.9136,"station_count":3,"line_count":1,"population_density":2891.6906,"poi_density":1.1505,"poi_diversity":0.6931,"gdp_density":0.0,"P":2891.6906,"I":1.1505,"G":0.0},{"stationName":"成都凤溪河(地铁站)","station_id":"成都凤溪河(地铁站)_30.68881_103.84091","lineId":"成都地铁4号线","lat":30.68880503,"lon":103.84090562,"area_km2":1.6906,"D":0.2182,"C":0.8164,"T":0.0583,"U1":0.092,"U2":0.0246,"couplingDegree":0.2182,"level":"中度失调","road_density":18.7123,"walk_accessibility":0.339,"metro_line_density":3.274,"station_count":2,"line_count":1,"population_density":16435.1759,"poi_density":0.5915,"poi_diversity":0.0,"gdp_density":0.0,"P":16435.1759,"I":0.5915,"G":0.0},{"stationName":"成都杨柳河(地铁站)","station_id":"成都杨柳河(地铁站)_30.68358_103.82894","lineId":"成都地铁4号线","lat":30.68358179,"lon":103.8289404,"area_km2":2.501,"D":0.2494,"C":0.9675,"T":0.0643,"U1":0.048,"U2":0.0805,"couplingDegree":0.2494,"level":"中度失调","road_density":19.5139,"walk_accessibility":0.5014,"metro_line_density":1.9926,"station_count":1,"line_count":1,"population_density":6768.5303,"poi_density":1.1995,"poi_diversity":1.0986,"gdp_density":0.0,"P":6768.5303,"I":1.1995,"G":0.0},{"stationName":"成都万盛(地铁站)","station_id":"成都万盛(地铁站)_30.67801_103.81670","lineId":"成都地铁4号线","lat":30.67801303,"lon":103.81670294,"area_km2":2.0766,"D":0.1029,"C":0.5217,"T":0.0203,"U1":0.0376,"U2":0.003,"couplingDegree":0.1029,"level":"极度失调","road_density":18.4856,"walk_accessibility":0.4164,"metro_line_density":1.2395,"station_count":1,"line_count":1,"population_density":2333.5831,"poi_density":0.0,"poi_diversity":0.0,"gdp_density":0.0,"P":2333.5831,"I":0.0,"G":0.0},{"stationName":"成都秦皇寺(地铁站)","station_id":"成都秦皇寺(地铁站)_30.42699_104.05935","lineId":"成都地铁6号线 / 成都成都S5号线(眉山线)(红莲--眉山东站)","lat":30.426986755,"lon":104.05934739,"area_km2":1.9963,"D":0.1623,"C":0.2883,"T":0.0914,"U1":0.1789,"U2":0.0039,"couplingDegree":0.1623,"level":"极度失调","road_density":25.1765,"walk_accessibility":0.4002,"metro_line_density":4.1939,"station_count":1,"line_count":2,"population_density":614.1414,"poi_density":0.5009,"poi_diversity":0.0,"gdp_density":0.0,"P":614.1414,"I":0.5009,"G":0.0},{"stationName":"成都华桂路(地铁站)","station_id":"成都华桂路(地铁站)_30.82744_104.09576","lineId":"成都地铁5号线","lat":30.82744126,"lon":104.09576454,"area_km2":0.9311,"D":0.16,"C":0.5567,"T":0.046,"U1":0.0842,"U2":0.0078,"couplingDegree":0.16,"level":"极度失调","road_density":19.9325,"walk_accessibility":0.1867,"metro_line_density":2.9053,"station_count":2,"line_count":1,"population_density":896.8103,"poi_density":1.074,"poi_diversity":0.0,"gdp_density":0.0,"P":896.8103,"I":1.074,"G":0.0},{"stationName":"成都柏水场(地铁站)","station_id":"成都柏水场(地铁站)_30.81783_104.09168","lineId":"成都地铁5号线","lat":30.81782722,"lon":104.0916845,"area_km2":1.6952,"D":0.1705,"C":0.3979,"T":0.0731,"U1":0.1401,"U2":0.006,"couplingDegree":0.1705,"level":"极度失调","road_density":19.7034,"walk_accessibility":0.3399,"metro_line_density":3.3328,"station_count":3,"line_count":1,"population_density":1868.7851,"poi_density":0.5899,"poi_diversity":0.0,"gdp_density":0.0,"P":1868.7851,"I":0.5899,"G":0.0},{"stationName":"成都廖家湾(地铁站)","station_id":"成都廖家湾(地铁站)_30.81069_104.08841","lineId":"成都地铁5号线","lat":30.81068565,"lon":104.0884137,"area_km2":1.908,"D":0.3304,"C":0.989,"T":0.1104,"U1":0.0941,"U2":0.1267,"couplingDegree":0.3304,"level":"中度失调","road_density":18.9116,"walk_accessibility":0.3826,"metro_line_density":3.1926,"station_count":2,"line_count":1,"population_density":1660.356,"poi_density":3.1446,"poi_diversity":1.7918,"gdp_density":0.0,"P":1660.356,"I":3.1446,"G":0.0},{"stationName":"成都北部商贸城(地铁站)","station_id":"成都北部商贸城(地铁站)_30.79342_104.08642","lineId":"成都地铁5号线","lat":30.79342341,"lon":104.08641729,"area_km2":1.2436,"D":0.0917,"C":0.4345,"T":0.0193,"U1":0.0368,"U2":0.0019,"couplingDegree":0.0917,"level":"极度失调","road_density":17.8773,"walk_accessibility":0.2493,"metro_line_density":2.7114,"station_count":1,"line_count":1,"population_density":1504.462,"poi_density":0.0,"poi_diversity":0.0,"gdp_density":0.0,"P":1504.462,"I":0.0,"G":0.0},{"stationName":"成都幸福桥(地铁站)","station_id":"成都幸福桥(地铁站)_30.77929_104.08572","lineId":"成都地铁5号线","lat":30.77929324,"lon":104.08571958,"area_km2":1.7752,"D":0.1578,"C":0.5265,"T":0.0473,"U1":0.0875,"U2":0.0071,"couplingDegree":0.1578,"level":"极度失调","road_density":20.9285,"walk_accessibility":0.3559,"metro_line_density":1.7309,"station_count":2,"line_count":1,"population_density":2822.2,"poi_density":0.5633,"poi_diversity":0.0,"gdp_density":0.0,"P":2822.2,"I":0.5633,"G":0.0},{"stationName":"成都九道堰(凤凰山体育公园东)(地铁站)","station_id":"成都九道堰(凤凰山体育公园东)(地铁站)_30.77394_104.08036","lineId":"成都地铁5号线","lat":30.77393662,"lon":104.0803578,"area_km2":1.6513,"D":0.176,"C":0.2358,"T":0.1313,"U1":0.259,"U2":0.0037,"couplingDegree":0.176,"level":"极度失调","road_density":25.6103,"walk_accessibility":0.3311,"metro_line_density":2.6106,"station_count":3,"line_count":2,"population_density":2899.5697,"poi_density":0.0,"poi_diversity":0.0,"gdp_density":0.0,"P":2899.5697,"I":0.0,"G":0.0},{"stationName":"成都杜家碾(凤凰山体育公园西)(地铁站)","station_id":"成都杜家碾(凤凰山体育公园西)(地铁站)_30.77377_104.07278","lineId":"成都地铁5号线 / 成都成都S11号线(德阳线)(韦家碾--德阳北站)","lat":30.773771495,"lon":104.072777055,"area_km2":1.2944,"D":0.1695,"C":0.1968,"T":0.1459,"U1":0.289,"U2":0.0029,"couplingDegree":0.1695,"level":"极度失调","road_density":28.7789,"walk_accessibility":0.2595,"metro_line_density":7.4528,"station_count":3,"line_count":2,"population_density":2234.2187,"poi_density":0.0,"poi_diversity":0.0,"gdp_density":0.0,"P":2234.2187,"I":0.0,"G":0.0},{"stationName":"成都大丰(地铁站)","station_id":"成都大丰(地铁站)_30.77398_104.06260","lineId":"成都地铁5号线","lat":30.77398217,"lon":104.06259667,"area_km2":1.9866,"D":0.3216,"C":0.7937,"T":0.1303,"U1":0.2096,"U2":0.051,"couplingDegree":0.3216,"level":"中度失调","road_density":21.4234,"walk_accessibility":0.3983,"metro_line_density":2.6537,"station_count":2,"line_count":2,"population_density":3244.2688,"poi_density":1.0068,"poi_diversity":0.6931,"gdp_density":0.0,"P":3244.2688,"I":1.0068,"G":0.0},{"stationName":"成都石犀公园(地铁站)","station_id":"成都石犀公园(地铁站)_30.76266_104.05727","lineId":"成都地铁5号线","lat":30.76266028,"lon":104.05726891,"area_km2":2.1961,"D":0.2737,"C":0.9722,"T":0.0771,"U1":0.0951,"U2":0.059,"couplingDegree":0.2737,"level":"中度失调","road_density":23.3173,"walk_accessibility":0.4403,"metro_line_density":1.6225,"station_count":2,"line_count":1,"population_density":9949.4802,"poi_density":0.9107,"poi_diversity":0.6931,"gdp_density":0.0,"P":9949.4802,"I":0.9107,"G":0.0},{"stationName":"成都皇花园(地铁站)","station_id":"成都皇花园(地铁站)_30.75472_104.05722","lineId":"成都地铁5号线","lat":30.75471737,"lon":104.05722109,"area_km2":1.7232,"D":0.2139,"C":0.5978,"T":0.0765,"U1":0.1379,"U2":0.0152,"couplingDegree":0.2139,"level":"中度失调","road_density":21.4375,"walk_accessibility":0.3455,"metro_line_density":2.4114,"station_count":3,"line_count":1,"population_density":9078.9234,"poi_density":0.5803,"poi_diversity":0.0,"gdp_density":0.0,"P":9078.9234,"I":0.5803,"G":0.0},{"stationName":"成都陆家桥(地铁站)","station_id":"成都陆家桥(地铁站)_30.74441_104.05657","lineId":"成都地铁5号线","lat":30.744414135,"lon":104.056574765,"area_km2":1.1586,"D":0.2025,"C":0.8291,"T":0.0495,"U1":0.0771,"U2":0.0218,"couplingDegree":0.2025,"level":"中度失调","road_density":18.6468,"walk_accessibility":0.2323,"metro_line_density":1.6712,"station_count":2,"line_count":1,"population_density":12901.0655,"poi_density":0.8631,"poi_diversity":0.0,"gdp_density":0.0,"P":12901.0655,"I":0.8631,"G":0.0},{"stationName":"成都泉水路(地铁站)","station_id":"成都泉水路(地铁站)_30.73277_104.05588","lineId":"成都地铁5号线","lat":30.73276842,"lon":104.05587875,"area_km2":1.5393,"D":0.2619,"C":0.588,"T":0.1166,"U1":0.211,"U2":0.0223,"couplingDegree":0.2619,"level":"中度失调","road_density":22.3681,"walk_accessibility":0.3086,"metro_line_density":3.3865,"station_count":2,"line_count":2,"population_density":17455.4984,"poi_density":0.0,"poi_diversity":0.0,"gdp_density":0.0,"P":17455.4984,"I":0.0,"G":0.0},{"stationName":"成都洞子口(地铁站)","station_id":"成都洞子口(地铁站)_30.72422_104.05656","lineId":"成都地铁27号线 / 成都地铁5号线","lat":30.724219356666666,"lon":104.05656139333333,"area_km2":2.2725,"D":0.3535,"C":0.7401,"T":0.1689,"U1":0.2825,"U2":0.0553,"couplingDegree":0.3535,"level":"中度失调","road_density":27.0444,"walk_accessibility":0.4556,"metro_line_density":5.1389,"station_count":3,"line_count":2,"population_density":7195.5304,"poi_density":0.8801,"poi_diversity":0.6931,"gdp_density":0.0,"P":7195.5304,"I":0.8801,"G":0.0},{"stationName":"成都福宁路(地铁站)","station_id":"成都福宁路(地铁站)_30.71694_104.05733","lineId":"成都地铁5号线","lat":30.71694134,"lon":104.05732857,"area_km2":1.7132,"D":0.3684,"C":0.8042,"T":0.1687,"U1":0.269,"U2":0.0684,"couplingDegree":0.3684,"level":"中度失调","road_density":24.1347,"walk_accessibility":0.3435,"metro_line_density":4.6363,"station_count":3,"line_count":2,"population_density":16092.8318,"poi_density":1.1674,"poi_diversity":0.6931,"gdp_density":0.0,"P":16092.8318,"I":1.1674,"G":0.0},{"stationName":"成都五块石(地铁站)","station_id":"成都五块石(地铁站)_30.70978_104.06205","lineId":"成都地铁5号线","lat":30.70977973,"lon":104.06204724,"area_km2":1.8942,"D":0.3149,"C":0.9393,"T":0.1055,"U1":0.1417,"U2":0.0693,"couplingDegree":0.3149,"level":"中度失调","road_density":20.5044,"walk_accessibility":0.3798,"metro_line_density":3.0446,"station_count":3,"line_count":1,"population_density":17326.4876,"poi_density":1.0559,"poi_diversity":0.6931,"gdp_density":0.0,"P":17326.4876,"I":1.0559,"G":0.0},{"stationName":"成都赛云台(地铁站)","station_id":"成都赛云台(地铁站)_30.70300_104.06399","lineId":"成都地铁5号线","lat":30.7030014,"lon":104.0639932,"area_km2":1.7468,"D":0.5128,"C":0.7476,"T":0.3518,"U1":0.5854,"U2":0.1181,"couplingDegree":0.5128,"level":"勉强协调","road_density":22.1003,"walk_accessibility":0.3502,"metro_line_density":4.6142,"station_count":5,"line_count":4,"population_density":33636.0387,"poi_density":2.2898,"poi_diversity":1.0397,"gdp_density":0.0,"P":33636.0387,"I":2.2898,"G":0.0},{"stationName":"成都北站西二路(地铁站)","station_id":"成都北站西二路(地铁站)_30.69659_104.06371","lineId":"成都地铁5号线 / 成都地铁7号线","lat":30.696590954999998,"lon":104.06370926,"area_km2":2.3794,"D":0.6249,"C":0.8152,"T":0.479,"U1":0.7564,"U2":0.2016,"couplingDegree":0.6249,"level":"良好协调","road_density":21.3179,"walk_accessibility":0.4771,"metro_line_density":5.6638,"station_count":6,"line_count":5,"population_density":37167.2091,"poi_density":5.0433,"poi_diversity":2.0947,"gdp_density":0.0,"P":37167.2091,"I":5.0433,"G":0.0},{"stationName":"成都西北桥(地铁站)","station_id":"成都西北桥(地铁站)_30.68805_104.05566","lineId":"成都地铁5号线","lat":30.68805366,"lon":104.05565981,"area_km2":2.4388,"D":0.5233,"C":0.8547,"T":0.3204,"U1":0.4867,"U2":0.1541,"couplingDegree":0.5233,"level":"勉强协调","road_density":20.4635,"walk_accessibility":0.489,"metro_line_density":6.4537,"station_count":5,"line_count":3,"population_density":11792.0981,"poi_density":4.5105,"poi_diversity":1.8938,"gdp_density":0.0,"P":11792.0981,"I":4.5105,"G":0.0},{"stationName":"成都花牌坊(地铁站)","station_id":"成都花牌坊(地铁站)_30.68592_104.04537","lineId":"成都地铁5号线","lat":30.68592103,"lon":104.04537314,"area_km2":2.2722,"D":0.515,"C":0.8541,"T":0.3106,"U1":0.4721,"U2":0.149,"couplingDegree":0.515,"level":"勉强协调","road_density":20.952,"walk_accessibility":0.4556,"metro_line_density":4.1105,"station_count":5,"line_count":3,"population_density":21574.0562,"poi_density":2.6406,"poi_diversity":1.7918,"gdp_density":0.0,"P":21574.0562,"I":2.6406,"G":0.0},{"stationName":"成都抚琴(地铁站)","station_id":"成都抚琴(地铁站)_30.67977_104.03965","lineId":"成都地铁5号线","lat":30.67977185,"lon":104.0396536,"area_km2":2.9238,"D":0.6299,"C":0.9981,"T":0.3975,"U1":0.4219,"U2":0.3731,"couplingDegree":0.6299,"level":"良好协调","road_density":21.5543,"walk_accessibility":0.5862,"metro_line_density":2.0942,"station_count":4,"line_count":3,"population_density":37855.2304,"poi_density":4.1042,"poi_diversity":2.4849,"gdp_density":52140.507,"P":37855.2304,"I":4.1042,"G":52140.507},{"stationName":"成都青羊宫(地铁站)","station_id":"成都青羊宫(地铁站)_30.66173_104.03845","lineId":"成都地铁13号线 / 成都地铁5号线","lat":30.661733796666667,"lon":104.03844585,"area_km2":2.9317,"D":0.6812,"C":0.9046,"T":0.5129,"U1":0.7315,"U2":0.2943,"couplingDegree":0.6812,"level":"良好协调","road_density":24.5785,"walk_accessibility":0.5878,"metro_line_density":7.383,"station_count":5,"line_count":5,"population_density":31584.5641,"poi_density":15.3497,"poi_diversity":2.7104,"gdp_density":0.0,"P":31584.5641,"I":15.3497,"G":0.0},{"stationName":"成都省骨科医院(地铁站)","station_id":"成都省骨科医院(地铁站)_30.65424_104.03862","lineId":"成都地铁17号线 / 成都地铁5号线","lat":30.654238409999998,"lon":104.038624865,"area_km2":2.779,"D":0.6798,"C":0.8808,"T":0.5247,"U1":0.7731,"U2":0.2762,"couplingDegree":0.6798,"level":"良好协调","road_density":20.8156,"walk_accessibility":0.5572,"metro_line_density":7.97,"station_count":6,"line_count":5,"population_density":34795.3667,"poi_density":13.6737,"poi_diversity":2.509,"gdp_density":0.0,"P":34795.3667,"I":13.6737,"G":0.0},{"stationName":"成都科园(地铁站)","station_id":"成都科园(地铁站)_30.63053_104.03539","lineId":"成都地铁5号线","lat":30.63053267,"lon":104.03539309,"area_km2":2.5777,"D":0.5712,"C":0.7609,"T":0.4287,"U1":0.7068,"U2":0.1506,"couplingDegree":0.5712,"level":"勉强协调","road_density":23.564,"walk_accessibility":0.5168,"metro_line_density":4.0747,"station_count":5,"line_count":5,"population_density":34535.0571,"poi_density":1.9397,"poi_diversity":1.6094,"gdp_density":0.0,"P":34535.0571,"I":1.9397,"G":0.0},{"stationName":"成都九兴大道(地铁站)","station_id":"成都九兴大道(地铁站)_30.62383_104.03642","lineId":"成都地铁5号线 / 成都地铁8号线","lat":30.623833564999998,"lon":104.03641721,"area_km2":2.1357,"D":0.433,"C":0.7166,"T":0.2616,"U1":0.4441,"U2":0.0791,"couplingDegree":0.433,"level":"勉强协调","road_density":27.3977,"walk_accessibility":0.4282,"metro_line_density":5.5954,"station_count":4,"line_count":3,"population_density":25578.0016,"poi_density":0.9365,"poi_diversity":0.6931,"gdp_density":0.0,"P":25578.0016,"I":0.9365,"G":0.0},{"stationName":"成都神仙树(地铁站)","station_id":"成都神仙树(地铁站)_30.61215_104.04514","lineId":"成都地铁5号线 / 成都地铁7号线","lat":30.612149925,"lon":104.0451391,"area_km2":1.8548,"D":0.5685,"C":0.8589,"T":0.3763,"U1":0.1836,"U2":0.5691,"couplingDegree":0.5685,"level":"勉强协调","road_density":26.6095,"walk_accessibility":0.3719,"metro_line_density":4.8197,"station_count":1,"line_count":2,"population_density":9875.9497,"poi_density":7.0088,"poi_diversity":2.1384,"gdp_density":131650.7545,"P":9875.9497,"I":7.0088,"G":131650.7545},{"stationName":"成都石羊立交(地铁站)","station_id":"成都石羊立交(地铁站)_30.59766_104.04837","lineId":"成都地铁5号线","lat":30.59765532,"lon":104.04837103,"area_km2":1.9843,"D":0.3871,"C":0.6686,"T":0.2241,"U1":0.3908,"U2":0.0575,"couplingDegree":0.3871,"level":"中度失调","road_density":30.7502,"walk_accessibility":0.3978,"metro_line_density":3.6634,"station_count":3,"line_count":3,"population_density":8431.2554,"poi_density":1.5119,"poi_diversity":0.6365,"gdp_density":0.0,"P":8431.2554,"I":1.5119,"G":0.0},{"stationName":"成都市一医院(地铁站)","station_id":"成都市一医院(地铁站)_30.59136_104.04870","lineId":"成都地铁30号线 / 成都地铁5号线","lat":30.591362655,"lon":104.04869672000001,"area_km2":1.9615,"D":0.6177,"C":0.9497,"T":0.4018,"U1":0.276,"U2":0.5276,"couplingDegree":0.6177,"level":"良好协调","road_density":24.4628,"walk_accessibility":0.3933,"metro_line_density":5.3029,"station_count":3,"line_count":2,"population_density":10030.1472,"poi_density":3.0589,"poi_diversity":1.0114,"gdp_density":148261.0122,"P":10030.1472,"I":3.0589,"G":148261.0122},{"stationName":"成都交子大道(地铁站)","station_id":"成都交子大道(地铁站)_30.58433_104.04774","lineId":"成都地铁5号线","lat":30.58433217,"lon":104.04774073,"area_km2":2.1267,"D":0.6613,"C":0.9922,"T":0.4407,"U1":0.3858,"U2":0.4957,"couplingDegree":0.6613,"level":"良好协调","road_density":23.7849,"walk_accessibility":0.4264,"metro_line_density":4.5338,"station_count":3,"line_count":3,"population_density":13021.202,"poi_density":2.3511,"poi_diversity":1.0549,"gdp_density":136744.2506,"P":13021.202,"I":2.3511,"G":136744.2506},{"stationName":"成都锦城大道(地铁站)","station_id":"成都锦城大道(地铁站)_30.57721_104.04786","lineId":"成都地铁5号线 / 成都地铁9号线","lat":30.577205445,"lon":104.04786006500001,"area_km2":2.5142,"D":0.5516,"C":0.9666,"T":0.3147,"U1":0.2341,"U2":0.3953,"couplingDegree":0.5516,"level":"勉强协调","road_density":27.5987,"walk_accessibility":0.5041,"metro_line_density":4.1666,"station_count":2,"line_count":2,"population_density":7171.8069,"poi_density":0.7955,"poi_diversity":0.6931,"gdp_density":115670.0972,"P":7171.8069,"I":0.7955,"G":115670.0972},{"stationName":"成都锦城湖(地铁站)","station_id":"成都锦城湖(地铁站)_30.56625_104.04368","lineId":"成都地铁5号线","lat":30.56625285,"lon":104.04367672,"area_km2":2.6615,"D":0.2343,"C":0.9975,"T":0.055,"U1":0.0589,"U2":0.0511,"couplingDegree":0.2343,"level":"中度失调","road_density":25.5097,"walk_accessibility":0.5336,"metro_line_density":1.8732,"station_count":1,"line_count":1,"population_density":4533.4755,"poi_density":0.7514,"poi_diversity":0.6931,"gdp_density":0.0,"P":4533.4755,"I":0.7514,"G":0.0},{"stationName":"成都大源(地铁站)","station_id":"成都大源(地铁站)_30.55232_104.04377","lineId":"成都地铁5号线","lat":30.55232448,"lon":104.04376832,"area_km2":2.0374,"D":0.4796,"C":0.7289,"T":0.3156,"U1":0.0995,"U2":0.5317,"couplingDegree":0.4796,"level":"勉强协调","road_density":23.6906,"walk_accessibility":0.4085,"metro_line_density":2.5425,"station_count":2,"line_count":1,"population_density":2484.5414,"poi_density":6.8715,"poi_diversity":2.1066,"gdp_density":123082.4753,"P":2484.5414,"I":6.8715,"G":123082.4753},{"stationName":"成都民乐(地铁站)","station_id":"成都民乐(地铁站)_30.54285_104.04406","lineId":"成都地铁5号线","lat":30.54285006,"lon":104.04406351,"area_km2":2.3823,"D":0.267,"C":0.9464,"T":0.0753,"U1":0.0997,"U2":0.051,"couplingDegree":0.267,"level":"中度失调","road_density":22.044,"walk_accessibility":0.4776,"metro_line_density":2.4358,"station_count":2,"line_count":1,"population_density":4019.6362,"poi_density":0.8395,"poi_diversity":0.6931,"gdp_density":0.0,"P":4019.6362,"I":0.8395,"G":0.0},{"stationName":"成都骑龙(地铁站)","station_id":"成都骑龙(地铁站)_30.52808_104.04190","lineId":"成都地铁5号线","lat":30.52807542,"lon":104.04189533,"area_km2":2.1286,"D":0.2199,"C":0.9991,"T":0.0484,"U1":0.0505,"U2":0.0463,"couplingDegree":0.2199,"level":"中度失调","road_density":20.7202,"walk_accessibility":0.4268,"metro_line_density":2.7187,"station_count":1,"line_count":1,"population_density":3745.1452,"poi_density":0.4698,"poi_diversity":0.0,"gdp_density":13113.176,"P":3745.1452,"I":0.4698,"G":13113.176},{"stationName":"成都警官学院(地铁站)","station_id":"成都警官学院(地铁站)_30.51483_104.03725","lineId":"成都地铁5号线","lat":30.51482975,"lon":104.03725331,"area_km2":2.3023,"D":0.1303,"C":0.5878,"T":0.0289,"U1":0.0523,"U2":0.0055,"couplingDegree":0.1303,"level":"极度失调","road_density":21.6249,"walk_accessibility":0.4616,"metro_line_density":2.4625,"station_count":1,"line_count":1,"population_density":2217.7797,"poi_density":0.4343,"poi_diversity":0.0,"gdp_density":0.0,"P":2217.7797,"I":0.4343,"G":0.0},{"stationName":"成都二江寺(地铁站)","station_id":"成都二江寺(地铁站)_30.50215_104.03330","lineId":"成都地铁5号线","lat":30.5021541,"lon":104.03330269,"area_km2":1.4704,"D":0.1097,"C":0.4323,"T":0.0278,"U1":0.0529,"U2":0.0027,"couplingDegree":0.1097,"level":"极度失调","road_density":22.1664,"walk_accessibility":0.2948,"metro_line_density":3.8614,"station_count":1,"line_count":1,"population_density":2141.5422,"poi_density":0.0,"poi_diversity":0.0,"gdp_density":0.0,"P":2141.5422,"I":0.0,"G":0.0},{"stationName":"成都南湖立交(地铁站)","station_id":"成都南湖立交(地铁站)_30.49102_104.03069","lineId":"成都地铁5号线","lat":30.49101985,"lon":104.03069021,"area_km2":1.5911,"D":0.1015,"C":0.3642,"T":0.0283,"U1":0.0547,"U2":0.0019,"couplingDegree":0.1015,"level":"极度失调","road_density":23.8865,"walk_accessibility":0.319,"metro_line_density":3.4596,"station_count":1,"line_count":1,"population_density":1522.2043,"poi_density":0.0,"poi_diversity":0.0,"gdp_density":0.0,"P":1522.2043,"I":0.0,"G":0.0},{"stationName":"成都怡心湖(地铁站)","station_id":"成都怡心湖(地铁站)_30.47376_104.02439","lineId":"成都地铁5号线","lat":30.47375577,"lon":104.02439132,"area_km2":1.5513,"D":0.1052,"C":0.4217,"T":0.0262,"U1":0.05,"U2":0.0024,"couplingDegree":0.1052,"level":"极度失调","road_density":21.4471,"walk_accessibility":0.311,"metro_line_density":3.4341,"station_count":1,"line_count":1,"population_density":1917.0567,"poi_density":0.0,"poi_diversity":0.0,"gdp_density":0.0,"P":1917.0567,"I":0.0,"G":0.0},{"stationName":"成都龙马路(地铁站)","station_id":"成都龙马路(地铁站)_30.46024_104.01717","lineId":"成都地铁5号线","lat":30.46024398,"lon":104.01716514,"area_km2":1.3551,"D":0.2145,"C":0.9947,"T":0.0463,"U1":0.051,"U2":0.0415,"couplingDegree":0.2145,"level":"中度失调","road_density":22.3193,"walk_accessibility":0.2717,"metro_line_density":3.6956,"station_count":1,"line_count":1,"population_density":6465.9519,"poi_density":0.0,"poi_diversity":0.0,"gdp_density":11289.9565,"P":6465.9519,"I":0.0,"G":11289.9565},{"stationName":"成都回龙(地铁站)","station_id":"成都回龙(地铁站)_30.44694_104.00983","lineId":"成都地铁5号线 / 成都地铁6号线","lat":30.446944759999997,"lon":104.00982760666666,"area_km2":0.6882,"D":0.0,"C":0.0,"T":0.0948,"U1":0.1895,"U2":0.0,"couplingDegree":0.0,"level":"极度失调","road_density":33.9535,"walk_accessibility":0.138,"metro_line_density":5.7698,"station_count":1,"line_count":2,"population_density":0.0,"poi_density":0.0,"poi_diversity":0.0,"gdp_density":0.0,"P":0.0,"I":0.0,"G":0.0},{"stationName":"成都兰家沟(地铁站)","station_id":"成都兰家沟(地铁站)_30.44595_103.99433","lineId":"成都地铁6号线","lat":30.445954685,"lon":103.994328395,"area_km2":1.0741,"D":0.0,"C":0.0,"T":0.0191,"U1":0.0381,"U2":0.0,"couplingDegree":0.0,"level":"极度失调","road_density":25.9439,"walk_accessibility":0.2153,"metro_line_density":0.9456,"station_count":1,"line_count":1,"population_density":0.0,"poi_density":0.0,"poi_diversity":0.0,"gdp_density":0.0,"P":0.0,"I":0.0,"G":0.0},{"stationName":"成都钓鱼嘴(地铁站)","station_id":"成都钓鱼嘴(地铁站)_30.43898_104.03013","lineId":"成都地铁6号线","lat":30.43898364,"lon":104.03012568,"area_km2":1.0095,"D":0.1213,"C":0.3733,"T":0.0394,"U1":0.076,"U2":0.0028,"couplingDegree":0.1213,"level":"极度失调","road_density":14.0606,"walk_accessibility":0.2024,"metro_line_density":3.0363,"station_count":2,"line_count":1,"population_density":2230.7839,"poi_density":0.0,"poi_diversity":0.0,"gdp_density":0.0,"P":2230.7839,"I":0.0,"G":0.0},{"stationName":"成都芦角(地铁站)","station_id":"成都芦角(地铁站)_30.43413_104.03529","lineId":"成都地铁6号线","lat":30.43412799,"lon":104.03528777,"area_km2":0.9251,"D":0.2982,"C":0.904,"T":0.0984,"U1":0.1404,"U2":0.0563,"couplingDegree":0.2982,"level":"中度失调","road_density":16.7051,"walk_accessibility":0.1855,"metro_line_density":5.5796,"station_count":3,"line_count":1,"population_density":2434.4571,"poi_density":0.0,"poi_diversity":0.0,"gdp_density":18069.2495,"P":2434.4571,"I":0.0,"G":18069.2495},{"stationName":"成都松林(地铁站)","station_id":"成都松林(地铁站)_30.42836_104.04413","lineId":"成都地铁6号线","lat":30.42835819,"lon":104.0441273,"area_km2":1.4398,"D":0.2395,"C":0.8911,"T":0.0644,"U1":0.0936,"U2":0.0352,"couplingDegree":0.2395,"level":"中度失调","road_density":18.9069,"walk_accessibility":0.2887,"metro_line_density":3.9255,"station_count":2,"line_count":1,"population_density":773.7141,"poi_density":0.0,"poi_diversity":0.0,"gdp_density":11609.1843,"P":773.7141,"I":0.0,"G":11609.1843},{"stationName":"成都西博城(地铁站)","station_id":"成都西博城(地铁站)_30.42725_104.07332","lineId":"成都地铁6号线","lat":30.42724928,"lon":104.07331567,"area_km2":2.2801,"D":0.2449,"C":0.8215,"T":0.073,"U1":0.1146,"U2":0.0314,"couplingDegree":0.2449,"level":"中度失调","road_density":32.4526,"walk_accessibility":0.4572,"metro_line_density":2.2139,"station_count":2,"line_count":1,"population_density":1068.3681,"poi_density":0.8771,"poi_diversity":0.0,"gdp_density":8353.0951,"P":1068.3681,"I":0.8771,"G":8353.0951},{"stationName":"成都天府商务区(地铁站)","station_id":"成都天府商务区(地铁站)_30.43249_104.08373","lineId":"成都地铁6号线","lat":30.43249314,"lon":104.08373358,"area_km2":2.6624,"D":0.2423,"C":0.6785,"T":0.0865,"U1":0.1501,"U2":0.023,"couplingDegree":0.2423,"level":"中度失调","road_density":24.1498,"walk_accessibility":0.5338,"metro_line_density":2.0998,"station_count":3,"line_count":1,"population_density":1482.5125,"poi_density":0.0,"poi_diversity":0.0,"gdp_density":7153.7706,"P":1482.5125,"I":0.0,"G":7153.7706},{"stationName":"成都杭州路(地铁站)","station_id":"成都杭州路(地铁站)_30.44136_104.08680","lineId":"成都地铁6号线","lat":30.44136244,"lon":104.08679869,"area_km2":2.5371,"D":0.1206,"C":0.1946,"T":0.0748,"U1":0.1482,"U2":0.0014,"couplingDegree":0.1206,"level":"极度失调","road_density":25.002,"walk_accessibility":0.5087,"metro_line_density":1.7518,"station_count":3,"line_count":1,"population_density":1119.7934,"poi_density":0.0,"poi_diversity":0.0,"gdp_density":0.0,"P":1119.7934,"I":0.0,"G":0.0},{"stationName":"成都昌公堰(地铁站)","station_id":"成都昌公堰(地铁站)_30.45094_104.09181","lineId":"成都地铁6号线","lat":30.45093942,"lon":104.09181365,"area_km2":2.1764,"D":0.1156,"C":0.272,"T":0.0491,"U1":0.0964,"U2":0.0019,"couplingDegree":0.1156,"level":"极度失调","road_density":23.1046,"walk_accessibility":0.4364,"metro_line_density":1.9418,"station_count":2,"line_count":1,"population_density":1450.5606,"poi_density":0.0,"poi_diversity":0.0,"gdp_density":0.0,"P":1450.5606,"I":0.0,"G":0.0},{"stationName":"成都青岛路(法务区)(地铁站)","station_id":"成都青岛路(法务区)(地铁站)_30.46137_104.09944","lineId":"成都地铁6号线","lat":30.46136641,"lon":104.09943805,"area_km2":2.3905,"D":0.2142,"C":0.798,"T":0.0575,"U1":0.0922,"U2":0.0229,"couplingDegree":0.2142,"level":"中度失调","road_density":18.2257,"walk_accessibility":0.4793,"metro_line_density":2.2276,"station_count":2,"line_count":1,"population_density":1451.5771,"poi_density":0.0,"poi_diversity":0.0,"gdp_density":7131.9704,"P":1451.5771,"I":0.0,"G":7131.9704},{"stationName":"成都沈阳路(地铁站)","station_id":"成都沈阳路(地铁站)_30.46981_104.09897","lineId":"成都地铁6号线","lat":30.46981277,"lon":104.09897033,"area_km2":2.5345,"D":0.2128,"C":0.784,"T":0.0578,"U1":0.0936,"U2":0.0219,"couplingDegree":0.2128,"level":"中度失调","road_density":18.8146,"walk_accessibility":0.5082,"metro_line_density":2.0642,"station_count":2,"line_count":1,"population_density":1648.0265,"poi_density":0.0,"poi_diversity":0.0,"gdp_density":6726.6467,"P":1648.0265,"I":0.0,"G":6726.6467},{"stationName":"成都麓山大道(地铁站)","station_id":"成都麓山大道(地铁站)_30.48549_104.10088","lineId":"成都地铁6号线","lat":30.48548747,"lon":104.10088368,"area_km2":1.7746,"D":0.1408,"C":0.6619,"T":0.03,"U1":0.0524,"U2":0.0075,"couplingDegree":0.1408,"level":"极度失调","road_density":22.0879,"walk_accessibility":0.3558,"metro_line_density":3.2689,"station_count":1,"line_count":1,"population_density":3147.1346,"poi_density":0.5635,"poi_diversity":0.0,"gdp_density":0.0,"P":3147.1346,"I":0.5635,"G":0.0},{"stationName":"成都万安(地铁站)","station_id":"成都万安(地铁站)_30.49732_104.09692","lineId":"成都地铁6号线","lat":30.49732111,"lon":104.09691573,"area_km2":1.9758,"D":0.1099,"C":0.2622,"T":0.046,"U1":0.0904,"U2":0.0016,"couplingDegree":0.1099,"level":"极度失调","road_density":17.5964,"walk_accessibility":0.3961,"metro_line_density":2.829,"station_count":2,"line_count":1,"population_density":1261.2515,"poi_density":0.0,"poi_diversity":0.0,"gdp_density":0.0,"P":1261.2515,"I":0.0,"G":0.0},{"stationName":"成都蒲草塘(地铁站)","station_id":"成都蒲草塘(地铁站)_30.50409_104.09592","lineId":"成都地铁6号线","lat":30.504088905,"lon":104.09591516500001,"area_km2":2.1351,"D":0.1024,"C":0.1533,"T":0.0684,"U1":0.1359,"U2":0.0008,"couplingDegree":0.1024,"level":"极度失调","road_density":17.2023,"walk_accessibility":0.4281,"metro_line_density":2.5688,"station_count":3,"line_count":1,"population_density":632.772,"poi_density":0.0,"poi_diversity":0.0,"gdp_density":0.0,"P":632.772,"I":0.0,"G":0.0},{"stationName":"成都龙灯山(地铁站)","station_id":"成都龙灯山(地铁站)_30.51148_104.09868","lineId":"成都地铁6号线","lat":30.51147575,"lon":104.09867639000001,"area_km2":2.331,"D":0.1167,"C":0.1916,"T":0.0711,"U1":0.1409,"U2":0.0013,"couplingDegree":0.1167,"level":"极度失调","road_density":19.6053,"walk_accessibility":0.4674,"metro_line_density":2.405,"station_count":3,"line_count":1,"population_density":1031.7394,"poi_density":0.0,"poi_diversity":0.0,"gdp_density":0.0,"P":1031.7394,"I":0.0,"G":0.0},{"stationName":"成都新川路(地铁站)","station_id":"成都新川路(地铁站)_30.51811_104.09797","lineId":"成都地铁6号线","lat":30.51811456,"lon":104.0979665,"area_km2":2.5075,"D":0.115,"C":0.186,"T":0.0711,"U1":0.141,"U2":0.0012,"couplingDegree":0.115,"level":"极度失调","road_density":19.1615,"walk_accessibility":0.5028,"metro_line_density":2.2312,"station_count":3,"line_count":1,"population_density":971.8736,"poi_density":0.0,"poi_diversity":0.0,"gdp_density":0.0,"P":971.8736,"I":0.0,"G":0.0},{"stationName":"成都新通大道(地铁站)","station_id":"成都新通大道(地铁站)_30.52438_104.09591","lineId":"成都地铁6号线","lat":30.52437624,"lon":104.09590883,"area_km2":2.8014,"D":0.2242,"C":0.6363,"T":0.079,"U1":0.1399,"U2":0.018,"couplingDegree":0.2242,"level":"中度失调","road_density":17.882,"walk_accessibility":0.5617,"metro_line_density":1.9028,"station_count":3,"line_count":1,"population_density":875.6355,"poi_density":0.0,"poi_diversity":0.0,"gdp_density":5749.6373,"P":875.6355,"I":0.0,"G":5749.6373},{"stationName":"成都观东(地铁站)","station_id":"成都观东(地铁站)_30.53337_104.09584","lineId":"成都地铁6号线","lat":30.53336678,"lon":104.09583687,"area_km2":2.0971,"D":0.1214,"C":0.2107,"T":0.0699,"U1":0.1383,"U2":0.0016,"couplingDegree":0.1214,"level":"极度失调","road_density":18.5371,"walk_accessibility":0.4205,"metro_line_density":2.6557,"station_count":3,"line_count":1,"population_density":1228.8222,"poi_density":0.0,"poi_diversity":0.0,"gdp_density":0.0,"P":1228.8222,"I":0.0,"G":0.0},{"stationName":"成都陆肖(地铁站)","station_id":"成都陆肖(地铁站)_30.54024_104.09583","lineId":"成都地铁6号线","lat":30.54024028,"lon":104.09582869,"area_km2":2.2993,"D":0.1254,"C":0.3211,"T":0.049,"U1":0.0954,"U2":0.0026,"couplingDegree":0.1254,"level":"极度失调","road_density":19.8165,"walk_accessibility":0.461,"metro_line_density":2.4847,"station_count":2,"line_count":1,"population_density":2031.4804,"poi_density":0.0,"poi_diversity":0.0,"gdp_density":0.0,"P":2031.4804,"I":0.0,"G":0.0},{"stationName":"成都张家寺(地铁站)","station_id":"成都张家寺(地铁站)_30.55257_104.09584","lineId":"成都地铁6号线","lat":30.552574375,"lon":104.09584287,"area_km2":2.4043,"D":0.1128,"C":0.2457,"T":0.0518,"U1":0.102,"U2":0.0016,"couplingDegree":0.1128,"level":"极度失调","road_density":23.3935,"walk_accessibility":0.4821,"metro_line_density":2.4133,"station_count":2,"line_count":1,"population_density":1243.5957,"poi_density":0.0,"poi_diversity":0.0,"gdp_density":0.0,"P":1243.5957,"I":0.0,"G":0.0},{"stationName":"成都中和(地铁站)","station_id":"成都中和(地铁站)_30.56099_104.09354","lineId":"成都地铁6号线","lat":30.56099405,"lon":104.09353615,"area_km2":2.0036,"D":0.1466,"C":0.4584,"T":0.0469,"U1":0.0885,"U2":0.0052,"couplingDegree":0.1466,"level":"极度失调","road_density":17.9773,"walk_accessibility":0.4017,"metro_line_density":2.3431,"station_count":2,"line_count":1,"population_density":4082.2342,"poi_density":0.0,"poi_diversity":0.0,"gdp_density":0.0,"P":4082.2342,"I":0.0,"G":0.0},{"stationName":"成都金融城东(地铁站)","station_id":"成都金融城东(地铁站)_30.58177_104.08233","lineId":"成都地铁6号线 / 成都地铁9号线","lat":30.581768843333332,"lon":104.08232776666667,"area_km2":2.9427,"D":0.4726,"C":0.9987,"T":0.2236,"U1":0.2349,"U2":0.2124,"couplingDegree":0.4726,"level":"勉强协调","road_density":30.9955,"walk_accessibility":0.59,"metro_line_density":2.5956,"station_count":2,"line_count":2,"population_density":3366.9856,"poi_density":0.3398,"poi_diversity":0.0,"gdp_density":69959.0831,"P":3366.9856,"I":0.3398,"G":69959.0831},{"stationName":"成都金石路(地铁站)","station_id":"成都金石路(地铁站)_30.59272_104.08664","lineId":"成都地铁30号线 / 成都地铁6号线","lat":30.592715655,"lon":104.08664116,"area_km2":2.2459,"D":0.2161,"C":0.4681,"T":0.0997,"U1":0.1878,"U2":0.0116,"couplingDegree":0.2161,"level":"中度失调","road_density":28.0822,"walk_accessibility":0.4503,"metro_line_density":4.4541,"station_count":1,"line_count":2,"population_density":4774.4834,"poi_density":0.8905,"poi_diversity":0.0,"gdp_density":0.0,"P":4774.4834,"I":0.8905,"G":0.0},{"stationName":"成都琉三路(地铁站)","station_id":"成都琉三路(地铁站)_30.60277_104.09563","lineId":"成都地铁6号线","lat":30.60277283,"lon":104.09563281,"area_km2":2.0677,"D":0.3366,"C":0.8142,"T":0.1392,"U1":0.22,"U2":0.0584,"couplingDegree":0.3366,"level":"中度失调","road_density":20.0345,"walk_accessibility":0.4146,"metro_line_density":4.6737,"station_count":2,"line_count":2,"population_density":10500.7395,"poi_density":1.9346,"poi_diversity":0.5623,"gdp_density":0.0,"P":10500.7395,"I":1.9346,"G":0.0},{"stationName":"成都琉璃场(地铁站)","station_id":"成都琉璃场(地铁站)_30.61000_104.09724","lineId":"成都地铁6号线 / 成都地铁7号线","lat":30.610002585,"lon":104.0972442,"area_km2":2.035,"D":0.5469,"C":0.9484,"T":0.3154,"U1":0.2154,"U2":0.4153,"couplingDegree":0.5469,"level":"勉强协调","road_density":16.4097,"walk_accessibility":0.408,"metro_line_density":4.9776,"station_count":2,"line_count":2,"population_density":7937.2067,"poi_density":1.9656,"poi_diversity":1.3863,"gdp_density":105858.4162,"P":7937.2067,"I":1.9656,"G":105858.4162},{"stationName":"成都东光(地铁站)","station_id":"成都东光(地铁站)_30.62202_104.09537","lineId":"成都地铁6号线 / 成都地铁8号线","lat":30.622017595,"lon":104.095367275,"area_km2":2.3497,"D":0.5078,"C":0.8786,"T":0.2935,"U1":0.4337,"U2":0.1533,"couplingDegree":0.5078,"level":"勉强协调","road_density":20.379,"walk_accessibility":0.4711,"metro_line_density":5.4376,"station_count":4,"line_count":3,"population_density":19093.4142,"poi_density":5.9583,"poi_diversity":1.5692,"gdp_density":0.0,"P":19093.4142,"I":5.9583,"G":0.0},{"stationName":"成都三官堂(地铁站)","station_id":"成都三官堂(地铁站)_30.63091_104.09248","lineId":"成都地铁13号线 / 成都地铁6号线","lat":30.630913536666668,"lon":104.09247771333334,"area_km2":2.7388,"D":0.4886,"C":0.7999,"T":0.2984,"U1":0.4775,"U2":0.1193,"couplingDegree":0.4886,"level":"勉强协调","road_density":21.0858,"walk_accessibility":0.5491,"metro_line_density":4.1867,"station_count":5,"line_count":3,"population_density":10615.4227,"poi_density":2.921,"poi_diversity":1.4942,"gdp_density":0.0,"P":10615.4227,"I":2.921,"G":0.0},{"stationName":"成都顺江路(地铁站)","station_id":"成都顺江路(地铁站)_30.63798_104.09042","lineId":"成都地铁6号线","lat":30.63797636,"lon":104.09041849,"area_km2":2.9773,"D":0.544,"C":0.9669,"T":0.306,"U1":0.3841,"U2":0.2279,"couplingDegree":0.544,"level":"勉强协调","road_density":19.5046,"walk_accessibility":0.5969,"metro_line_density":3.9997,"station_count":3,"line_count":3,"population_density":27490.3501,"poi_density":8.3968,"poi_diversity":2.4007,"gdp_density":0.0,"P":27490.3501,"I":8.3968,"G":0.0},{"stationName":"成都新鸿路(地铁站)","station_id":"成都新鸿路(地铁站)_30.66521_104.09962","lineId":"成都地铁6号线","lat":30.66521468,"lon":104.09962311,"area_km2":2.6684,"D":0.5781,"C":0.9929,"T":0.3366,"U1":0.3765,"U2":0.2966,"couplingDegree":0.5781,"level":"勉强协调","road_density":20.6023,"walk_accessibility":0.535,"metro_line_density":2.9209,"station_count":3,"line_count":3,"population_density":36392.0208,"poi_density":17.2387,"poi_diversity":2.4461,"gdp_density":0.0,"P":36392.0208,"I":17.2387,"G":0.0},{"stationName":"成都电子科大建设北路(地铁站)","station_id":"成都电子科大建设北路(地铁站)_30.67454_104.09702","lineId":"成都地铁17号线 / 成都地铁6号线","lat":30.674544636666667,"lon":104.09701737333334,"area_km2":2.6077,"D":0.6436,"C":0.9848,"T":0.4206,"U1":0.4936,"U2":0.3475,"couplingDegree":0.6436,"level":"良好协调","road_density":23.7977,"walk_accessibility":0.5228,"metro_line_density":6.3936,"station_count":5,"line_count":3,"population_density":35021.7056,"poi_density":26.0764,"poi_diversity":2.4123,"gdp_density":0.0,"P":35021.7056,"I":26.0764,"G":0.0},{"stationName":"成都梁家巷(地铁站)","station_id":"成都梁家巷(地铁站)_30.68474_104.08080","lineId":"成都地铁6号线","lat":30.684739,"lon":104.0808023,"area_km2":2.2991,"D":0.7006,"C":0.9948,"T":0.4934,"U1":0.5437,"U2":0.4431,"couplingDegree":0.7006,"level":"良好协调","road_density":18.7288,"walk_accessibility":0.461,"metro_line_density":5.3655,"station_count":4,"line_count":4,"population_density":66670.9523,"poi_density":32.1861,"poi_diversity":2.7082,"gdp_density":0.0,"P":66670.9523,"I":32.1861,"G":0.0},{"stationName":"成都沙湾(地铁站)","station_id":"成都沙湾(地铁站)_30.69163_104.04861","lineId":"成都地铁6号线","lat":30.69163281,"lon":104.04860798,"area_km2":2.3894,"D":0.4971,"C":0.8112,"T":0.3047,"U1":0.4828,"U2":0.1265,"couplingDegree":0.4971,"level":"勉强协调","road_density":21.1979,"walk_accessibility":0.4791,"metro_line_density":5.6661,"station_count":5,"line_count":3,"population_density":27233.8302,"poi_density":1.6741,"poi_diversity":1.3863,"gdp_density":0.0,"P":27233.8302,"I":1.6741,"G":0.0},{"stationName":"成都西南交大(地铁站)","station_id":"成都西南交大(地铁站)_30.69716_104.04672","lineId":"成都地铁6号线 / 成都地铁7号线","lat":30.697160330000003,"lon":104.04671795,"area_km2":2.8368,"D":0.6249,"C":0.9596,"T":0.4069,"U1":0.5215,"U2":0.2924,"couplingDegree":0.6249,"level":"良好协调","road_density":20.8592,"walk_accessibility":0.5688,"metro_line_density":3.7281,"station_count":6,"line_count":3,"population_density":18815.9508,"poi_density":3.5251,"poi_diversity":1.8344,"gdp_density":47180.705,"P":18815.9508,"I":3.5251,"G":47180.705},{"stationName":"成都星河(地铁站)","station_id":"成都星河(地铁站)_30.70475_104.04165","lineId":"成都地铁6号线","lat":30.7047546,"lon":104.04165365,"area_km2":2.8153,"D":0.5981,"C":0.9857,"T":0.363,"U1":0.4242,"U2":0.3017,"couplingDegree":0.5981,"level":"勉强协调","road_density":17.9165,"walk_accessibility":0.5645,"metro_line_density":3.7136,"station_count":4,"line_count":3,"population_density":12007.3462,"poi_density":5.3281,"poi_diversity":1.9338,"gdp_density":47541.3333,"P":12007.3462,"I":5.3281,"G":47541.3333},{"stationName":"成都金府(地铁站)","station_id":"成都金府(地铁站)_30.71421_104.03473","lineId":"成都地铁27号线 / 成都地铁6号线","lat":30.714212855,"lon":104.034725435,"area_km2":2.5472,"D":0.4162,"C":0.9042,"T":0.1916,"U1":0.2735,"U2":0.1098,"couplingDegree":0.4162,"level":"勉强协调","road_density":22.9883,"walk_accessibility":0.5107,"metro_line_density":4.2809,"station_count":3,"line_count":2,"population_density":14638.931,"poi_density":1.5704,"poi_diversity":1.3863,"gdp_density":0.0,"P":14638.931,"I":1.5704,"G":0.0},{"stationName":"成都西华大道(地铁站)","station_id":"成都西华大道(地铁站)_30.72089_104.02906","lineId":"成都地铁6号线","lat":30.72089124,"lon":104.02906246,"area_km2":1.6016,"D":0.23,"C":0.3723,"T":0.1421,"U1":0.274,"U2":0.0102,"couplingDegree":0.23,"level":"中度失调","road_density":27.6205,"walk_accessibility":0.3211,"metro_line_density":4.6885,"station_count":3,"line_count":2,"population_density":4978.7461,"poi_density":0.6244,"poi_diversity":0.0,"gdp_density":0.0,"P":4978.7461,"I":0.6244,"G":0.0},{"stationName":"成都青杠(地铁站)","station_id":"成都青杠(地铁站)_30.72803_104.02352","lineId":"成都地铁6号线","lat":30.72802769,"lon":104.02352356,"area_km2":1.5744,"D":0.2429,"C":0.714,"T":0.0826,"U1":0.1405,"U2":0.0248,"couplingDegree":0.2429,"level":"中度失调","road_density":19.9676,"walk_accessibility":0.3157,"metro_line_density":3.532,"station_count":3,"line_count":1,"population_density":16329.4017,"poi_density":0.6352,"poi_diversity":0.0,"gdp_density":0.0,"P":16329.4017,"I":0.6352,"G":0.0},{"stationName":"成都兴盛(地铁站)","station_id":"成都兴盛(地铁站)_30.73327_104.01910","lineId":"成都地铁6号线","lat":30.73327305,"lon":104.01910112,"area_km2":1.7791,"D":0.3837,"C":0.8915,"T":0.1652,"U1":0.0904,"U2":0.24,"couplingDegree":0.3837,"level":"中度失调","road_density":19.2741,"walk_accessibility":0.3567,"metro_line_density":2.6776,"station_count":2,"line_count":1,"population_density":19723.7636,"poi_density":0.0,"poi_diversity":0.0,"gdp_density":72953.7554,"P":19723.7636,"I":0.0,"G":72953.7554},{"stationName":"成都侯家桥(地铁站)","station_id":"成都侯家桥(地铁站)_30.73956_104.00234","lineId":"成都地铁6号线","lat":30.73955952,"lon":104.00234333,"area_km2":1.4379,"D":0.1783,"C":0.9239,"T":0.0344,"U1":0.0476,"U2":0.0213,"couplingDegree":0.1783,"level":"极度失调","road_density":20.3331,"walk_accessibility":0.2883,"metro_line_density":3.5281,"station_count":1,"line_count":1,"population_density":16644.9515,"poi_density":0.0,"poi_diversity":0.0,"gdp_density":0.0,"P":16644.9515,"I":0.0,"G":0.0},{"stationName":"成都梓潼宫(地铁站)","station_id":"成都梓潼宫(地铁站)_30.75049_103.99103","lineId":"成都地铁6号线","lat":30.75048865,"lon":103.99103485,"area_km2":1.2144,"D":0.1363,"C":0.6867,"T":0.0271,"U1":0.0467,"U2":0.0074,"couplingDegree":0.1363,"level":"极度失调","road_density":16.6254,"walk_accessibility":0.2435,"metro_line_density":4.8217,"station_count":1,"line_count":1,"population_density":5787.0733,"poi_density":0.0,"poi_diversity":0.0,"gdp_density":0.0,"P":5787.0733,"I":0.0,"G":0.0},{"stationName":"成都交大兴业北街(地铁站)","station_id":"成都交大兴业北街(地铁站)_30.76129_103.98107","lineId":"成都地铁6号线","lat":30.76128706,"lon":103.98106506,"area_km2":2.648,"D":0.5688,"C":0.9307,"T":0.3477,"U1":0.2205,"U2":0.4748,"couplingDegree":0.5688,"level":"勉强协调","road_density":24.9038,"walk_accessibility":0.5309,"metro_line_density":2.3782,"station_count":2,"line_count":2,"population_density":6518.0679,"poi_density":43.4286,"poi_diversity":2.8599,"gdp_density":10250.6626,"P":6518.0679,"I":43.4286,"G":10250.6626},{"stationName":"成都天宇路(地铁站)","station_id":"成都天宇路(地铁站)_30.75679_103.95236","lineId":"成都地铁6号线","lat":30.75679379,"lon":103.95236156,"area_km2":1.8437,"D":0.2622,"C":0.9214,"T":0.0746,"U1":0.0456,"U2":0.1036,"couplingDegree":0.2622,"level":"中度失调","road_density":20.3161,"walk_accessibility":0.3697,"metro_line_density":2.493,"station_count":1,"line_count":1,"population_density":8147.3362,"poi_density":1.0848,"poi_diversity":0.6931,"gdp_density":15553.7589,"P":8147.3362,"I":1.0848,"G":15553.7589},{"stationName":"成都红高路(地铁站)","station_id":"成都红高路(地铁站)_30.77211_103.93499","lineId":"成都地铁6号线","lat":30.77211093,"lon":103.93499185,"area_km2":2.0847,"D":0.2285,"C":1.0,"T":0.0522,"U1":0.0518,"U2":0.0526,"couplingDegree":0.2285,"level":"中度失调","road_density":22.6761,"walk_accessibility":0.418,"metro_line_density":2.4677,"station_count":1,"line_count":1,"population_density":4662.604,"poi_density":0.9594,"poi_diversity":0.6931,"gdp_density":0.0,"P":4662.604,"I":0.9594,"G":0.0},{"stationName":"成都尚锦路(地铁站)","station_id":"成都尚锦路(地铁站)_30.78004_103.92132","lineId":"成都地铁6号线","lat":30.78003988,"lon":103.921324795,"area_km2":1.3787,"D":0.1854,"C":0.6326,"T":0.0543,"U1":0.0964,"U2":0.0123,"couplingDegree":0.1854,"level":"极度失调","road_density":20.1079,"walk_accessibility":0.2764,"metro_line_density":4.1746,"station_count":2,"line_count":1,"population_density":6086.1995,"poi_density":0.7253,"poi_diversity":0.0,"gdp_density":0.0,"P":6086.1995,"I":0.7253,"G":0.0},