{"cityCode":"110000","year":2010,"stations":[{"stationName":"北京环球度假区(地铁站)","station_id":"北京环球度假区(地铁站)_39.84801_116.67316","lineId":"北京地铁1号线","lat":39.84800964,"lon":116.67315754,"area_km2":2.0677,"D":0.1719,"C":0.6964,"T":0.0424,"U1":0.0729,"U2":0.012,"couplingDegree":0.1719,"level":"极度失调","road_density":38.0489,"walk_accessibility":0.4146,"metro_line_density":1.3888,"station_count":1,"line_count":1,"population_density":1291.7826,"poi_density":0.0,"poi_diversity":0.0,"gdp_density":0.0,"P":1291.7826,"I":0.0,"G":0.0},{"stationName":"北京花庄(地铁站)","station_id":"北京花庄(地铁站)_39.85555_116.68951","lineId":"北京地铁1号线","lat":39.85555015,"lon":116.68950889,"area_km2":2.3043,"D":0.1463,"C":0.4656,"T":0.0459,"U1":0.0866,"U2":0.0053,"couplingDegree":0.1463,"level":"极度失调","road_density":30.8062,"walk_accessibility":0.462,"metro_line_density":4.5734,"station_count":1,"line_count":1,"population_density":586.7244,"poi_density":0.0,"poi_diversity":0.0,"gdp_density":0.0,"P":586.7244,"I":0.0,"G":0.0},{"stationName":"北京土桥(地铁站)","station_id":"北京土桥(地铁站)_39.87077_116.68039","lineId":"北京地铁1号线","lat":39.87076864,"lon":116.68038605,"area_km2":1.7638,"D":0.2175,"C":0.6024,"T":0.0785,"U1":0.1412,"U2":0.0159,"couplingDegree":0.2175,"level":"中度失调","road_density":28.2233,"walk_accessibility":0.3536,"metro_line_density":3.747,"station_count":2,"line_count":1,"population_density":1699.1319,"poi_density":0.0,"poi_diversity":0.0,"gdp_density":0.0,"P":1699.1319,"I":0.0,"G":0.0},{"stationName":"北京临河里(地铁站)","station_id":"北京临河里(地铁站)_39.87435_116.67287","lineId":"北京地铁1号线","lat":39.87435269,"lon":116.67286862,"area_km2":1.8452,"D":0.4721,"C":0.9984,"T":0.2233,"U1":0.2107,"U2":0.2358,"couplingDegree":0.4721,"level":"勉强协调","road_density":27.1937,"walk_accessibility":0.37,"metro_line_density":3.4878,"station_count":3,"line_count":1,"population_density":664.4119,"poi_density":0.0,"poi_diversity":0.0,"gdp_density":2494.123,"P":664.4119,"I":0.0,"G":2494.123},{"stationName":"北京梨园(地铁站)","station_id":"北京梨园(地铁站)_39.88255_116.66280","lineId":"北京地铁1号线","lat":39.88255308,"lon":116.6628048,"area_km2":2.0685,"D":0.4712,"C":0.9989,"T":0.2223,"U1":0.212,"U2":0.2325,"couplingDegree":0.4712,"level":"勉强协调","road_density":28.2457,"walk_accessibility":0.4147,"metro_line_density":3.0464,"station_count":3,"line_count":1,"population_density":2927.2698,"poi_density":0.0,"poi_diversity":0.0,"gdp_density":2224.9464,"P":2927.2698,"I":0.0,"G":2224.9464},{"stationName":"北京九棵树(地铁站)","station_id":"北京九棵树(地铁站)_39.88917_116.65165","lineId":"北京地铁1号线","lat":39.88917482,"lon":116.6516474,"area_km2":2.5061,"D":0.2409,"C":0.4939,"T":0.1175,"U1":0.2197,"U2":0.0153,"couplingDegree":0.2409,"level":"中度失调","road_density":31.6124,"walk_accessibility":0.5025,"metro_line_density":2.5238,"station_count":3,"line_count":1,"population_density":1643.9564,"poi_density":0.0,"poi_diversity":0.0,"gdp_density":0.0,"P":1643.9564,"I":0.0,"G":0.0},{"stationName":"北京果园(地铁站)","station_id":"北京果园(地铁站)_39.89225_116.64076","lineId":"北京地铁1号线","lat":39.89224577,"lon":116.64076483,"area_km2":2.2972,"D":0.2551,"C":0.7344,"T":0.0886,"U1":0.1488,"U2":0.0285,"couplingDegree":0.2551,"level":"中度失调","road_density":32.396,"walk_accessibility":0.4606,"metro_line_density":2.8587,"station_count":2,"line_count":1,"population_density":3026.7784,"poi_density":0.0,"poi_diversity":0.0,"gdp_density":0.0,"P":3026.7784,"I":0.0,"G":0.0},{"stationName":"北京通州北苑(地铁站)","station_id":"北京通州北苑(地铁站)_39.90279_116.63142","lineId":"北京地铁1号线","lat":39.90279433,"lon":116.631416,"area_km2":1.9621,"D":0.377,"C":0.7414,"T":0.1917,"U1":0.0631,"U2":0.3203,"couplingDegree":0.377,"level":"中度失调","road_density":25.6805,"walk_accessibility":0.3934,"metro_line_density":3.2334,"station_count":1,"line_count":1,"population_density":2336.2746,"poi_density":0.0,"poi_diversity":0.0,"gdp_density":3238.6543,"P":2336.2746,"I":0.0,"G":3238.6543},{"stationName":"北京八里桥(地铁站)","station_id":"北京八里桥(地铁站)_39.90507_116.61286","lineId":"北京地铁1号线","lat":39.90507299,"lon":116.61285555,"area_km2":1.9573,"D":0.4594,"C":0.6066,"T":0.3479,"U1":0.0713,"U2":0.6245,"couplingDegree":0.4594,"level":"勉强协调","road_density":20.3,"walk_accessibility":0.3924,"metro_line_density":5.6412,"station_count":1,"line_count":1,"population_density":6286.6514,"poi_density":0.0,"poi_diversity":0.0,"gdp_density":6132.0756,"P":6286.6514,"I":0.0,"G":6132.0756},{"stationName":"北京管庄(地铁站)","station_id":"北京管庄(地铁站)_39.90803_116.59313","lineId":"北京地铁1号线 / 北京地铁22号线","lat":39.908028335,"lon":116.59312795,"area_km2":2.5021,"D":0.5366,"C":0.882,"T":0.3264,"U1":0.1726,"U2":0.4803,"couplingDegree":0.5366,"level":"勉强协调","road_density":22.7424,"walk_accessibility":0.5017,"metro_line_density":4.6255,"station_count":1,"line_count":2,"population_density":4054.6699,"poi_density":0.0,"poi_diversity":0.0,"gdp_density":4797.0384,"P":4054.6699,"I":0.0,"G":4797.0384},{"stationName":"北京双桥(地铁站)","station_id":"北京双桥(地铁站)_39.90909_116.57096","lineId":"北京地铁1号线","lat":39.9090938,"lon":116.57096023,"area_km2":2.9269,"D":0.4303,"C":0.6531,"T":0.2834,"U1":0.0688,"U2":0.4981,"couplingDegree":0.4303,"level":"勉强协调","road_density":21.4926,"walk_accessibility":0.5868,"metro_line_density":3.4012,"station_count":1,"line_count":1,"population_density":12710.6795,"poi_density":0.0,"poi_diversity":0.0,"gdp_density":4097.5804,"P":12710.6795,"I":0.0,"G":4097.5804},{"stationName":"北京传媒大学(地铁站)","station_id":"北京传媒大学(地铁站)_39.90814_116.54881","lineId":"北京地铁1号线","lat":39.90813539,"lon":116.5488103,"area_km2":2.8283,"D":0.418,"C":0.6322,"T":0.2763,"U1":0.0622,"U2":0.4905,"couplingDegree":0.418,"level":"勉强协调","road_density":20.0299,"walk_accessibility":0.5671,"metro_line_density":3.0389,"station_count":1,"line_count":1,"population_density":10545.3435,"poi_density":0.0,"poi_diversity":0.0,"gdp_density":4238.2462,"P":10545.3435,"I":0.0,"G":4238.2462},{"stationName":"北京高碑店(地铁站)","station_id":"北京高碑店(地铁站)_39.90832_116.52553","lineId":"北京地铁1号线","lat":39.90831553,"lon":116.52552782,"area_km2":2.8891,"D":0.2916,"C":0.9606,"T":0.0885,"U1":0.0639,"U2":0.1131,"couplingDegree":0.2916,"level":"中度失调","road_density":22.0198,"walk_accessibility":0.5793,"metro_line_density":2.6857,"station_count":1,"line_count":1,"population_density":11936.6133,"poi_density":0.0,"poi_diversity":0.0,"gdp_density":0.0,"P":11936.6133,"I":0.0,"G":0.0},{"stationName":"北京四惠东(地铁站)","station_id":"北京四惠东(地铁站)_39.90732_116.50972","lineId":"北京地铁1号线","lat":39.90731937,"lon":116.50971598,"area_km2":2.8478,"D":0.4095,"C":0.6395,"T":0.2622,"U1":0.0606,"U2":0.4638,"couplingDegree":0.4095,"level":"勉强协调","road_density":21.4999,"walk_accessibility":0.571,"metro_line_density":2.4388,"station_count":1,"line_count":1,"population_density":8039.8654,"poi_density":0.0,"poi_diversity":0.0,"gdp_density":4207.0437,"P":8039.8654,"I":0.0,"G":4207.0437},{"stationName":"北京四惠(地铁站)","station_id":"北京四惠(地铁站)_39.90751_116.48943","lineId":"北京地铁1号线","lat":39.90751336,"lon":116.48943115,"area_km2":2.6535,"D":0.4524,"C":0.6604,"T":0.3099,"U1":0.0772,"U2":0.5426,"couplingDegree":0.4524,"level":"勉强协调","road_density":32.088,"walk_accessibility":0.532,"metro_line_density":2.4254,"station_count":1,"line_count":1,"population_density":13382.6378,"poi_density":0.0,"poi_diversity":0.0,"gdp_density":4511.8921,"P":13382.6378,"I":0.0,"G":4511.8921},{"stationName":"北京大望路(地铁站)","station_id":"北京大望路(地铁站)_39.90731_116.47022","lineId":"北京地铁14号线 / 北京地铁1号线 / 北京地铁28号线","lat":39.907310545,"lon":116.470221045,"area_km2":3.2643,"D":0.4665,"C":0.9469,"T":0.2299,"U1":0.3038,"U2":0.156,"couplingDegree":0.4665,"level":"勉强协调","road_density":29.1489,"walk_accessibility":0.6545,"metro_line_density":6.2836,"station_count":1,"line_count":3,"population_density":16445.5717,"poi_density":0.0,"poi_diversity":0.0,"gdp_density":0.0,"P":16445.5717,"I":0.0,"G":0.0},{"stationName":"北京国贸(地铁站)","station_id":"北京国贸(地铁站)_39.90743_116.45463","lineId":"北京地铁10号线 / 北京地铁1号线","lat":39.90743234,"lon":116.454626935,"area_km2":3.5147,"D":0.7293,"C":0.9822,"T":0.5415,"U1":0.6433,"U2":0.4397,"couplingDegree":0.7293,"level":"良好协调","road_density":31.697,"walk_accessibility":0.7047,"metro_line_density":5.2167,"station_count":3,"line_count":5,"population_density":13304.3891,"poi_density":0.0,"poi_diversity":0.0,"gdp_density":3403.343,"P":13304.3891,"I":0.0,"G":3403.343},{"stationName":"北京永安里(地铁站)","station_id":"北京永安里(地铁站)_39.90712_116.44414","lineId":"北京地铁17号线 / 北京地铁1号线","lat":39.907116145,"lon":116.4441439,"area_km2":3.4313,"D":0.6274,"C":0.9972,"T":0.3948,"U1":0.3651,"U2":0.4245,"couplingDegree":0.6274,"level":"良好协调","road_density":28.5775,"walk_accessibility":0.688,"metro_line_density":4.6829,"station_count":2,"line_count":3,"population_density":10900.7614,"poi_density":0.0,"poi_diversity":0.0,"gdp_density":3486.048,"P":10900.7614,"I":0.0,"G":3486.048},{"stationName":"北京建国门(地铁站)","station_id":"北京建国门(地铁站)_39.90718_116.42900","lineId":"北京地铁1号线 / 北京地铁2号线","lat":39.907178425,"lon":116.42900401,"area_km2":3.6693,"D":0.5785,"C":0.9806,"T":0.3412,"U1":0.2744,"U2":0.4081,"couplingDegree":0.5785,"level":"勉强协调","road_density":28.7287,"walk_accessibility":0.7357,"metro_line_density":5.195,"station_count":2,"line_count":2,"population_density":11381.0677,"poi_density":0.0,"poi_diversity":0.0,"gdp_density":3257.9889,"P":11381.0677,"I":0.0,"G":3257.9889},{"stationName":"北京东单(地铁站)","station_id":"北京东单(地铁站)_39.90692_116.41286","lineId":"北京地铁1号线 / 北京地铁5号线","lat":39.906924186666664,"lon":116.41286102333333,"area_km2":3.6488,"D":0.5008,"C":0.5959,"T":0.4209,"U1":0.759,"U2":0.0829,"couplingDegree":0.5008,"level":"勉强协调","road_density":24.066,"walk_accessibility":0.7316,"metro_line_density":6.3931,"station_count":6,"line_count":4,"population_density":8754.1557,"poi_density":0.0,"poi_diversity":0.0,"gdp_density":0.0,"P":8754.1557,"I":0.0,"G":0.0},{"stationName":"北京王府井(地铁站)","station_id":"北京王府井(地铁站)_39.90733_116.40522","lineId":"北京地铁1号线 / 北京地铁8号线","lat":39.907334565,"lon":116.405216115,"area_km2":3.821,"D":0.5199,"C":0.6363,"T":0.4248,"U1":0.7525,"U2":0.0971,"couplingDegree":0.5199,"level":"勉强协调","road_density":22.8988,"walk_accessibility":0.7661,"metro_line_density":5.5191,"station_count":6,"line_count":4,"population_density":10250.7906,"poi_density":0.0,"poi_diversity":0.0,"gdp_density":0.0,"P":10250.7906,"I":0.0,"G":0.0},{"stationName":"北京天安门东(地铁站)","station_id":"北京天安门东(地铁站)_39.90638_116.39497","lineId":"北京地铁1号线","lat":39.90637578,"lon":116.39497219,"area_km2":3.7633,"D":0.6543,"C":0.9871,"T":0.4337,"U1":0.5032,"U2":0.3642,"couplingDegree":0.6543,"level":"良好协调","road_density":27.7532,"walk_accessibility":0.7545,"metro_line_density":3.4932,"station_count":4,"line_count":3,"population_density":7585.2722,"poi_density":0.0,"poi_diversity":0.0,"gdp_density":3173.7853,"P":7585.2722,"I":0.0,"G":3173.7853},{"stationName":"北京天安门西(地铁站)","station_id":"北京天安门西(地铁站)_39.90607_116.38504","lineId":"北京地铁1号线","lat":39.90607009,"lon":116.38503632,"area_km2":3.6935,"D":0.6534,"C":0.988,"T":0.4322,"U1":0.499,"U2":0.3654,"couplingDegree":0.6534,"level":"良好协调","road_density":27.7263,"walk_accessibility":0.7405,"metro_line_density":3.0536,"station_count":4,"line_count":3,"population_density":7120.5963,"poi_density":0.0,"poi_diversity":0.0,"gdp_density":3233.7933,"P":7120.5963,"I":0.0,"G":3233.7933},{"stationName":"北京西单(地铁站)","station_id":"北京西单(地铁站)_39.90590_116.36902","lineId":"北京地铁1号线 / 北京地铁4号线","lat":39.905897895,"lon":116.36902326,"area_km2":3.9957,"D":0.6612,"C":0.9856,"T":0.4435,"U1":0.5185,"U2":0.3685,"couplingDegree":0.6612,"level":"良好协调","road_density":30.6563,"walk_accessibility":0.8011,"metro_line_density":4.4522,"station_count":4,"line_count":3,"population_density":9825.8015,"poi_density":0.0,"poi_diversity":0.0,"gdp_density":2988.9568,"P":9825.8015,"I":0.0,"G":2988.9568},{"stationName":"北京复兴门(地铁站)","station_id":"北京复兴门(地铁站)_39.90584_116.35113","lineId":"北京地铁1号线 / 北京地铁2号线","lat":39.905843565,"lon":116.351132115,"area_km2":3.6028,"D":0.4834,"C":0.9195,"T":0.2541,"U1":0.354,"U2":0.1542,"couplingDegree":0.4834,"level":"勉强协调","road_density":27.0003,"walk_accessibility":0.7223,"metro_line_density":6.7051,"station_count":3,"line_count":2,"population_density":16261.9611,"poi_density":0.0,"poi_diversity":0.0,"gdp_density":0.0,"P":16261.9611,"I":0.0,"G":0.0},{"stationName":"北京南礼士路(地铁站)","station_id":"北京南礼士路(地铁站)_39.90588_116.34640","lineId":"北京地铁1号线","lat":39.90587754,"lon":116.34639530000001,"area_km2":3.4212,"D":0.4386,"C":0.9495,"T":0.2026,"U1":0.2662,"U2":0.1391,"couplingDegree":0.4386,"level":"勉强协调","road_density":25.1947,"walk_accessibility":0.6859,"metro_line_density":5.3555,"station_count":2,"line_count":2,"population_density":14666.6055,"poi_density":0.0,"poi_diversity":0.0,"gdp_density":0.0,"P":14666.6055,"I":0.0,"G":0.0},{"stationName":"北京木樨地(地铁站)","station_id":"北京木樨地(地铁站)_39.90703_116.32963","lineId":"北京地铁16号线 / 北京地铁1号线","lat":39.90703202,"lon":116.32962928500001,"area_km2":2.8043,"D":0.6582,"C":0.9727,"T":0.4454,"U1":0.3421,"U2":0.5487,"couplingDegree":0.6582,"level":"良好协调","road_density":21.4198,"walk_accessibility":0.5622,"metro_line_density":4.3887,"station_count":2,"line_count":3,"population_density":16482.7013,"poi_density":0.0,"poi_diversity":0.0,"gdp_density":4258.2225,"P":16482.7013,"I":0.0,"G":4258.2225},{"stationName":"北京军事博物馆(地铁站)","station_id":"北京军事博物馆(地铁站)_39.90612_116.31630","lineId":"北京地铁1号线 / 北京地铁9号线","lat":39.906120994999995,"lon":116.31630097,"area_km2":2.4966,"D":0.7483,"C":0.9972,"T":0.5615,"U1":0.5193,"U2":0.6037,"couplingDegree":0.7483,"level":"良好协调","road_density":23.2785,"walk_accessibility":0.5006,"metro_line_density":5.4167,"station_count":3,"line_count":4,"population_density":17208.5066,"poi_density":0.0,"poi_diversity":0.0,"gdp_density":4780.2723,"P":17208.5066,"I":0.0,"G":4780.2723},{"stationName":"北京公主坟(地铁站)","station_id":"北京公主坟(地铁站)_39.90620_116.30420","lineId":"北京地铁10号线 / 北京地铁1号线","lat":39.90619958,"lon":116.30419570999999,"area_km2":2.8029,"D":0.6886,"C":0.9943,"T":0.4769,"U1":0.4263,"U2":0.5276,"couplingDegree":0.6886,"level":"良好协调","road_density":25.7154,"walk_accessibility":0.562,"metro_line_density":4.9468,"station_count":3,"line_count":3,"population_density":14259.6488,"poi_density":0.0,"poi_diversity":0.0,"gdp_density":4257.9491,"P":14259.6488,"I":0.0,"G":4257.9491},{"stationName":"北京万寿路(地铁站)","station_id":"北京万寿路(地铁站)_39.90622_116.28870","lineId":"北京地铁1号线","lat":39.90622098,"lon":116.28870022,"area_km2":2.8749,"D":0.2656,"C":0.9843,"T":0.0717,"U1":0.059,"U2":0.0843,"couplingDegree":0.2656,"level":"中度失调","road_density":21.3955,"walk_accessibility":0.5764,"metro_line_density":2.1997,"station_count":1,"line_count":1,"population_density":8905.6256,"poi_density":0.0,"poi_diversity":0.0,"gdp_density":0.0,"P":8905.6256,"I":0.0,"G":0.0},{"stationName":"北京五棵松(地铁站)","station_id":"北京五棵松(地铁站)_39.90623_116.26795","lineId":"北京地铁1号线","lat":39.90623005,"lon":116.26794898,"area_km2":2.4903,"D":0.4256,"C":0.6248,"T":0.2899,"U1":0.0635,"U2":0.5162,"couplingDegree":0.4256,"level":"勉强协调","road_density":24.8974,"walk_accessibility":0.4993,"metro_line_density":2.6041,"station_count":1,"line_count":1,"population_density":7893.7396,"poi_density":0.0,"poi_diversity":0.0,"gdp_density":4790.7754,"P":7893.7396,"I":0.0,"G":4790.7754},{"stationName":"北京玉泉路(地铁站)","station_id":"北京玉泉路(地铁站)_39.90622_116.24686","lineId":"北京地铁1号线","lat":39.90621796,"lon":116.24685843,"area_km2":2.5928,"D":0.4194,"C":0.6178,"T":0.2847,"U1":0.0608,"U2":0.5085,"couplingDegree":0.4194,"level":"勉强协调","road_density":23.6016,"walk_accessibility":0.5198,"metro_line_density":2.3819,"station_count":1,"line_count":1,"population_density":8950.7042,"poi_density":0.0,"poi_diversity":0.0,"gdp_density":4598.6456,"P":8950.7042,"I":0.0,"G":4598.6456},{"stationName":"北京八宝山(地铁站)","station_id":"北京八宝山(地铁站)_39.90620_116.22987","lineId":"北京地铁1号线","lat":39.90619866,"lon":116.22986889,"area_km2":2.8626,"D":0.2706,"C":0.9919,"T":0.0738,"U1":0.0644,"U2":0.0832,"couplingDegree":0.2706,"level":"中度失调","road_density":24.138,"walk_accessibility":0.5739,"metro_line_density":2.2868,"station_count":1,"line_count":1,"population_density":8783.195,"poi_density":0.0,"poi_diversity":0.0,"gdp_density":0.0,"P":8783.195,"I":0.0,"G":0.0},{"stationName":"北京八角游乐园(地铁站)","station_id":"北京八角游乐园(地铁站)_39.90620_116.20678","lineId":"北京地铁1号线","lat":39.906202304999994,"lon":116.20678491999999,"area_km2":2.7879,"D":0.4211,"C":0.6806,"T":0.2605,"U1":0.0696,"U2":0.4514,"couplingDegree":0.4211,"level":"勉强协调","road_density":23.1062,"walk_accessibility":0.559,"metro_line_density":3.3559,"station_count":1,"line_count":1,"population_density":6073.3373,"poi_density":0.0,"poi_diversity":0.0,"gdp_density":4275.7051,"P":6073.3373,"I":0.0,"G":4275.7051},{"stationName":"北京古城(地铁站)","station_id":"北京古城(地铁站)_39.90618_116.18421","lineId":"北京地铁1号线","lat":39.90617559,"lon":116.1842117,"area_km2":2.4431,"D":0.4121,"C":0.5821,"T":0.2918,"U1":0.0545,"U2":0.529,"couplingDegree":0.4121,"level":"勉强协调","road_density":20.2471,"walk_accessibility":0.4898,"metro_line_density":2.6,"station_count":1,"line_count":1,"population_density":8408.2596,"poi_density":0.0,"poi_diversity":0.0,"gdp_density":4877.2096,"P":8408.2596,"I":0.0,"G":4877.2096},{"stationName":"北京苹果园(地铁站)","station_id":"北京苹果园(地铁站)_39.92449_116.17224","lineId":"北京地铁1号线","lat":39.92449224,"lon":116.17223959,"area_km2":2.3904,"D":0.1868,"C":0.9228,"T":0.0378,"U1":0.0524,"U2":0.0232,"couplingDegree":0.1868,"level":"极度失调","road_density":26.17,"walk_accessibility":0.4793,"metro_line_density":0.9727,"station_count":1,"line_count":1,"population_density":2477.3906,"poi_density":0.0,"poi_diversity":0.0,"gdp_density":0.0,"P":2477.3906,"I":0.0,"G":0.0},{"stationName":"北京福寿岭(地铁站)","station_id":"北京福寿岭(地铁站)_39.93874_116.16497","lineId":"北京地铁1号线","lat":39.93873974,"lon":116.16497423,"area_km2":2.2947,"D":0.191,"C":1.0,"T":0.0365,"U1":0.0366,"U2":0.0364,"couplingDegree":0.191,"level":"极度失调","road_density":19.268,"walk_accessibility":0.4601,"metro_line_density":0.683,"station_count":1,"line_count":1,"population_density":3862.7826,"poi_density":0.0,"poi_diversity":0.0,"gdp_density":0.0,"P":3862.7826,"I":0.0,"G":0.0},{"stationName":"北京体育场南街(地铁站)","station_id":"北京体育场南街(地铁站)_39.89169_116.19704","lineId":"北京地铁1号线","lat":39.89168669,"lon":116.19703968,"area_km2":2.0885,"D":0.229,"C":0.9905,"T":0.053,"U1":0.0457,"U2":0.0602,"couplingDegree":0.229,"level":"中度失调","road_density":22.2167,"walk_accessibility":0.4187,"metro_line_density":1.5312,"station_count":1,"line_count":1,"population_density":6370.9563,"poi_density":0.0,"poi_diversity":0.0,"gdp_density":0.0,"P":6370.9563,"I":0.0,"G":0.0},{"stationName":"北京园博园西门(地铁站)","station_id":"北京园博园西门(地铁站)_39.86921_116.18661","lineId":"北京地铁1号线","lat":39.86920673,"lon":116.18661128,"area_km2":2.3562,"D":0.2289,"C":0.9914,"T":0.0528,"U1":0.0598,"U2":0.0459,"couplingDegree":0.2289,"level":"中度失调","road_density":25.0701,"walk_accessibility":0.4724,"metro_line_density":2.2814,"station_count":1,"line_count":1,"population_density":4863.757,"poi_density":0.0,"poi_diversity":0.0,"gdp_density":0.0,"P":4863.757,"I":0.0,"G":0.0},{"stationName":"北京张郭庄(地铁站)","station_id":"北京张郭庄(地铁站)_39.85682_116.18107","lineId":"北京地铁1号线","lat":39.85682242,"lon":116.181065005,"area_km2":1.6625,"D":0.1305,"C":0.562,"T":0.0303,"U1":0.0554,"U2":0.0052,"couplingDegree":0.1305,"level":"极度失调","road_density":18.2609,"walk_accessibility":0.3333,"metro_line_density":4.4957,"station_count":1,"line_count":1,"population_density":582.2438,"poi_density":0.0,"poi_diversity":0.0,"gdp_density":0.0,"P":582.2438,"I":0.0,"G":0.0},{"stationName":"北京西二区(地铁站)","station_id":"北京西二区(地铁站)_39.84771_116.15500","lineId":"北京地铁1号线","lat":39.84771116,"lon":116.15500443,"area_km2":1.7649,"D":0.359,"C":0.5401,"T":0.2386,"U1":0.0378,"U2":0.4393,"couplingDegree":0.359,"level":"中度失调","road_density":16.0777,"walk_accessibility":0.3539,"metro_line_density":2.4971,"station_count":1,"line_count":1,"population_density":170.5471,"poi_density":0.0,"poi_diversity":0.0,"gdp_density":4753.4197,"P":170.5471,"I":0.0,"G":4753.4197},{"stationName":"北京后吕村(地铁站)","station_id":"北京后吕村(地铁站)_39.82696_116.16591","lineId":"北京地铁1号线","lat":39.82696008,"lon":116.16591237,"area_km2":1.3813,"D":0.1214,"C":0.9812,"T":0.015,"U1":0.0121,"U2":0.0179,"couplingDegree":0.1214,"level":"极度失调","road_density":12.4527,"walk_accessibility":0.277,"metro_line_density":0.5772,"station_count":1,"line_count":1,"population_density":1916.2913,"poi_density":0.0,"poi_diversity":0.0,"gdp_density":0.0,"P":1916.2913,"I":0.0,"G":0.0},{"stationName":"北京云岗(地铁站)","station_id":"北京云岗(地铁站)_39.80876_116.15281","lineId":"北京地铁1号线","lat":39.80875963,"lon":116.15281228,"area_km2":2.7667,"D":0.3669,"C":0.6076,"T":0.2216,"U1":0.0456,"U2":0.3976,"couplingDegree":0.3669,"level":"中度失调","road_density":14.7173,"walk_accessibility":0.5547,"metro_line_density":2.1976,"station_count":1,"line_count":1,"population_density":10709.7438,"poi_density":0.0,"poi_diversity":0.0,"gdp_density":3214.0423,"P":10709.7438,"I":0.0,"G":3214.0423},{"stationName":"北京王佐(地铁站)","station_id":"北京王佐(地铁站)_39.80826_116.12665","lineId":"北京地铁1号线","lat":39.80826184,"lon":116.1266468,"area_km2":1.3109,"D":0.1966,"C":0.9676,"T":0.0399,"U1":0.05,"U2":0.0299,"couplingDegree":0.1966,"level":"极度失调","road_density":16.4552,"walk_accessibility":0.2628,"metro_line_density":4.797,"station_count":1,"line_count":1,"population_density":3172.5374,"poi_density":0.0,"poi_diversity":0.0,"gdp_density":0.0,"P":3172.5374,"I":0.0,"G":0.0},{"stationName":"北京民族大学(地铁站)","station_id":"北京民族大学(地铁站)_39.80524_116.10527","lineId":"北京地铁1号线","lat":39.80523643,"lon":116.10527306,"area_km2":1.8957,"D":0.2163,"C":0.9751,"T":0.048,"U1":0.0586,"U2":0.0373,"couplingDegree":0.2163,"level":"中度失调","road_density":22.9548,"walk_accessibility":0.3801,"metro_line_density":3.4053,"station_count":1,"line_count":1,"population_density":3959.4345,"poi_density":0.0,"poi_diversity":0.0,"gdp_density":0.0,"P":3959.4345,"I":0.0,"G":0.0},{"stationName":"北京青龙湖东(地铁站)","station_id":"北京青龙湖东(地铁站)_39.80529_116.08906","lineId":"北京地铁1号线","lat":39.80529198,"lon":116.08905708,"area_km2":1.4982,"D":0.1488,"C":0.8768,"T":0.0252,"U1":0.0374,"U2":0.0131,"couplingDegree":0.1488,"level":"极度失调","road_density":19.0694,"walk_accessibility":0.3004,"metro_line_density":2.165,"station_count":1,"line_count":1,"population_density":1409.6723,"poi_density":0.0,"poi_diversity":0.0,"gdp_density":0.0,"P":1409.6723,"I":0.0,"G":0.0},{"stationName":"北京积水潭(地铁站)","station_id":"北京积水潭(地铁站)_39.94656_116.36623","lineId":"北京地铁19号线 / 北京地铁2号线","lat":39.946563575,"lon":116.366230905,"area_km2":3.6303,"D":0.4214,"C":0.7862,"T":0.2259,"U1":0.3655,"U2":0.0863,"couplingDegree":0.4214,"level":"勉强协调","road_density":26.9792,"walk_accessibility":0.7279,"metro_line_density":4.8,"station_count":2,"line_count":3,"population_density":9113.2157,"poi_density":0.0,"poi_diversity":0.0,"gdp_density":0.0,"P":9113.2157,"I":0.0,"G":0.0},{"stationName":"北京鼓楼大街(地铁站)","station_id":"北京鼓楼大街(地铁站)_39.94686_116.38759","lineId":"北京地铁2号线 / 北京地铁8号线","lat":39.946858335,"lon":116.38759394499999,"area_km2":3.7252,"D":0.492,"C":0.8814,"T":0.2746,"U1":0.4044,"U2":0.1449,"couplingDegree":0.492,"level":"勉强协调","road_density":21.8484,"walk_accessibility":0.7469,"metro_line_density":4.8215,"station_count":4,"line_count":2,"population_density":15278.5101,"poi_density":0.0,"poi_diversity":0.0,"gdp_density":0.0,"P":15278.5101,"I":0.0,"G":0.0},{"stationName":"北京安定门(地铁站)","station_id":"北京安定门(地铁站)_39.94768_116.40198","lineId":"北京地铁2号线","lat":39.94768258,"lon":116.4019787,"area_km2":3.6951,"D":0.4852,"C":0.6787,"T":0.3469,"U1":0.6017,"U2":0.0921,"couplingDegree":0.4852,"level":"勉强协调","road_density":24.7675,"walk_accessibility":0.7409,"metro_line_density":4.4294,"station_count":4,"line_count":4,"population_density":9727.7124,"poi_density":0.0,"poi_diversity":0.0,"gdp_density":0.0,"P":9727.7124,"I":0.0,"G":0.0},{"stationName":"北京雍和宫(地铁站)","station_id":"北京雍和宫(地铁站)_39.94768_116.41095","lineId":"北京地铁2号线 / 北京地铁5号线","lat":39.947683266666665,"lon":116.41094894666666,"area_km2":3.5745,"D":0.516,"C":0.8185,"T":0.3253,"U1":0.5123,"U2":0.1384,"couplingDegree":0.516,"level":"勉强协调","road_density":25.18,"walk_accessibility":0.7167,"metro_line_density":5.6349,"station_count":4,"line_count":3,"population_density":14599.1165,"poi_density":0.0,"poi_diversity":0.0,"gdp_density":0.0,"P":14599.1165,"I":0.0,"G":0.0},{"stationName":"北京东直门(地铁站)","station_id":"北京东直门(地铁站)_39.94034_116.42887","lineId":"北京北京地铁13B号线(马连洼--东直门) / 北京北京首都机场线(3号航站楼--北新桥) / 北京北京首都机场线(北新桥--2号航站楼) / 北京地铁2号线","lat":39.9403378925,"lon":116.428868765,"area_km2":3.3235,"D":0.6904,"C":1.0,"T":0.4766,"U1":0.4793,"U2":0.4739,"couplingDegree":0.6904,"level":"良好协调","road_density":27.5548,"walk_accessibility":0.6663,"metro_line_density":7.3245,"station_count":2,"line_count":4,"population_density":15032.2359,"poi_density":0.0,"poi_diversity":0.0,"gdp_density":3596.4183,"P":15032.2359,"I":0.0,"G":3596.4183},{"stationName":"北京东四十条(地铁站)","station_id":"北京东四十条(地铁站)_39.93237_116.42792","lineId":"北京地铁2号线","lat":39.932369255,"lon":116.427919215,"area_km2":3.7501,"D":0.6796,"C":0.9907,"T":0.4662,"U1":0.5297,"U2":0.4027,"couplingDegree":0.6796,"level":"良好协调","road_density":26.2386,"walk_accessibility":0.7519,"metro_line_density":4.0106,"station_count":3,"line_count":4,"population_density":11502.2425,"poi_density":0.0,"poi_diversity":0.0,"gdp_density":3187.3014,"P":11502.2425,"I":0.0,"G":3187.3014},{"stationName":"北京朝阳门(地铁站)","station_id":"北京朝阳门(地铁站)_39.92311_116.42829","lineId":"北京地铁2号线","lat":39.923105074999995,"lon":116.428294025,"area_km2":3.7714,"D":0.3746,"C":0.9921,"T":0.1415,"U1":0.1592,"U2":0.1237,"couplingDegree":0.3746,"level":"中度失调","road_density":25.5415,"walk_accessibility":0.7562,"metro_line_density":3.4459,"station_count":2,"line_count":1,"population_density":13053.3505,"poi_density":0.0,"poi_diversity":0.0,"gdp_density":0.0,"P":13053.3505,"I":0.0,"G":0.0},{"stationName":"北京北京站(地铁站)","station_id":"北京北京站(地铁站)_39.90359_116.42106","lineId":"北京地铁2号线","lat":39.90359251,"lon":116.42106293,"area_km2":2.9365,"D":0.7141,"C":0.9999,"T":0.51,"U1":0.5175,"U2":0.5024,"couplingDegree":0.7141,"level":"良好协调","road_density":27.6918,"walk_accessibility":0.5888,"metro_line_density":6.7913,"station_count":4,"line_count":3,"population_density":13425.3675,"poi_density":0.0,"poi_diversity":0.0,"gdp_density":4071.1208,"P":13425.3675,"I":0.0,"G":4071.1208},{"stationName":"北京崇文门(地铁站)","station_id":"北京崇文门(地铁站)_39.89951_116.41151","lineId":"北京地铁2号线 / 北京地铁5号线","lat":39.89950931,"lon":116.411513985,"area_km2":3.9634,"D":0.5891,"C":0.7353,"T":0.472,"U1":0.7919,"U2":0.1521,"couplingDegree":0.5891,"level":"勉强协调","road_density":24.3115,"walk_accessibility":0.7947,"metro_line_density":6.797,"station_count":5,"line_count":5,"population_density":16040.3564,"poi_density":0.0,"poi_diversity":0.0,"gdp_density":0.0,"P":16040.3564,"I":0.0,"G":0.0},{"stationName":"北京前门(地铁站)","station_id":"北京前门(地铁站)_39.89818_116.39258","lineId":"北京地铁2号线 / 北京地铁8号线","lat":39.8981820075,"lon":116.3925803075,"area_km2":4.5298,"D":0.6988,"C":0.9439,"T":0.5174,"U1":0.6883,"U2":0.3465,"couplingDegree":0.6988,"level":"良好协调","road_density":25.3332,"walk_accessibility":0.9082,"metro_line_density":4.8168,"station_count":5,"line_count":4,"population_density":10921.851,"poi_density":0.0,"poi_diversity":0.0,"gdp_density":2636.7616,"P":10921.851,"I":0.0,"G":2636.7616},{"stationName":"北京和平门(地铁站)","station_id":"北京和平门(地铁站)_39.89870_116.37797","lineId":"北京地铁2号线","lat":39.89870226,"lon":116.37797399,"area_km2":4.2017,"D":0.5418,"C":0.7282,"T":0.4032,"U1":0.6795,"U2":0.1269,"couplingDegree":0.5418,"level":"勉强协调","road_density":24.835,"walk_accessibility":0.8424,"metro_line_density":4.3145,"station_count":5,"line_count":4,"population_density":13381.8189,"poi_density":0.0,"poi_diversity":0.0,"gdp_density":0.0,"P":13381.8189,"I":0.0,"G":0.0},{"stationName":"北京宣武门(地铁站)","station_id":"北京宣武门(地铁站)_39.89840_116.36813","lineId":"北京地铁2号线","lat":39.89839593,"lon":116.36813067,"area_km2":4.1688,"D":0.6898,"C":0.975,"T":0.488,"U1":0.5964,"U2":0.3796,"couplingDegree":0.6898,"level":"良好协调","road_density":26.6319,"walk_accessibility":0.8358,"metro_line_density":5.8839,"station_count":5,"line_count":3,"population_density":12193.4926,"poi_density":0.0,"poi_diversity":0.0,"gdp_density":2864.8635,"P":12193.4926,"I":0.0,"G":2864.8635},{"stationName":"北京长椿街(地铁站)","station_id":"北京长椿街(地铁站)_39.89806_116.35715","lineId":"北京地铁2号线","lat":39.89805898,"lon":116.35714731,"area_km2":4.0156,"D":0.4564,"C":0.8768,"T":0.2376,"U1":0.3518,"U2":0.1233,"couplingDegree":0.4564,"level":"勉强协调","road_density":25.4901,"walk_accessibility":0.8051,"metro_line_density":6.0873,"station_count":3,"line_count":2,"population_density":13009.5842,"poi_density":0.0,"poi_diversity":0.0,"gdp_density":0.0,"P":13009.5842,"I":0.0,"G":0.0},{"stationName":"北京阜成门(地铁站)","station_id":"北京阜成门(地铁站)_39.92231_116.35002","lineId":"北京地铁2号线","lat":39.92231433,"lon":116.35001838,"area_km2":3.4745,"D":0.381,"C":0.8533,"T":0.1702,"U1":0.2589,"U2":0.0814,"couplingDegree":0.381,"level":"中度失调","road_density":24.4268,"walk_accessibility":0.6966,"metro_line_density":4.4805,"station_count":2,"line_count":2,"population_density":8600.6223,"poi_density":0.0,"poi_diversity":0.0,"gdp_density":0.0,"P":8600.6223,"I":0.0,"G":0.0},{"stationName":"北京车公庄(地铁站)","station_id":"北京车公庄(地铁站)_39.93115_116.34843","lineId":"北京北京地铁13A号线(车公庄--天通苑东) / 北京地铁2号线","lat":39.931151185,"lon":116.34842879,"area_km2":3.4683,"D":0.4852,"C":0.8309,"T":0.2833,"U1":0.441,"U2":0.1257,"couplingDegree":0.4852,"level":"勉强协调","road_density":28.7058,"walk_accessibility":0.6954,"metro_line_density":5.0896,"station_count":3,"line_count":3,"population_density":13257.3598,"poi_density":0.0,"poi_diversity":0.0,"gdp_density":0.0,"P":13257.3598,"I":0.0,"G":0.0},{"stationName":"北京西直门(地铁站)","station_id":"北京西直门(地铁站)_39.93987_116.34739","lineId":"北京北京地铁13A号线(车公庄--天通苑东) / 北京地铁13号线 / 北京地铁2号线","lat":39.93986700333333,"lon":116.34738996,"area_km2":3.6222,"D":0.5104,"C":0.7777,"T":0.335,"U1":0.5456,"U2":0.1244,"couplingDegree":0.5104,"level":"勉强协调","road_density":29.6218,"walk_accessibility":0.7262,"metro_line_density":5.527,"station_count":3,"line_count":4,"population_density":13120.363,"poi_density":0.0,"poi_diversity":0.0,"gdp_density":0.0,"P":13120.363,"I":0.0,"G":0.0},{"stationName":"北京安河桥北(地铁站)","station_id":"北京安河桥北(地铁站)_40.01097_116.26391","lineId":"北京地铁4号线","lat":40.01096706,"lon":116.26390934,"area_km2":1.7454,"D":0.3079,"C":0.9863,"T":0.0962,"U1":0.112,"U2":0.0803,"couplingDegree":0.3079,"level":"中度失调","road_density":20.1144,"walk_accessibility":0.35,"metro_line_density":1.827,"station_count":2,"line_count":1,"population_density":8478.8071,"poi_density":0.0,"poi_diversity":0.0,"gdp_density":0.0,"P":8478.8071,"I":0.0,"G":0.0},{"stationName":"北京北宫门(地铁站)","station_id":"北京北宫门(地铁站)_40.00118_116.27129","lineId":"北京地铁4号线","lat":40.00118235,"lon":116.27129476,"area_km2":2.9466,"D":0.3039,"C":0.9503,"T":0.0972,"U1":0.1275,"U2":0.0669,"couplingDegree":0.3039,"level":"中度失调","road_density":20.423,"walk_accessibility":0.5908,"metro_line_density":1.8152,"station_count":2,"line_count":1,"population_density":7074.97,"poi_density":0.0,"poi_diversity":0.0,"gdp_density":0.0,"P":7074.97,"I":0.0,"G":0.0},{"stationName":"北京西苑(地铁站)","station_id":"北京西苑(地铁站)_39.99769_116.28543","lineId":"北京地铁16号线 / 北京地铁4号线","lat":39.997691165,"lon":116.28543085000001,"area_km2":2.672,"D":0.3263,"C":0.8887,"T":0.1198,"U1":0.1747,"U2":0.0649,"couplingDegree":0.3263,"level":"中度失调","road_density":25.2967,"walk_accessibility":0.5357,"metro_line_density":4.0067,"station_count":1,"line_count":2,"population_density":6857.4791,"poi_density":0.0,"poi_diversity":0.0,"gdp_density":0.0,"P":6857.4791,"I":0.0,"G":0.0},{"stationName":"北京圆明园(地铁站)","station_id":"北京圆明园(地铁站)_39.99830_116.30377","lineId":"北京地铁4号线","lat":39.99829899,"lon":116.3037747,"area_km2":3.741,"D":0.4755,"C":0.9113,"T":0.2481,"U1":0.1459,"U2":0.3502,"couplingDegree":0.4755,"level":"勉强协调","road_density":25.9283,"walk_accessibility":0.7501,"metro_line_density":1.6334,"station_count":2,"line_count":1,"population_density":5947.1254,"poi_density":0.0,"poi_diversity":0.0,"gdp_density":3190.4056,"P":5947.1254,"I":0.0,"G":3190.4056},{"stationName":"北京北京大学东门(地铁站)","station_id":"北京北京大学东门(地铁站)_39.99084_116.30969","lineId":"北京地铁4号线","lat":39.990835329999996,"lon":116.309693915,"area_km2":4.3632,"D":0.5239,"C":0.9845,"T":0.2788,"U1":0.2299,"U2":0.3277,"couplingDegree":0.5239,"level":"勉强协调","road_density":28.872,"walk_accessibility":0.8748,"metro_line_density":1.4628,"station_count":3,"line_count":1,"population_density":7994.3572,"poi_density":0.0,"poi_diversity":0.0,"gdp_density":2735.4224,"P":7994.3572,"I":0.0,"G":2735.4224},{"stationName":"北京中关村(地铁站)","station_id":"北京中关村(地铁站)_39.98270_116.31035","lineId":"北京地铁4号线","lat":39.98269844,"lon":116.31034931,"area_km2":4.1381,"D":0.3808,"C":0.8864,"T":0.1636,"U1":0.2393,"U2":0.0878,"couplingDegree":0.3808,"level":"中度失调","road_density":31.2503,"walk_accessibility":0.8297,"metro_line_density":2.5128,"station_count":3,"line_count":1,"population_density":9275.543,"poi_density":0.0,"poi_diversity":0.0,"gdp_density":0.0,"P":9275.543,"I":0.0,"G":0.0},{"stationName":"北京海淀黄庄(地铁站)","station_id":"北京海淀黄庄(地铁站)_39.97470_116.31145","lineId":"北京地铁4号线","lat":39.974701659999994,"lon":116.3114453,"area_km2":4.146,"D":0.4832,"C":0.6903,"T":0.3383,"U1":0.583,"U2":0.0935,"couplingDegree":0.4832,"level":"勉强协调","road_density":27.7459,"walk_accessibility":0.8313,"metro_line_density":3.8641,"station_count":5,"line_count":3,"population_density":9874.6005,"poi_density":0.0,"poi_diversity":0.0,"gdp_density":0.0,"P":9874.6005,"I":0.0,"G":0.0},{"stationName":"北京人民大学(地铁站)","station_id":"北京人民大学(地铁站)_39.96568_116.31625","lineId":"北京地铁12号线 / 北京地铁4号线","lat":39.965683935,"lon":116.3162508925,"area_km2":3.6043,"D":0.5164,"C":0.8345,"T":0.3196,"U1":0.4957,"U2":0.1435,"couplingDegree":0.5164,"level":"勉强协调","road_density":23.7834,"walk_accessibility":0.7226,"metro_line_density":3.7034,"station_count":4,"line_count":3,"population_density":15130.9823,"poi_density":0.0,"poi_diversity":0.0,"gdp_density":0.0,"P":15130.9823,"I":0.0,"G":0.0},{"stationName":"北京魏公村(地铁站)","station_id":"北京魏公村(地铁站)_39.95660_116.31709","lineId":"北京地铁4号线","lat":39.95660038,"lon":116.31709131,"area_km2":3.0011,"D":0.4091,"C":0.9459,"T":0.1769,"U1":0.2343,"U2":0.1195,"couplingDegree":0.4091,"level":"勉强协调","road_density":21.1081,"walk_accessibility":0.6017,"metro_line_density":2.7829,"station_count":2,"line_count":2,"population_density":12606.6308,"poi_density":0.0,"poi_diversity":0.0,"gdp_density":0.0,"P":12606.6308,"I":0.0,"G":0.0},{"stationName":"北京国家图书馆(地铁站)","station_id":"北京国家图书馆(地铁站)_39.94121_116.31825","lineId":"北京地铁16号线 / 北京地铁4号线","lat":39.941212379999996,"lon":116.318246475,"area_km2":3.0594,"D":0.3435,"C":0.9075,"T":0.13,"U1":0.1846,"U2":0.0754,"couplingDegree":0.3435,"level":"中度失调","road_density":24.7985,"walk_accessibility":0.6134,"metro_line_density":4.8041,"station_count":1,"line_count":2,"population_density":7964.0038,"poi_density":0.0,"poi_diversity":0.0,"gdp_density":0.0,"P":7964.0038,"I":0.0,"G":0.0},{"stationName":"北京动物园(地铁站)","station_id":"北京动物园(地铁站)_39.93692_116.33287","lineId":"北京地铁4号线","lat":39.93691647,"lon":116.33286818,"area_km2":3.6505,"D":0.4262,"C":0.767,"T":0.2368,"U1":0.0849,"U2":0.3888,"couplingDegree":0.4262,"level":"勉强协调","road_density":27.0671,"walk_accessibility":0.7319,"metro_line_density":2.9999,"station_count":1,"line_count":1,"population_density":9240.3382,"poi_density":0.0,"poi_diversity":0.0,"gdp_density":3269.8443,"P":9240.3382,"I":0.0,"G":3269.8443},{"stationName":"北京新街口(地铁站)","station_id":"北京新街口(地铁站)_39.93930_116.36137","lineId":"北京地铁4号线","lat":39.93930279,"lon":116.36136746,"area_km2":3.5799,"D":0.7341,"C":0.9657,"T":0.558,"U1":0.703,"U2":0.413,"couplingDegree":0.7341,"level":"良好协调","road_density":24.8868,"walk_accessibility":0.7178,"metro_line_density":5.0778,"station_count":4,"line_count":5,"population_density":11155.1997,"poi_density":0.0,"poi_diversity":0.0,"gdp_density":3335.2908,"P":11155.1997,"I":0.0,"G":3335.2908},{"stationName":"北京平安里(地铁站)","station_id":"北京平安里(地铁站)_39.93227_116.36427","lineId":"北京地铁19号线 / 北京地铁4号线","lat":39.93226757,"lon":116.364273705,"area_km2":3.8548,"D":0.6124,"C":0.9862,"T":0.3803,"U1":0.3173,"U2":0.4432,"couplingDegree":0.6124,"level":"良好协调","road_density":19.716,"walk_accessibility":0.7729,"metro_line_density":3.137,"station_count":3,"line_count":2,"population_density":16636.6904,"poi_density":0.0,"poi_diversity":0.0,"gdp_density":3097.4833,"P":16636.6904,"I":0.0,"G":3097.4833},{"stationName":"北京西四(地铁站)","station_id":"北京西四(地铁站)_39.92282_116.36711","lineId":"北京地铁4号线","lat":39.92281814,"lon":116.36710643,"area_km2":3.7255,"D":0.4713,"C":0.942,"T":0.2358,"U1":0.3149,"U2":0.1567,"couplingDegree":0.4713,"level":"勉强协调","road_density":20.9826,"walk_accessibility":0.747,"metro_line_density":2.7234,"station_count":3,"line_count":2,"population_density":16521.802,"poi_density":0.0,"poi_diversity":0.0,"gdp_density":0.0,"P":16521.802,"I":0.0,"G":0.0},{"stationName":"北京灵境胡同(地铁站)","station_id":"北京灵境胡同(地铁站)_39.91467_116.36747","lineId":"北京地铁4号线","lat":39.91466706,"lon":116.36747094,"area_km2":3.7655,"D":0.4615,"C":0.9142,"T":0.233,"U1":0.3274,"U2":0.1385,"couplingDegree":0.4615,"level":"勉强协调","road_density":27.2251,"walk_accessibility":0.755,"metro_line_density":2.8212,"station_count":3,"line_count":2,"population_density":14609.3036,"poi_density":0.0,"poi_diversity":0.0,"gdp_density":0.0,"P":14609.3036,"I":0.0,"G":0.0},{"stationName":"北京菜市口(地铁站)","station_id":"北京菜市口(地铁站)_39.88791_116.36820","lineId":"北京地铁4号线","lat":39.88791012,"lon":116.36820207,"area_km2":4.0872,"D":0.3741,"C":0.7157,"T":0.1956,"U1":0.3321,"U2":0.059,"couplingDegree":0.3741,"level":"中度失调","road_density":23.0015,"walk_accessibility":0.8195,"metro_line_density":3.94,"station_count":3,"line_count":2,"population_density":6237.951,"poi_density":0.0,"poi_diversity":0.0,"gdp_density":0.0,"P":6237.951,"I":0.0,"G":0.0},{"stationName":"北京陶然亭(地铁站)","station_id":"北京陶然亭(地铁站)_39.87708_116.36816","lineId":"北京地铁4号线","lat":39.87708289,"lon":116.36816223,"area_km2":3.705,"D":0.4774,"C":0.9098,"T":0.2505,"U1":0.1465,"U2":0.3545,"couplingDegree":0.4774,"level":"勉强协调","road_density":24.3232,"walk_accessibility":0.7428,"metro_line_density":2.1612,"station_count":2,"line_count":1,"population_density":6057.1957,"poi_density":0.0,"poi_diversity":0.0,"gdp_density":3226.0448,"P":6057.1957,"I":0.0,"G":3226.0448},{"stationName":"北京北京南站(地铁站)","station_id":"北京北京南站(地铁站)_39.86364_116.37274","lineId":"北京地铁4号线","lat":39.86363771,"lon":116.37273769,"area_km2":2.4778,"D":0.2796,"C":0.9962,"T":0.0785,"U1":0.0853,"U2":0.0716,"couplingDegree":0.2796,"level":"中度失调","road_density":32.3477,"walk_accessibility":0.4968,"metro_line_density":3.7361,"station_count":1,"line_count":1,"population_density":7570.1186,"poi_density":0.0,"poi_diversity":0.0,"gdp_density":0.0,"P":7570.1186,"I":0.0,"G":0.0},{"stationName":"北京马家堡(地铁站)","station_id":"北京马家堡(地铁站)_39.85205_116.36519","lineId":"北京地铁4号线","lat":39.85204598,"lon":116.36518746,"area_km2":2.5397,"D":0.5182,"C":0.8265,"T":0.3249,"U1":0.142,"U2":0.5078,"couplingDegree":0.5182,"level":"勉强协调","road_density":24.7372,"walk_accessibility":0.5092,"metro_line_density":3.3991,"station_count":2,"line_count":1,"population_density":7823.8369,"poi_density":0.0,"poi_diversity":0.0,"gdp_density":4707.444,"P":7823.8369,"I":0.0,"G":4707.444},{"stationName":"北京角门西(地铁站)","station_id":"北京角门西(地铁站)_39.84447_116.36494","lineId":"北京地铁4号线","lat":39.84446936,"lon":116.36494051,"area_km2":2.908,"D":0.6388,"C":0.9981,"T":0.4088,"U1":0.384,"U2":0.4337,"couplingDegree":0.6388,"level":"良好协调","road_density":20.1621,"walk_accessibility":0.583,"metro_line_density":3.8633,"station_count":4,"line_count":2,"population_density":5803.3581,"poi_density":0.0,"poi_diversity":0.0,"gdp_density":4111.2425,"P":5803.3581,"I":0.0,"G":4111.2425},{"stationName":"北京公益西桥(地铁站)","station_id":"北京公益西桥(地铁站)_39.83560_116.36462","lineId":"北京地铁4号线","lat":39.83560069,"lon":116.364624815,"area_km2":2.3942,"D":0.5098,"C":0.8137,"T":0.3193,"U1":0.1337,"U2":0.505,"couplingDegree":0.5098,"level":"勉强协调","road_density":22.1036,"walk_accessibility":0.48,"metro_line_density":3.1682,"station_count":2,"line_count":1,"population_density":4748.5335,"poi_density":0.0,"poi_diversity":0.0,"gdp_density":4993.4473,"P":4748.5335,"I":0.0,"G":4993.4473},{"stationName":"北京新宫(地铁站)","station_id":"北京新宫(地铁站)_39.81110_116.36053","lineId":"北京地铁19号线 / 北京地铁4号线","lat":39.811095865,"lon":116.360533335,"area_km2":2.2257,"D":0.545,"C":0.8187,"T":0.3628,"U1":0.1545,"U2":0.571,"couplingDegree":0.545,"level":"勉强协调","road_density":18.6059,"walk_accessibility":0.4462,"metro_line_density":3.6556,"station_count":1,"line_count":2,"population_density":8032.1911,"poi_density":0.0,"poi_diversity":0.0,"gdp_density":5372.0641,"P":8032.1911,"I":0.0,"G":5372.0641},{"stationName":"北京西红门(地铁站)","station_id":"北京西红门(地铁站)_39.78849_116.32257","lineId":"北京地铁4号线","lat":39.78849495,"lon":116.32256772,"area_km2":2.6055,"D":0.1942,"C":0.8334,"T":0.0453,"U1":0.0703,"U2":0.0203,"couplingDegree":0.1942,"level":"极度失调","road_density":28.3379,"walk_accessibility":0.5224,"metro_line_density":2.4856,"station_count":1,"line_count":1,"population_density":2161.9986,"poi_density":0.0,"poi_diversity":0.0,"gdp_density":0.0,"P":2161.9986,"I":0.0,"G":0.0},{"stationName":"北京高米店北(地铁站)","station_id":"北京高米店北(地铁站)_39.77224_116.32466","lineId":"北京地铁4号线","lat":39.77223949,"lon":116.32466397,"area_km2":3.4184,"D":0.1593,"C":0.3437,"T":0.0739,"U1":0.1433,"U2":0.0045,"couplingDegree":0.1593,"level":"极度失调","road_density":25.8845,"walk_accessibility":0.6854,"metro_line_density":1.8224,"station_count":2,"line_count":1,"population_density":504.3246,"poi_density":0.0,"poi_diversity":0.0,"gdp_density":0.0,"P":504.3246,"I":0.0,"G":0.0},{"stationName":"北京高米店南(地铁站)","station_id":"北京高米店南(地铁站)_39.76218_116.32548","lineId":"北京地铁4号线","lat":39.76217953,"lon":116.3254801,"area_km2":3.2138,"D":0.2036,"C":0.3741,"T":0.1108,"U1":0.2136,"U2":0.008,"couplingDegree":0.2036,"level":"中度失调","road_density":25.4687,"walk_accessibility":0.6444,"metro_line_density":2.0195,"station_count":3,"line_count":1,"population_density":877.773,"poi_density":0.0,"poi_diversity":0.0,"gdp_density":0.0,"P":877.773,"I":0.0,"G":0.0},{"stationName":"北京枣园(地铁站)","station_id":"北京枣园(地铁站)_39.75215_116.32608","lineId":"北京地铁4号线","lat":39.75215002,"lon":116.32608054,"area_km2":2.4952,"D":0.5955,"C":0.8591,"T":0.4128,"U1":0.2015,"U2":0.6241,"couplingDegree":0.5955,"level":"勉强协调","road_density":21.6428,"walk_accessibility":0.5003,"metro_line_density":2.5227,"station_count":3,"line_count":1,"population_density":1803.8861,"poi_density":0.0,"poi_diversity":0.0,"gdp_density":6589.732,"P":1803.8861,"I":0.0,"G":6589.732},{"stationName":"北京清源路(地铁站)","station_id":"北京清源路(地铁站)_39.74142_116.32639","lineId":"北京地铁4号线","lat":39.741415575,"lon":116.32638975,"area_km2":2.6758,"D":0.2706,"C":0.6325,"T":0.1158,"U1":0.2055,"U2":0.0261,"couplingDegree":0.2706,"level":"中度失调","road_density":23.1035,"walk_accessibility":0.5365,"metro_line_density":2.3937,"station_count":3,"line_count":1,"population_density":2777.8315,"poi_density":0.0,"poi_diversity":0.0,"gdp_density":0.0,"P":2777.8315,"I":0.0,"G":0.0},{"stationName":"北京黄村西大街(地铁站)","station_id":"北京黄村西大街(地铁站)_39.73046_116.32651","lineId":"北京地铁4号线","lat":39.73046207,"lon":116.32650872,"area_km2":2.6262,"D":0.333,"C":0.8413,"T":0.1318,"U1":0.203,"U2":0.0606,"couplingDegree":0.333,"level":"中度失调","road_density":21.7553,"walk_accessibility":0.5265,"metro_line_density":2.4758,"station_count":3,"line_count":1,"population_density":6404.2807,"poi_density":0.0,"poi_diversity":0.0,"gdp_density":0.0,"P":6404.2807,"I":0.0,"G":0.0},{"stationName":"北京黄村火车站(地铁站)","station_id":"北京黄村火车站(地铁站)_39.72166_116.32649","lineId":"北京地铁4号线","lat":39.72166095,"lon":116.32648997,"area_km2":1.8206,"D":0.5742,"C":0.6479,"T":0.5088,"U1":0.1212,"U2":0.8965,"couplingDegree":0.5742,"level":"勉强协调","road_density":21.129,"walk_accessibility":0.365,"metro_line_density":2.6877,"station_count":2,"line_count":1,"population_density":6821.2888,"poi_density":0.0,"poi_diversity":0.0,"gdp_density":9028.3021,"P":6821.2888,"I":0.0,"G":9028.3021},{"stationName":"北京义和庄(地铁站)","station_id":"北京义和庄(地铁站)_39.71111_116.31299","lineId":"北京地铁4号线","lat":39.71110932,"lon":116.31299041,"area_km2":2.0648,"D":0.1392,"C":0.6783,"T":0.0286,"U1":0.0496,"U2":0.0076,"couplingDegree":0.1392,"level":"极度失调","road_density":19.0962,"walk_accessibility":0.414,"metro_line_density":2.8437,"station_count":1,"line_count":1,"population_density":828.1522,"poi_density":0.0,"poi_diversity":0.0,"gdp_density":0.0,"P":828.1522,"I":0.0,"G":0.0},{"stationName":"北京生物医药基地(地铁站)","station_id":"北京生物医药基地(地铁站)_39.68523_116.31557","lineId":"北京地铁4号线","lat":39.68523023,"lon":116.31557012,"area_km2":1.9068,"D":0.159,"C":0.7288,"T":0.0347,"U1":0.0584,"U2":0.0109,"couplingDegree":0.159,"level":"极度失调","road_density":24.0617,"walk_accessibility":0.3823,"metro_line_density":3.0917,"station_count":1,"line_count":1,"population_density":1181.0341,"poi_density":0.0,"poi_diversity":0.0,"gdp_density":0.0,"P":1181.0341,"I":0.0,"G":0.0},{"stationName":"北京天宫院(地铁站)","station_id":"北京天宫院(地铁站)_39.66907_116.31385","lineId":"北京地铁4号线","lat":39.66906896,"lon":116.31384701,"area_km2":2.0194,"D":0.4089,"C":0.5617,"T":0.2976,"U1":0.0514,"U2":0.5438,"couplingDegree":0.4089,"level":"勉强协调","road_density":25.3578,"walk_accessibility":0.4049,"metro_line_density":1.6525,"station_count":1,"line_count":1,"population_density":2166.9542,"poi_density":0.0,"poi_diversity":0.0,"gdp_density":5681.5232,"P":2166.9542,"I":0.0,"G":5681.5232},{"stationName":"北京天通苑北(地铁站)","station_id":"北京天通苑北(地铁站)_40.08226_116.40663","lineId":"北京地铁5号线","lat":40.08225789,"lon":116.40662522,"area_km2":1.4887,"D":0.3018,"C":0.7125,"T":0.1278,"U1":0.2176,"U2":0.0381,"couplingDegree":0.3018,"level":"中度失调","road_density":24.8832,"walk_accessibility":0.2985,"metro_line_density":2.1514,"station_count":2,"line_count":2,"population_density":4044.45,"poi_density":0.0,"poi_diversity":0.0,"gdp_density":0.0,"P":4044.45,"I":0.0,"G":0.0},{"stationName":"北京天通苑(地铁站)","station_id":"北京天通苑(地铁站)_40.07330_116.40670","lineId":"北京北京地铁13A号线(车公庄--天通苑东) / 北京地铁5号线","lat":40.07330092,"lon":116.40670434,"area_km2":2.7874,"D":0.2754,"C":0.4561,"T":0.1663,"U1":0.3143,"U2":0.0183,"couplingDegree":0.2754,"level":"中度失调","road_density":23.509,"walk_accessibility":0.5589,"metro_line_density":3.6044,"station_count":3,"line_count":2,"population_density":1957.0066,"poi_density":0.0,"poi_diversity":0.0,"gdp_density":0.0,"P":1957.0066,"I":0.0,"G":0.0},{"stationName":"北京天通苑南(地铁站)","station_id":"北京天通苑南(地铁站)_40.06520_116.40642","lineId":"北京地铁5号线","lat":40.06520323,"lon":116.40642287,"area_km2":2.418,"D":0.2454,"C":0.4787,"T":0.1258,"U1":0.2362,"U2":0.0153,"couplingDegree":0.2454,"level":"中度失调","road_density":24.4147,"walk_accessibility":0.4848,"metro_line_density":3.2079,"station_count":2,"line_count":2,"population_density":1646.0095,"poi_density":0.0,"poi_diversity":0.0,"gdp_density":0.0,"P":1646.0095,"I":0.0,"G":0.0},{"stationName":"北京立水桥(地铁站)","station_id":"北京立水桥(地铁站)_40.05150_116.40549","lineId":"北京北京地铁13B号线(马连洼--东直门) / 北京地铁5号线","lat":40.05150289,"lon":116.40548945,"area_km2":2.6383,"D":0.3136,"C":0.6823,"T":0.1441,"U1":0.2495,"U2":0.0388,"couplingDegree":0.3136,"level":"中度失调","road_density":22.9361,"walk_accessibility":0.529,"metro_line_density":4.9724,"station_count":2,"line_count":2,"population_density":4110.1787,"poi_density":0.0,"poi_diversity":0.0,"gdp_density":0.0,"P":4110.1787,"I":0.0,"G":0.0},{"stationName":"北京立水桥南(地铁站)","station_id":"北京立水桥南(地铁站)_40.04055_116.40824","lineId":"北京地铁5号线","lat":40.04054998,"lon":116.40823958,"area_km2":3.2103,"D":0.3616,"C":0.8253,"T":0.1585,"U1":0.2479,"U2":0.069,"couplingDegree":0.3616,"level":"中度失调","road_density":26.6701,"walk_accessibility":0.6437,"metro_line_density":2.9139,"station_count":2,"line_count":2,"population_density":7291.8413,"poi_density":0.0,"poi_diversity":0.0,"gdp_density":0.0,"P":7291.8413,"I":0.0,"G":0.0},{"stationName":"北京北苑路北(地铁站)","station_id":"北京北苑路北(地铁站)_40.02903_116.41184","lineId":"北京地铁5号线","lat":40.02903149,"lon":116.4118377,"area_km2":3.1353,"D":0.2369,"C":0.9831,"T":0.0571,"U1":0.0675,"U2":0.0466,"couplingDegree":0.2369,"level":"中度失调","road_density":24.7084,"walk_accessibility":0.6286,"metro_line_density":2.1066,"station_count":1,"line_count":1,"population_density":4937.689,"poi_density":0.0,"poi_diversity":0.0,"gdp_density":0.0,"P":4937.689,"I":0.0,"G":0.0},{"stationName":"北京大屯路东(地铁站)","station_id":"北京大屯路东(地铁站)_40.00208_116.41178","lineId":"北京地铁15号线 / 北京地铁5号线","lat":40.002081430000004,"lon":116.411780315,"area_km2":2.9219,"D":0.3129,"C":0.8647,"T":0.1132,"U1":0.1701,"U2":0.0563,"couplingDegree":0.3129,"level":"中度失调","road_density":20.0391,"walk_accessibility":0.5858,"metro_line_density":4.2421,"station_count":1,"line_count":2,"population_density":5961.1109,"poi_density":0.0,"poi_diversity":0.0,"gdp_density":0.0,"P":5961.1109,"I":0.0,"G":0.0},{"stationName":"北京惠新西街北口(地铁站)","station_id":"北京惠新西街北口(地铁站)_39.98643_116.41078","lineId":"北京地铁5号线","lat":39.98643254,"lon":116.41078098,"area_km2":3.2078,"D":0.3542,"C":0.9935,"T":0.1263,"U1":0.1406,"U2":0.1119,"couplingDegree":0.3542,"level":"中度失调","road_density":24.5332,"walk_accessibility":0.6432,"metro_line_density":2.1487,"station_count":2,"line_count":1,"population_density":11811.7743,"poi_density":0.0,"poi_diversity":0.0,"gdp_density":0.0,"P":11811.7743,"I":0.0,"G":0.0},{"stationName":"北京惠新西街南口(地铁站)","station_id":"北京惠新西街南口(地铁站)_39.97572_116.41129","lineId":"北京地铁5号线","lat":39.97571918,"lon":116.41129263,"area_km2":3.5617,"D":0.451,"C":0.687,"T":0.2961,"U1":0.5112,"U2":0.0809,"couplingDegree":0.451,"level":"勉强协调","road_density":30.6283,"walk_accessibility":0.7141,"metro_line_density":4.2027,"station_count":4,"line_count":3,"population_density":8546.9771,"poi_density":0.0,"poi_diversity":0.0,"gdp_density":0.0,"P":8546.9771,"I":0.0,"G":0.0},{"stationName":"北京和平西桥(地铁站)","station_id":"北京和平西桥(地铁站)_39.96731_116.41173","lineId":"北京地铁12号线 / 北京地铁5号线","lat":39.9673059,"lon":116.41172969499999,"area_km2":3.5985,"D":0.3766,"C":0.709,"T":0.2,"U1":0.341,"U2":0.059,"couplingDegree":0.3766,"level":"中度失调","road_density":29.5954,"walk_accessibility":0.7215,"metro_line_density":4.349,"station_count":3,"line_count":2,"population_density":6235.9968,"poi_density":0.0,"poi_diversity":0.0,"gdp_density":0.0,"P":6235.9968,"I":0.0,"G":0.0},{"stationName":"北京和平里北街(地铁站)","station_id":"北京和平里北街(地铁站)_39.95733_116.41226","lineId":"北京地铁5号线","lat":39.95733325,"lon":116.41226237,"area_km2":2.9274,"D":0.3743,"C":0.6158,"T":0.2276,"U1":0.4069,"U2":0.0483,"couplingDegree":0.3743,"level":"中度失调","road_density":23.1034,"walk_accessibility":0.5869,"metro_line_density":2.7775,"station_count":3,"line_count":3,"population_density":5110.3909,"poi_density":0.0,"poi_diversity":0.0,"gdp_density":0.0,"P":5110.3909,"I":0.0,"G":0.0},{"stationName":"北京北新桥(地铁站)","station_id":"北京北新桥(地铁站)_39.93949_116.41013","lineId":"北京北京首都机场线(3号航站楼--北新桥) / 北京地铁5号线","lat":39.93948625,"lon":116.41013218500001,"area_km2":3.9454,"D":0.5149,"C":0.8363,"T":0.317,"U1":0.4908,"U2":0.1432,"couplingDegree":0.5149,"level":"勉强协调","road_density":20.4869,"walk_accessibility":0.791,"metro_line_density":3.2717,"station_count":4,"line_count":3,"population_density":15100.9007,"poi_density":0.0,"poi_diversity":0.0,"gdp_density":0.0,"P":15100.9007,"I":0.0,"G":0.0},{"stationName":"北京张自忠路(地铁站)","station_id":"北京张自忠路(地铁站)_39.93223_116.41116","lineId":"北京地铁5号线","lat":39.93223467,"lon":116.41116327,"area_km2":4.0523,"D":0.4982,"C":0.7453,"T":0.333,"U1":0.5549,"U2":0.111,"couplingDegree":0.4982,"level":"勉强协调","road_density":19.0259,"walk_accessibility":0.8125,"metro_line_density":2.3706,"station_count":5,"line_count":3,"population_density":11711.0031,"poi_density":0.0,"poi_diversity":0.0,"gdp_density":0.0,"P":11711.0031,"I":0.0,"G":0.0},{"stationName":"北京东四(地铁站)","station_id":"北京东四(地铁站)_39.92297_116.41125","lineId":"北京地铁5号线","lat":39.922969635,"lon":116.41125493,"area_km2":3.9965,"D":0.5044,"C":0.8483,"T":0.2999,"U1":0.4586,"U2":0.1411,"couplingDegree":0.5044,"level":"勉强协调","road_density":20.2685,"walk_accessibility":0.8013,"metro_line_density":2.3495,"station_count":5,"line_count":2,"population_density":14879.9673,"poi_density":0.0,"poi_diversity":0.0,"gdp_density":0.0,"P":14879.9673,"I":0.0,"G":0.0},{"stationName":"北京灯市口(地铁站)","station_id":"北京灯市口(地铁站)_39.91571_116.41155","lineId":"北京地铁5号线","lat":39.915714,"lon":116.41154568,"area_km2":4.0781,"D":0.5048,"C":0.6922,"T":0.3681,"U1":0.6338,"U2":0.1024,"couplingDegree":0.5048,"level":"勉强协调","road_density":20.4871,"walk_accessibility":0.8177,"metro_line_density":2.8638,"station_count":6,"line_count":3,"population_density":10811.85,"poi_density":0.0,"poi_diversity":0.0,"gdp_density":0.0,"P":10811.85,"I":0.0,"G":0.0},{"stationName":"北京磁器口(地铁站)","station_id":"北京磁器口(地铁站)_39.89171_116.41299","lineId":"北京地铁5号线 / 北京地铁7号线","lat":39.891711826666665,"lon":116.41299282,"area_km2":4.2768,"D":0.519,"C":0.8982,"T":0.2999,"U1":0.4317,"U2":0.1681,"couplingDegree":0.519,"level":"勉强协调","road_density":23.5325,"walk_accessibility":0.8575,"metro_line_density":3.7415,"station_count":3,"line_count":3,"population_density":17718.6674,"poi_density":0.0,"poi_diversity":0.0,"gdp_density":0.0,"P":17718.6674,"I":0.0,"G":0.0},{"stationName":"北京天坛东门(地铁站)","station_id":"北京天坛东门(地铁站)_39.88116_116.41460","lineId":"北京地铁5号线","lat":39.88116352,"lon":116.41460329,"area_km2":3.6332,"D":0.4021,"C":0.9226,"T":0.1753,"U1":0.2429,"U2":0.1076,"couplingDegree":0.4021,"level":"勉强协调","road_density":25.0555,"walk_accessibility":0.7284,"metro_line_density":1.9214,"station_count":2,"line_count":2,"population_density":11358.6944,"poi_density":0.0,"poi_diversity":0.0,"gdp_density":0.0,"P":11358.6944,"I":0.0,"G":0.0},{"stationName":"北京蒲黄榆(地铁站)","station_id":"北京蒲黄榆(地铁站)_39.86422_116.41615","lineId":"北京地铁14号线 / 北京地铁5号线","lat":39.86422005,"lon":116.416150725,"area_km2":3.005,"D":0.3288,"C":0.7316,"T":0.1477,"U1":0.2485,"U2":0.047,"couplingDegree":0.3288,"level":"中度失调","road_density":23.2202,"walk_accessibility":0.6025,"metro_line_density":4.1573,"station_count":2,"line_count":2,"population_density":4978.7612,"poi_density":0.0,"poi_diversity":0.0,"gdp_density":0.0,"P":4978.7612,"I":0.0,"G":0.0},{"stationName":"北京刘家窑(地铁站)","station_id":"北京刘家窑(地铁站)_39.85613_116.41589","lineId":"北京地铁5号线","lat":39.85612865,"lon":116.41589348,"area_km2":2.6725,"D":0.4206,"C":0.96,"T":0.1842,"U1":0.2358,"U2":0.1327,"couplingDegree":0.4206,"level":"勉强协调","road_density":22.4152,"walk_accessibility":0.5358,"metro_line_density":3.2135,"station_count":2,"line_count":2,"population_density":13995.3295,"poi_density":0.0,"poi_diversity":0.0,"gdp_density":0.0,"P":13995.3295,"I":0.0,"G":0.0},{"stationName":"北京宋家庄(地铁站)","station_id":"北京宋家庄(地铁站)_39.84389_116.42216","lineId":"北京地铁5号线 / 北京地铁亦庄线","lat":39.84389135666667,"lon":116.42216049333335,"area_km2":2.6134,"D":0.6397,"C":0.9803,"T":0.4174,"U1":0.3349,"U2":0.4999,"couplingDegree":0.6397,"level":"良好协调","road_density":18.7239,"walk_accessibility":0.524,"metro_line_density":4.3828,"station_count":2,"line_count":3,"population_density":8243.1809,"poi_density":0.0,"poi_diversity":0.0,"gdp_density":4578.5139,"P":8243.1809,"I":0.0,"G":4578.5139},{"stationName":"北京珠市口(地铁站)","station_id":"北京珠市口(地铁站)_39.88924_116.39213","lineId":"北京地铁7号线 / 北京地铁8号线","lat":39.889244225,"lon":116.392132485,"area_km2":4.4471,"D":0.4719,"C":0.8195,"T":0.2717,"U1":0.4274,"U2":0.116,"couplingDegree":0.4719,"level":"勉强协调","road_density":23.3063,"walk_accessibility":0.8916,"metro_line_density":2.939,"station_count":3,"line_count":3,"population_density":12237.643,"poi_density":0.0,"poi_diversity":0.0,"gdp_density":0.0,"P":12237.643,"I":0.0,"G":0.0},{"stationName":"北京双井(地铁站)","station_id":"北京双井(地铁站)_39.89211_116.45665","lineId":"北京地铁10号线 / 北京地铁7号线","lat":39.892106534999996,"lon":116.456647525,"area_km2":3.0662,"D":0.3958,"C":0.9068,"T":0.1728,"U1":0.2456,"U2":0.0999,"couplingDegree":0.3958,"level":"中度失调","road_density":19.8899,"walk_accessibility":0.6148,"metro_line_density":4.4763,"station_count":2,"line_count":2,"population_density":10549.6152,"poi_density":0.0,"poi_diversity":0.0,"gdp_density":0.0,"P":10549.6152,"I":0.0,"G":0.0},{"stationName":"北京瀛海(地铁站)","station_id":"北京瀛海(地铁站)_39.75937_116.44282","lineId":"北京地铁8号线","lat":39.75936684,"lon":116.44282139,"area_km2":2.2642,"D":0.1352,"C":0.719,"T":0.0254,"U1":0.0431,"U2":0.0078,"couplingDegree":0.1352,"level":"极度失调","road_density":20.11,"walk_accessibility":0.454,"metro_line_density":1.4028,"station_count":1,"line_count":1,"population_density":847.0829,"poi_density":0.0,"poi_diversity":0.0,"gdp_density":0.0,"P":847.0829,"I":0.0,"G":0.0},{"stationName":"北京德茂(地铁站)","station_id":"北京德茂(地铁站)_39.77127_116.43559","lineId":"北京地铁8号线","lat":39.77127448,"lon":116.43559148,"area_km2":2.277,"D":0.1438,"C":0.6533,"T":0.0317,"U1":0.0556,"U2":0.0077,"couplingDegree":0.1438,"level":"极度失调","road_density":21.4886,"walk_accessibility":0.4565,"metro_line_density":2.7261,"station_count":1,"line_count":1,"population_density":840.1461,"poi_density":0.0,"poi_diversity":0.0,"gdp_density":0.0,"P":840.1461,"I":0.0,"G":0.0},{"stationName":"北京五福堂(地铁站)","station_id":"北京五福堂(地铁站)_39.78366_116.41769","lineId":"北京地铁8号线","lat":39.78365991,"lon":116.41768961,"area_km2":1.6652,"D":0.1659,"C":0.7586,"T":0.0363,"U1":0.0599,"U2":0.0126,"couplingDegree":0.1659,"level":"极度失调","road_density":24.4415,"walk_accessibility":0.3339,"metro_line_density":3.6039,"station_count":1,"line_count":1,"population_density":1360.7707,"poi_density":0.0,"poi_diversity":0.0,"gdp_density":0.0,"P":1360.7707,"I":0.0,"G":0.0},{"stationName":"北京火箭万源(地铁站)","station_id":"北京火箭万源(地铁站)_39.79789_116.41241","lineId":"北京地铁8号线","lat":39.79789437,"lon":116.41240509,"area_km2":1.758,"D":0.3019,"C":0.9725,"T":0.0938,"U1":0.1156,"U2":0.0719,"couplingDegree":0.3019,"level":"中度失调","road_density":15.7613,"walk_accessibility":0.3525,"metro_line_density":3.3333,"station_count":2,"line_count":1,"population_density":7597.7281,"poi_density":0.0,"poi_diversity":0.0,"gdp_density":0.0,"P":7597.7281,"I":0.0,"G":0.0},{"stationName":"北京东高地(地铁站)","station_id":"北京东高地(地铁站)_39.80368_116.40320","lineId":"北京地铁8号线","lat":39.80367658,"lon":116.40319838,"area_km2":1.8041,"D":0.3331,"C":0.8745,"T":0.1269,"U1":0.1884,"U2":0.0653,"couplingDegree":0.3331,"level":"中度失调","road_density":16.2738,"walk_accessibility":0.3617,"metro_line_density":3.213,"station_count":3,"line_count":1,"population_density":6906.5517,"poi_density":0.0,"poi_diversity":0.0,"gdp_density":0.0,"P":6906.5517,"I":0.0,"G":0.0},{"stationName":"北京和义(地铁站)","station_id":"北京和义(地铁站)_39.81344_116.39584","lineId":"北京地铁8号线","lat":39.81343826,"lon":116.39584148,"area_km2":1.8222,"D":0.5488,"C":0.7105,"T":0.4239,"U1":0.1256,"U2":0.7221,"couplingDegree":0.5488,"level":"勉强协调","road_density":20.9136,"walk_accessibility":0.3654,"metro_line_density":3.3227,"station_count":2,"line_count":1,"population_density":12345.7346,"poi_density":0.0,"poi_diversity":0.0,"gdp_density":6566.6078,"P":12345.7346,"I":0.0,"G":6566.6078},{"stationName":"北京大红门南(地铁站)","station_id":"北京大红门南(地铁站)_39.83532_116.39481","lineId":"北京地铁8号线","lat":39.835315235,"lon":116.39480971500001,"area_km2":2.4478,"D":0.5882,"C":0.9285,"T":0.3726,"U1":0.2342,"U2":0.511,"couplingDegree":0.5882,"level":"勉强协调","road_density":22.8422,"walk_accessibility":0.4908,"metro_line_density":3.2701,"station_count":2,"line_count":2,"population_density":6416.7323,"poi_density":0.0,"poi_diversity":0.0,"gdp_density":4886.8397,"P":6416.7323,"I":0.0,"G":4886.8397},{"stationName":"北京大红门(地铁站)","station_id":"北京大红门(地铁站)_39.84344_116.39369","lineId":"北京地铁10号线 / 北京地铁8号线","lat":39.843435334999995,"lon":116.39368515999999,"area_km2":2.8557,"D":0.6727,"C":0.9999,"T":0.4526,"U1":0.4599,"U2":0.4454,"couplingDegree":0.6727,"level":"良好协调","road_density":21.4336,"walk_accessibility":0.5726,"metro_line_density":4.1391,"station_count":5,"line_count":2,"population_density":6283.5655,"poi_density":0.0,"poi_diversity":0.0,"gdp_density":4188.8451,"P":6283.5655,"I":0.0,"G":4188.8451},{"stationName":"北京海户屯(地铁站)","station_id":"北京海户屯(地铁站)_39.85040_116.39407","lineId":"北京地铁8号线","lat":39.850403725,"lon":116.394065055,"area_km2":2.7411,"D":0.6136,"C":0.9829,"T":0.3831,"U1":0.3125,"U2":0.4537,"couplingDegree":0.6136,"level":"良好协调","road_density":23.9544,"walk_accessibility":0.5496,"metro_line_density":3.3268,"station_count":3,"line_count":2,"population_density":5458.0349,"poi_density":0.0,"poi_diversity":0.0,"gdp_density":4363.9835,"P":5458.0349,"I":0.0,"G":4363.9835},{"stationName":"北京木樨园(地铁站)","station_id":"北京木樨园(地铁站)_39.85786_116.39360","lineId":"北京地铁8号线","lat":39.85786103,"lon":116.39360151,"area_km2":2.8358,"D":0.4317,"C":0.8855,"T":0.2105,"U1":0.3083,"U2":0.1127,"couplingDegree":0.4317,"level":"勉强协调","road_density":22.7839,"walk_accessibility":0.5686,"metro_line_density":2.8839,"station_count":3,"line_count":2,"population_density":11889.9876,"poi_density":0.0,"poi_diversity":0.0,"gdp_density":0.0,"P":11889.9876,"I":0.0,"G":0.0},{"stationName":"北京永定门外(地铁站)","station_id":"北京永定门外(地铁站)_39.86537_116.39309","lineId":"北京地铁14号线 / 北京地铁8号线","lat":39.86537305666667,"lon":116.39309484,"area_km2":2.9728,"D":0.5906,"C":0.9466,"T":0.3685,"U1":0.2497,"U2":0.4872,"couplingDegree":0.5906,"level":"勉强协调","road_density":26.7967,"walk_accessibility":0.596,"metro_line_density":3.5146,"station_count":2,"line_count":2,"population_density":12303.2109,"poi_density":0.0,"poi_diversity":0.0,"gdp_density":4021.9432,"P":12303.2109,"I":0.0,"G":4021.9432},{"stationName":"北京天桥(地铁站)","station_id":"北京天桥(地铁站)_39.88052_116.39247","lineId":"北京地铁8号线","lat":39.88051744,"lon":116.39247254,"area_km2":3.5702,"D":0.5509,"C":0.9775,"T":0.3105,"U1":0.245,"U2":0.3761,"couplingDegree":0.5509,"level":"勉强协调","road_density":26.4338,"walk_accessibility":0.7158,"metro_line_density":1.977,"station_count":2,"line_count":2,"population_density":7133.1474,"poi_density":0.0,"poi_diversity":0.0,"gdp_density":3348.9234,"P":7133.1474,"I":0.0,"G":3348.9234},{"stationName":"北京金鱼胡同(地铁站)","station_id":"北京金鱼胡同(地铁站)_39.91497_116.40494","lineId":"北京地铁8号线","lat":39.9149685,"lon":116.40494464,"area_km2":4.0244,"D":0.5152,"C":0.7114,"T":0.3732,"U1":0.6354,"U2":0.1109,"couplingDegree":0.5152,"level":"勉强协调","road_density":21.069,"walk_accessibility":0.8069,"metro_line_density":3.0321,"station_count":6,"line_count":3,"population_density":11703.5544,"poi_density":0.0,"poi_diversity":0.0,"gdp_density":0.0,"P":11703.5544,"I":0.0,"G":0.0},{"stationName":"北京中国美术馆(地铁站)","station_id":"北京中国美术馆(地铁站)_39.92276_116.40455","lineId":"北京地铁8号线","lat":39.92275512,"lon":116.40455477,"area_km2":3.8893,"D":0.5073,"C":0.7845,"T":0.328,"U1":0.5314,"U2":0.1246,"couplingDegree":0.5073,"level":"勉强协调","road_density":20.8723,"walk_accessibility":0.7798,"metro_line_density":2.4628,"station_count":6,"line_count":2,"population_density":13144.1692,"poi_density":0.0,"poi_diversity":0.0,"gdp_density":0.0,"P":13144.1692,"I":0.0,"G":0.0},{"stationName":"北京南锣鼓巷(地铁站)","station_id":"北京南锣鼓巷(地铁站)_39.93244_116.39795","lineId":"北京地铁8号线","lat":39.93244276,"lon":116.397945075,"area_km2":4.0828,"D":0.6216,"C":0.9999,"T":0.3864,"U1":0.38,"U2":0.3928,"couplingDegree":0.6216,"level":"良好协调","road_density":18.8603,"walk_accessibility":0.8186,"metro_line_density":1.6883,"station_count":4,"line_count":2,"population_density":13002.036,"poi_density":0.0,"poi_diversity":0.0,"gdp_density":2925.4399,"P":13002.036,"I":0.0,"G":2925.4399},{"stationName":"北京什刹海(地铁站)","station_id":"北京什刹海(地铁站)_39.93618_116.38997","lineId":"北京地铁8号线","lat":39.9361778,"lon":116.38997138,"area_km2":4.286,"D":0.5839,"C":0.9944,"T":0.3428,"U1":0.3065,"U2":0.3791,"couplingDegree":0.5839,"level":"勉强协调","road_density":18.0999,"walk_accessibility":0.8593,"metro_line_density":1.3669,"station_count":3,"line_count":2,"population_density":12908.0677,"poi_density":0.0,"poi_diversity":0.0,"gdp_density":2786.7583,"P":12908.0677,"I":0.0,"G":2786.7583},{"stationName":"北京安德里北街(地铁站)","station_id":"北京安德里北街(地铁站)_39.95582_116.38890","lineId":"北京地铁8号线","lat":39.955822875,"lon":116.388895025,"area_km2":2.655,"D":0.4187,"C":0.9566,"T":0.1833,"U1":0.2367,"U2":0.1299,"couplingDegree":0.4187,"level":"勉强协调","road_density":20.6029,"walk_accessibility":0.5323,"metro_line_density":3.7956,"station_count":2,"line_count":2,"population_density":13697.754,"poi_density":0.0,"poi_diversity":0.0,"gdp_density":0.0,"P":13697.754,"I":0.0,"G":0.0},{"stationName":"北京安华桥(地铁站)","station_id":"北京安华桥(地铁站)_39.96722_116.38910","lineId":"北京地铁12号线 / 北京地铁8号线","lat":39.9672179,"lon":116.389099055,"area_km2":2.9843,"D":0.6364,"C":0.9909,"T":0.4088,"U1":0.3537,"U2":0.4638,"couplingDegree":0.6364,"level":"良好协调","road_density":26.9135,"walk_accessibility":0.5983,"metro_line_density":4.3154,"station_count":2,"line_count":3,"population_density":10026.7421,"poi_density":0.0,"poi_diversity":0.0,"gdp_density":4002.1513,"P":10026.7421,"I":0.0,"G":4002.1513},{"stationName":"北京北土城(地铁站)","station_id":"北京北土城(地铁站)_39.97587_116.38794","lineId":"北京地铁10号线 / 北京地铁8号线","lat":39.975871695,"lon":116.38794196,"area_km2":3.3924,"D":0.5124,"C":0.7533,"T":0.3485,"U1":0.5776,"U2":0.1193,"couplingDegree":0.5124,"level":"勉强协调","road_density":28.4331,"walk_accessibility":0.6802,"metro_line_density":4.234,"station_count":5,"line_count":3,"population_density":12586.6871,"poi_density":0.0,"poi_diversity":0.0,"gdp_density":0.0,"P":12586.6871,"I":0.0,"G":0.0},{"stationName":"北京奥体中心(地铁站)","station_id":"北京奥体中心(地铁站)_39.98443_116.38751","lineId":"北京地铁8号线","lat":39.98443199,"lon":116.38750572,"area_km2":3.5557,"D":0.4042,"C":0.9096,"T":0.1796,"U1":0.2542,"U2":0.105,"couplingDegree":0.4042,"level":"勉强协调","road_density":30.5873,"walk_accessibility":0.7129,"metro_line_density":2.2333,"station_count":2,"line_count":2,"population_density":11080.5392,"poi_density":0.0,"poi_diversity":0.0,"gdp_density":0.0,"P":11080.5392,"I":0.0,"G":0.0},{"stationName":"北京奥林匹克公园(地铁站)","station_id":"北京奥林匹克公园(地铁站)_40.00031_116.38594","lineId":"北京地铁15号线 / 北京地铁8号线","lat":40.00031338333333,"lon":116.38594332000001,"area_km2":3.8914,"D":0.547,"C":0.9944,"T":0.3009,"U1":0.2692,"U2":0.3325,"couplingDegree":0.547,"level":"勉强协调","road_density":32.6608,"walk_accessibility":0.7802,"metro_line_density":3.1795,"station_count":2,"line_count":2,"population_density":5247.6596,"poi_density":0.0,"poi_diversity":0.0,"gdp_density":3070.7617,"P":5247.6596,"I":0.0,"G":3070.7617},{"stationName":"北京森林公园南门(地铁站)","station_id":"北京森林公园南门(地铁站)_40.00872_116.38635","lineId":"北京地铁8号线","lat":40.008716375000006,"lon":116.386345105,"area_km2":3.2966,"D":0.341,"C":0.7786,"T":0.1494,"U1":0.2431,"U2":0.0556,"couplingDegree":0.341,"level":"中度失调","road_density":27.6402,"walk_accessibility":0.661,"metro_line_density":1.8902,"station_count":2,"line_count":2,"population_density":5886.7182,"poi_density":0.0,"poi_diversity":0.0,"gdp_density":0.0,"P":5886.7182,"I":0.0,"G":0.0},{"stationName":"北京林萃桥(地铁站)","station_id":"北京林萃桥(地铁站)_40.02052_116.36676","lineId":"北京地铁8号线","lat":40.02051502,"lon":116.36675992,"area_km2":3.2338,"D":0.1781,"C":0.7851,"T":0.0404,"U1":0.0655,"U2":0.0154,"couplingDegree":0.1781,"level":"极度失调","road_density":25.1899,"walk_accessibility":0.6484,"metro_line_density":1.5513,"station_count":1,"line_count":1,"population_density":1650.0692,"poi_density":0.0,"poi_diversity":0.0,"gdp_density":0.0,"P":1650.0692,"I":0.0,"G":0.0},{"stationName":"北京永泰庄(地铁站)","station_id":"北京永泰庄(地铁站)_40.03636_116.34837","lineId":"北京地铁8号线","lat":40.03636271,"lon":116.34837154,"area_km2":2.2665,"D":0.39,"C":0.8125,"T":0.1872,"U1":0.2963,"U2":0.0781,"couplingDegree":0.39,"level":"中度失调","road_density":20.6451,"walk_accessibility":0.4544,"metro_line_density":2.7467,"station_count":3,"line_count":2,"population_density":8245.2855,"poi_density":0.0,"poi_diversity":0.0,"gdp_density":0.0,"P":8245.2855,"I":0.0,"G":0.0},{"stationName":"北京西小口(地铁站)","station_id":"北京西小口(地铁站)_40.04551_116.34544","lineId":"北京地铁8号线","lat":40.0455124,"lon":116.34543937,"area_km2":2.2458,"D":0.2849,"C":0.9077,"T":0.0894,"U1":0.1269,"U2":0.0519,"couplingDegree":0.2849,"level":"中度失调","road_density":21.5036,"walk_accessibility":0.4503,"metro_line_density":2.6464,"station_count":2,"line_count":1,"population_density":5492.0266,"poi_density":0.0,"poi_diversity":0.0,"gdp_density":0.0,"P":5492.0266,"I":0.0,"G":0.0},{"stationName":"北京育新(地铁站)","station_id":"北京育新(地铁站)_40.05892_116.34096","lineId":"北京地铁8号线","lat":40.05892025,"lon":116.34096275,"area_km2":2.2261,"D":0.1889,"C":0.9308,"T":0.0383,"U1":0.0523,"U2":0.0243,"couplingDegree":0.1889,"level":"极度失调","road_density":20.2051,"walk_accessibility":0.4463,"metro_line_density":2.6791,"station_count":1,"line_count":1,"population_density":2590.1352,"poi_density":0.0,"poi_diversity":0.0,"gdp_density":0.0,"P":2590.1352,"I":0.0,"G":0.0},{"stationName":"北京霍营(地铁站)","station_id":"北京霍营(地铁站)_40.06962_116.35440","lineId":"北京北京地铁13B号线(马连洼--东直门) / 北京地铁13号线 / 北京地铁8号线","lat":40.06962005333333,"lon":116.35440401333334,"area_km2":2.3604,"D":0.3502,"C":0.5014,"T":0.2446,"U1":0.4563,"U2":0.033,"couplingDegree":0.3502,"level":"中度失调","road_density":34.5637,"walk_accessibility":0.4733,"metro_line_density":4.1566,"station_count":2,"line_count":4,"population_density":3500.2552,"poi_density":0.0,"poi_diversity":0.0,"gdp_density":0.0,"P":3500.2552,"I":0.0,"G":0.0},{"stationName":"北京回龙观东大街(地铁站)","station_id":"北京回龙观东大街(地铁站)_40.07975_116.35663","lineId":"北京北京地铁13A号线(车公庄--天通苑东) / 北京地铁8号线","lat":40.07975319333333,"lon":116.35663046666667,"area_km2":2.6947,"D":0.4092,"C":0.6307,"T":0.2655,"U1":0.4715,"U2":0.0595,"couplingDegree":0.4092,"level":"勉强协调","road_density":39.4129,"walk_accessibility":0.5403,"metro_line_density":4.461,"station_count":2,"line_count":4,"population_density":6287.6412,"poi_density":0.0,"poi_diversity":0.0,"gdp_density":0.0,"P":6287.6412,"I":0.0,"G":0.0},{"stationName":"北京平西府(地铁站)","station_id":"北京平西府(地铁站)_40.08876_116.34421","lineId":"北京地铁8号线","lat":40.08876251,"lon":116.34420763,"area_km2":2.7012,"D":0.3621,"C":0.8334,"T":0.1573,"U1":0.0704,"U2":0.2442,"couplingDegree":0.3621,"level":"中度失调","road_density":29.5743,"walk_accessibility":0.5416,"metro_line_density":2.0403,"station_count":1,"line_count":1,"population_density":3672.466,"poi_density":0.0,"poi_diversity":0.0,"gdp_density":2275.0832,"P":3672.466,"I":0.0,"G":2275.0832},{"stationName":"北京育知路(地铁站)","station_id":"北京育知路(地铁站)_40.08655_116.32084","lineId":"北京地铁8号线","lat":40.08654557,"lon":116.3208384,"area_km2":2.461,"D":0.1766,"C":0.7039,"T":0.0443,"U1":0.0758,"U2":0.0128,"couplingDegree":0.1766,"level":"极度失调","road_density":32.2575,"walk_accessibility":0.4934,"metro_line_density":2.5175,"station_count":1,"line_count":1,"population_density":1381.9327,"poi_density":0.0,"poi_diversity":0.0,"gdp_density":0.0,"P":1381.9327,"I":0.0,"G":0.0},{"stationName":"北京朱辛庄(地铁站)","station_id":"北京朱辛庄(地铁站)_40.10300_116.30757","lineId":"北京地铁8号线","lat":40.10300341,"lon":116.30757063,"area_km2":2.9892,"D":0.1165,"C":0.4056,"T":0.0335,"U1":0.0641,"U2":0.0029,"couplingDegree":0.1165,"level":"极度失调","road_density":21.7617,"walk_accessibility":0.5993,"metro_line_density":2.6008,"station_count":1,"line_count":1,"population_density":333.5368,"poi_density":0.0,"poi_diversity":0.0,"gdp_density":0.0,"P":333.5368,"I":0.0,"G":0.0},{"stationName":"北京六里桥(地铁站)","station_id":"北京六里桥(地铁站)_39.87898_116.29673","lineId":"北京地铁10号线 / 北京地铁9号线","lat":39.87897515,"lon":116.29673283,"area_km2":2.6198,"D":0.5436,"C":0.8732,"T":0.3385,"U1":0.1735,"U2":0.5034,"couplingDegree":0.5436,"level":"勉强协调","road_density":24.7875,"walk_accessibility":0.5253,"metro_line_density":4.0547,"station_count":1,"line_count":2,"population_density":8815.1731,"poi_density":0.0,"poi_diversity":0.0,"gdp_density":4557.388,"P":8815.1731,"I":0.0,"G":4557.388},{"stationName":"北京巴沟(地铁站)","station_id":"北京巴沟(地铁站)_39.97321_116.28652","lineId":"北京北京西郊线(巴沟--香山) / 北京地铁10号线","lat":39.97321222,"lon":116.28651993,"area_km2":2.5341,"D":0.3477,"C":0.6655,"T":0.1817,"U1":0.3173,"U2":0.0461,"couplingDegree":0.3477,"level":"中度失调","road_density":28.4283,"walk_accessibility":0.5081,"metro_line_density":3.2327,"station_count":3,"line_count":2,"population_density":4879.0146,"poi_density":0.0,"poi_diversity":0.0,"gdp_density":0.0,"P":4879.0146,"I":0.0,"G":0.0},{"stationName":"北京苏州街(地铁站)","station_id":"北京苏州街(地铁站)_39.97437_116.30024","lineId":"北京地铁10号线","lat":39.9743674,"lon":116.3002368,"area_km2":3.6523,"D":0.4251,"C":0.7057,"T":0.256,"U1":0.4375,"U2":0.0746,"couplingDegree":0.4251,"level":"勉强协调","road_density":30.2756,"walk_accessibility":0.7323,"metro_line_density":3.9296,"station_count":3,"line_count":3,"population_density":7885.4768,"poi_density":0.0,"poi_diversity":0.0,"gdp_density":0.0,"P":7885.4768,"I":0.0,"G":0.0},{"stationName":"北京知春里(地铁站)","station_id":"北京知春里(地铁站)_39.97502_116.32271","lineId":"北京地铁10号线","lat":39.97502074,"lon":116.32271383,"area_km2":3.3311,"D":0.4002,"C":0.4413,"T":0.3629,"U1":0.6886,"U2":0.0372,"couplingDegree":0.4002,"level":"勉强协调","road_density":24.7641,"walk_accessibility":0.6679,"metro_line_density":3.593,"station_count":4,"line_count":5,"population_density":3950.9249,"poi_density":0.0,"poi_diversity":0.0,"gdp_density":0.0,"P":3950.9249,"I":0.0,"G":0.0},{"stationName":"北京知春路(地铁站)","station_id":"北京知春路(地铁站)_39.97514_116.33426","lineId":"北京北京地铁13A号线(车公庄--天通苑东) / 北京地铁10号线 / 北京地铁13号线","lat":39.975138136666665,"lon":116.33425766333333,"area_km2":3.2917,"D":0.4574,"C":0.6767,"T":0.3092,"U1":0.5368,"U2":0.0815,"couplingDegree":0.4574,"level":"勉强协调","road_density":30.731,"walk_accessibility":0.66,"metro_line_density":4.6442,"station_count":3,"line_count":4,"population_density":8612.5461,"poi_density":0.0,"poi_diversity":0.0,"gdp_density":0.0,"P":8612.5461,"I":0.0,"G":0.0},{"stationName":"北京西土城(地铁站)","station_id":"北京西土城(地铁站)_39.97438_116.34811","lineId":"北京地铁10号线 / 北京地铁昌平线","lat":39.974379405,"lon":116.348105885,"area_km2":3.8832,"D":0.5035,"C":0.6139,"T":0.413,"U1":0.739,"U2":0.087,"couplingDegree":0.5035,"level":"勉强协调","road_density":32.4978,"walk_accessibility":0.7786,"metro_line_density":4.1335,"station_count":3,"line_count":6,"population_density":9184.2657,"poi_density":0.0,"poi_diversity":0.0,"gdp_density":0.0,"P":9184.2657,"I":0.0,"G":0.0},{"stationName":"北京牡丹园(地铁站)","station_id":"北京牡丹园(地铁站)_39.97546_116.36355","lineId":"北京地铁10号线 / 北京地铁19号线","lat":39.975460319999996,"lon":116.36354894,"area_km2":3.2017,"D":0.429,"C":0.9518,"T":0.1934,"U1":0.2526,"U2":0.1341,"couplingDegree":0.429,"level":"勉强协调","road_density":26.7551,"walk_accessibility":0.6419,"metro_line_density":3.5364,"station_count":2,"line_count":2,"population_density":14140.4573,"poi_density":0.0,"poi_diversity":0.0,"gdp_density":0.0,"P":14140.4573,"I":0.0,"G":0.0},{"stationName":"北京健德门(地铁站)","station_id":"北京健德门(地铁站)_39.97515_116.37511","lineId":"北京地铁10号线","lat":39.97514848,"lon":116.37511392,"area_km2":3.2154,"D":0.4493,"C":0.7773,"T":0.2596,"U1":0.423,"U2":0.0963,"couplingDegree":0.4493,"level":"勉强协调","road_density":28.1011,"walk_accessibility":0.6447,"metro_line_density":3.2455,"station_count":3,"line_count":3,"population_density":10166.1207,"poi_density":0.0,"poi_diversity":0.0,"gdp_density":0.0,"P":10166.1207,"I":0.0,"G":0.0},{"stationName":"北京安贞门(地铁站)","station_id":"北京安贞门(地铁站)_39.97560_116.39970","lineId":"北京地铁10号线","lat":39.97559793,"lon":116.39970202,"area_km2":3.3402,"D":0.5032,"C":0.88,"T":0.2877,"U1":0.4243,"U2":0.151,"couplingDegree":0.5032,"level":"勉强协调","road_density":27.9475,"walk_accessibility":0.6697,"metro_line_density":3.2554,"station_count":3,"line_count":3,"population_density":15927.2231,"poi_density":0.0,"poi_diversity":0.0,"gdp_density":0.0,"P":15927.2231,"I":0.0,"G":0.0},{"stationName":"北京芍药居(地铁站)","station_id":"北京芍药居(地铁站)_39.97607_116.43023","lineId":"北京北京地铁13B号线(东直门--马连洼) / 北京北京地铁13B号线(马连洼--东直门) / 北京地铁10号线","lat":39.97607328,"lon":116.43023068666668,"area_km2":3.1141,"D":0.4177,"C":0.6541,"T":0.2667,"U1":0.4685,"U2":0.065,"couplingDegree":0.4177,"level":"勉强协调","road_density":25.2676,"walk_accessibility":0.6244,"metro_line_density":6.7742,"station_count":2,"line_count":4,"population_density":6869.7272,"poi_density":0.0,"poi_diversity":0.0,"gdp_density":0.0,"P":6869.7272,"I":0.0,"G":0.0},{"stationName":"北京太阳宫(地铁站)","station_id":"北京太阳宫(地铁站)_39.97189_116.44165","lineId":"北京地铁10号线 / 北京地铁17号线","lat":39.971885625,"lon":116.44165003500001,"area_km2":2.6483,"D":0.4356,"C":0.7175,"T":0.2644,"U1":0.4486,"U2":0.0802,"couplingDegree":0.4356,"level":"勉强协调","road_density":23.7951,"walk_accessibility":0.531,"metro_line_density":5.249,"station_count":2,"line_count":4,"population_density":8474.1316,"poi_density":0.0,"poi_diversity":0.0,"gdp_density":0.0,"P":8474.1316,"I":0.0,"G":0.0},{"stationName":"北京三元桥(地铁站)","station_id":"北京三元桥(地铁站)_39.95968_116.45138","lineId":"北京北京首都机场线(3号航站楼--北新桥) / 北京地铁10号线 / 北京地铁12号线","lat":39.95968114,"lon":116.4513824175,"area_km2":2.8702,"D":0.607,"C":0.9768,"T":0.3772,"U1":0.2963,"U2":0.458,"couplingDegree":0.607,"level":"良好协调","road_density":27.8986,"walk_accessibility":0.5755,"metro_line_density":6.2483,"station_count":1,"line_count":3,"population_density":7818.2261,"poi_density":0.0,"poi_diversity":0.0,"gdp_density":4167.1719,"P":7818.2261,"I":0.0,"G":4167.1719},{"stationName":"北京亮马桥(地铁站)","station_id":"北京亮马桥(地铁站)_39.94805_116.45601","lineId":"北京地铁10号线","lat":39.94805288,"lon":116.45600753,"area_km2":3.6245,"D":0.3441,"C":0.9763,"T":0.1213,"U1":0.1475,"U2":0.095,"couplingDegree":0.3441,"level":"中度失调","road_density":26.0587,"walk_accessibility":0.7267,"metro_line_density":2.0101,"station_count":2,"line_count":1,"population_density":10029.9197,"poi_density":0.0,"poi_diversity":0.0,"gdp_density":0.0,"P":10029.9197,"I":0.0,"G":0.0},{"stationName":"北京农业展览馆(地铁站)","station_id":"北京农业展览馆(地铁站)_39.93993_116.45638","lineId":"北京地铁10号线","lat":39.93993353,"lon":116.45637859,"area_km2":2.8634,"D":0.5676,"C":0.9227,"T":0.3491,"U1":0.2145,"U2":0.4838,"couplingDegree":0.5676,"level":"勉强协调","road_density":25.2123,"walk_accessibility":0.5741,"metro_line_density":2.7836,"station_count":3,"line_count":1,"population_density":10449.5763,"poi_density":0.0,"poi_diversity":0.0,"gdp_density":4175.6527,"P":10449.5763,"I":0.0,"G":4175.6527},{"stationName":"北京团结湖(地铁站)","station_id":"北京团结湖(地铁站)_39.93242_116.45566","lineId":"北京地铁10号线","lat":39.93241789,"lon":116.45565908,"area_km2":3.3892,"D":0.5378,"C":0.9586,"T":0.3018,"U1":0.2158,"U2":0.3877,"couplingDegree":0.5378,"level":"勉强协调","road_density":24.9715,"walk_accessibility":0.6795,"metro_line_density":2.1419,"station_count":3,"line_count":1,"population_density":6621.0036,"poi_density":0.0,"poi_diversity":0.0,"gdp_density":3527.7904,"P":6621.0036,"I":0.0,"G":3527.7904},{"stationName":"北京呼家楼(地铁站)","station_id":"北京呼家楼(地铁站)_39.92199_116.45546","lineId":"北京地铁10号线","lat":39.92198724,"lon":116.45545522,"area_km2":3.3008,"D":0.4085,"C":0.6712,"T":0.2486,"U1":0.4328,"U2":0.0643,"couplingDegree":0.4085,"level":"勉强协调","road_density":24.0734,"walk_accessibility":0.6618,"metro_line_density":5.3875,"station_count":3,"line_count":3,"population_density":6799.324,"poi_density":0.0,"poi_diversity":0.0,"gdp_density":0.0,"P":6799.324,"I":0.0,"G":0.0},{"stationName":"北京金台夕照(地铁站)","station_id":"北京金台夕照(地铁站)_39.91671_116.45664","lineId":"北京地铁10号线 / 北京地铁22号线 / 北京地铁28号线","lat":39.916706956666665,"lon":116.45664196333333,"area_km2":3.5206,"D":0.4834,"C":0.7267,"T":0.3215,"U1":0.5424,"U2":0.1007,"couplingDegree":0.4834,"level":"勉强协调","road_density":27.5137,"walk_accessibility":0.7059,"metro_line_density":5.7867,"station_count":3,"line_count":4,"population_density":10624.3958,"poi_density":0.0,"poi_diversity":0.0,"gdp_density":0.0,"P":10624.3958,"I":0.0,"G":0.0},{"stationName":"北京劲松(地铁站)","station_id":"北京劲松(地铁站)_39.88314_116.45528","lineId":"北京地铁10号线","lat":39.88313963,"lon":116.45528002,"area_km2":2.7293,"D":0.6211,"C":0.9757,"T":0.3954,"U1":0.3088,"U2":0.482,"couplingDegree":0.6211,"level":"良好协调","road_density":20.4211,"walk_accessibility":0.5472,"metro_line_density":3.6993,"station_count":3,"line_count":2,"population_density":8222.5179,"poi_density":0.0,"poi_diversity":0.0,"gdp_density":4385.7725,"P":8222.5179,"I":0.0,"G":4385.7725},{"stationName":"北京潘家园(地铁站)","station_id":"北京潘家园(地铁站)_39.87406_116.45478","lineId":"北京地铁10号线","lat":39.87405787,"lon":116.45478466,"area_km2":2.7439,"D":0.6666,"C":0.9971,"T":0.4457,"U1":0.4119,"U2":0.4794,"couplingDegree":0.6666,"level":"良好协调","road_density":21.201,"walk_accessibility":0.5501,"metro_line_density":4.2118,"station_count":3,"line_count":3,"population_density":8178.5764,"poi_density":0.0,"poi_diversity":0.0,"gdp_density":4362.5291,"P":8178.5764,"I":0.0,"G":4362.5291},{"stationName":"北京十里河(地铁站)","station_id":"北京十里河(地铁站)_39.86421_116.45307","lineId":"北京地铁10号线 / 北京地铁14号线 / 北京地铁17号线","lat":39.86420939333333,"lon":116.45307443333333,"area_km2":2.5965,"D":0.3647,"C":0.6649,"T":0.2,"U1":0.3495,"U2":0.0506,"couplingDegree":0.3647,"level":"中度失调","road_density":20.9701,"walk_accessibility":0.5206,"metro_line_density":5.8228,"station_count":2,"line_count":3,"population_density":5358.0186,"poi_density":0.0,"poi_diversity":0.0,"gdp_density":0.0,"P":5358.0186,"I":0.0,"G":0.0},{"stationName":"北京分钟寺(地铁站)","station_id":"北京分钟寺(地铁站)_39.85088_116.44782","lineId":"北京地铁10号线","lat":39.85088397,"lon":116.44781567,"area_km2":1.3154,"D":0.2643,"C":0.9199,"T":0.076,"U1":0.1057,"U2":0.0462,"couplingDegree":0.2643,"level":"中度失调","road_density":17.3007,"walk_accessibility":0.2637,"metro_line_density":2.3809,"station_count":2,"line_count":1,"population_density":4888.8729,"poi_density":0.0,"poi_diversity":0.0,"gdp_density":0.0,"P":4888.8729,"I":0.0,"G":0.0},{"stationName":"北京成寿寺(地铁站)","station_id":"北京成寿寺(地铁站)_39.84452_116.44146","lineId":"北京地铁10号线","lat":39.84451865,"lon":116.44145906,"area_km2":1.3997,"D":0.2986,"C":0.9855,"T":0.0905,"U1":0.1058,"U2":0.0751,"couplingDegree":0.2986,"level":"中度失调","road_density":17.6675,"walk_accessibility":0.2806,"metro_line_density":2.1634,"station_count":2,"line_count":1,"population_density":7936.1675,"poi_density":0.0,"poi_diversity":0.0,"gdp_density":0.0,"P":7936.1675,"I":0.0,"G":0.0},{"stationName":"北京石榴庄(地铁站)","station_id":"北京石榴庄(地铁站)_39.84451_116.40787","lineId":"北京地铁10号线","lat":39.84450749,"lon":116.40787237,"area_km2":2.1177,"D":0.4533,"C":0.7026,"T":0.2924,"U1":0.5005,"U2":0.0843,"couplingDegree":0.4533,"level":"勉强协调","road_density":20.357,"walk_accessibility":0.4246,"metro_line_density":4.2411,"station_count":3,"line_count":4,"population_density":8906.681,"poi_density":0.0,"poi_diversity":0.0,"gdp_density":0.0,"P":8906.681,"I":0.0,"G":0.0},{"stationName":"北京角门东(地铁站)","station_id":"北京角门东(地铁站)_39.84374_116.37942","lineId":"北京地铁10号线","lat":39.84374079,"lon":116.37942047,"area_km2":2.167,"D":0.3974,"C":0.6985,"T":0.2261,"U1":0.3878,"U2":0.0643,"couplingDegree":0.3974,"level":"中度失调","road_density":17.7438,"walk_accessibility":0.4345,"metro_line_density":2.7898,"station_count":3,"line_count":3,"population_density":6796.6242,"poi_density":0.0,"poi_diversity":0.0,"gdp_density":0.0,"P":6796.6242,"I":0.0,"G":0.0},{"stationName":"北京草桥(地铁站)","station_id":"北京草桥(地铁站)_39.84504_116.34388","lineId":"北京地铁10号线 / 北京地铁19号线","lat":39.845042070000005,"lon":116.34387717999999,"area_km2":2.5131,"D":0.2411,"C":0.5721,"T":0.1016,"U1":0.185,"U2":0.0183,"couplingDegree":0.2411,"level":"中度失调","road_density":27.4681,"walk_accessibility":0.5039,"metro_line_density":5.1199,"station_count":1,"line_count":2,"population_density":1953.7458,"poi_density":0.0,"poi_diversity":0.0,"gdp_density":0.0,"P":1953.7458,"I":0.0,"G":0.0},{"stationName":"北京纪家庙(地铁站)","station_id":"北京纪家庙(地铁站)_39.84311_116.32724","lineId":"北京地铁10号线","lat":39.84311452,"lon":116.32724236,"area_km2":1.8748,"D":0.3529,"C":0.87,"T":0.1431,"U1":0.2137,"U2":0.0726,"couplingDegree":0.3529,"level":"中度失调","road_density":22.868,"walk_accessibility":0.3759,"metro_line_density":1.4733,"station_count":2,"line_count":2,"population_density":7666.5852,"poi_density":0.0,"poi_diversity":0.0,"gdp_density":0.0,"P":7666.5852,"I":0.0,"G":0.0},{"stationName":"北京首经贸(地铁站)","station_id":"北京首经贸(地铁站)_39.84357_116.31420","lineId":"北京地铁10号线 / 北京地铁房山线","lat":39.843566034999995,"lon":116.31419651,"area_km2":2.2874,"D":0.6778,"C":0.9922,"T":0.4631,"U1":0.4053,"U2":0.5209,"couplingDegree":0.6778,"level":"良好协调","road_density":22.7076,"walk_accessibility":0.4586,"metro_line_density":3.7229,"station_count":3,"line_count":3,"population_density":4214.8672,"poi_density":0.0,"poi_diversity":0.0,"gdp_density":5221.873,"P":4214.8672,"I":0.0,"G":5221.873},{"stationName":"北京丰台站(地铁站)","station_id":"北京丰台站(地铁站)_39.84932_116.29730","lineId":"北京地铁10号线 / 北京地铁16号线","lat":39.8493200075,"lon":116.297300055,"area_km2":1.473,"D":0.3963,"C":0.9173,"T":0.1712,"U1":0.2393,"U2":0.103,"couplingDegree":0.3963,"level":"中度失调","road_density":28.016,"walk_accessibility":0.2953,"metro_line_density":4.3369,"station_count":2,"line_count":2,"population_density":10875.0704,"poi_density":0.0,"poi_diversity":0.0,"gdp_density":0.0,"P":10875.0704,"I":0.0,"G":0.0},{"stationName":"北京泥洼(地铁站)","station_id":"北京泥洼(地铁站)_39.85734_116.29810","lineId":"北京地铁10号线","lat":39.85734336,"lon":116.29809708,"area_km2":2.539,"D":0.4255,"C":0.7374,"T":0.2456,"U1":0.4115,"U2":0.0797,"couplingDegree":0.4255,"level":"勉强协调","road_density":23.2203,"walk_accessibility":0.5091,"metro_line_density":4.0114,"station_count":3,"line_count":3,"population_density":8417.5097,"poi_density":0.0,"poi_diversity":0.0,"gdp_density":0.0,"P":8417.5097,"I":0.0,"G":0.0},{"stationName":"北京西局(地铁站)","station_id":"北京西局(地铁站)_39.86501_116.29789","lineId":"北京地铁10号线 / 北京地铁14号线","lat":39.865011625,"lon":116.29788517,"area_km2":2.9007,"D":0.3411,"C":0.7405,"T":0.1571,"U1":0.2627,"U2":0.0515,"couplingDegree":0.3411,"level":"中度失调","road_density":27.9953,"walk_accessibility":0.5816,"metro_line_density":5.0835,"station_count":2,"line_count":2,"population_density":5453.0881,"poi_density":0.0,"poi_diversity":0.0,"gdp_density":0.0,"P":5453.0881,"I":0.0,"G":0.0},{"stationName":"北京莲花桥(地铁站)","station_id":"北京莲花桥(地铁站)_39.89659_116.30425","lineId":"北京地铁10号线","lat":39.89658955,"lon":116.30425273,"area_km2":3.093,"D":0.5893,"C":0.9376,"T":0.3704,"U1":0.2416,"U2":0.4993,"couplingDegree":0.5893,"level":"勉强协调","road_density":27.1181,"walk_accessibility":0.6201,"metro_line_density":2.1501,"station_count":2,"line_count":2,"population_density":15156.6236,"poi_density":0.0,"poi_diversity":0.0,"gdp_density":3858.5036,"P":15156.6236,"I":0.0,"G":3858.5036},{"stationName":"北京西钓鱼台(地铁站)","station_id":"北京西钓鱼台(地铁站)_39.92210_116.29183","lineId":"北京地铁10号线","lat":39.92210145,"lon":116.29182893,"area_km2":2.5595,"D":0.3198,"C":0.9708,"T":0.1054,"U1":0.1306,"U2":0.0801,"couplingDegree":0.3198,"level":"中度失调","road_density":24.5952,"walk_accessibility":0.5132,"metro_line_density":1.8759,"station_count":2,"line_count":1,"population_density":8459.6914,"poi_density":0.0,"poi_diversity":0.0,"gdp_density":0.0,"P":8459.6914,"I":0.0,"G":0.0},{"stationName":"北京慈寿寺(地铁站)","station_id":"北京慈寿寺(地铁站)_39.93210_116.28923","lineId":"北京地铁10号线","lat":39.9320995,"lon":116.28923396,"area_km2":2.3733,"D":0.2552,"C":0.797,"T":0.0817,"U1":0.131,"U2":0.0324,"couplingDegree":0.2552,"level":"中度失调","road_density":25.7178,"walk_accessibility":0.4758,"metro_line_density":1.9716,"station_count":2,"line_count":1,"population_density":3435.6896,"poi_density":0.0,"poi_diversity":0.0,"gdp_density":0.0,"P":3435.6896,"I":0.0,"G":0.0},{"stationName":"北京车道沟(地铁站)","station_id":"北京车道沟(地铁站)_39.94667_116.28775","lineId":"北京地铁10号线","lat":39.94666961,"lon":116.28774995,"area_km2":2.8005,"D":0.3792,"C":0.8977,"T":0.1602,"U1":0.2308,"U2":0.0896,"couplingDegree":0.3792,"level":"中度失调","road_density":24.5638,"walk_accessibility":0.5615,"metro_line_density":1.8083,"station_count":2,"line_count":2,"population_density":9459.5753,"poi_density":0.0,"poi_diversity":0.0,"gdp_density":0.0,"P":9459.5753,"I":0.0,"G":0.0},{"stationName":"北京长春桥(地铁站)","station_id":"北京长春桥(地铁站)_39.95712_116.28761","lineId":"北京地铁10号线 / 北京地铁12号线","lat":39.95712233333334,"lon":116.28760933333335,"area_km2":2.8006,"D":0.3815,"C":0.7573,"T":0.1922,"U1":0.3178,"U2":0.0667,"couplingDegree":0.3815,"level":"中度失调","road_density":22.1168,"walk_accessibility":0.5615,"metro_line_density":4.3777,"station_count":3,"line_count":2,"population_density":7049.1454,"poi_density":0.0,"poi_diversity":0.0,"gdp_density":0.0,"P":7049.1454,"I":0.0,"G":0.0},{"stationName":"北京火器营(地铁站)","station_id":"北京火器营(地铁站)_39.96469_116.28300","lineId":"北京地铁10号线","lat":39.96469064,"lon":116.28299544,"area_km2":3.225,"D":0.6518,"C":0.9997,"T":0.425,"U1":0.4145,"U2":0.4354,"couplingDegree":0.6518,"level":"良好协调","road_density":24.1816,"walk_accessibility":0.6466,"metro_line_density":3.0459,"station_count":3,"line_count":3,"population_density":9959.9277,"poi_density":0.0,"poi_diversity":0.0,"gdp_density":3701.1405,"P":9959.9277,"I":0.0,"G":3701.1405},{"stationName":"北京蓟门桥(地铁站)","station_id":"北京蓟门桥(地铁站)_39.96637_116.34886","lineId":"北京地铁12号线 / 北京地铁昌平线 / 北京地铁昌平线南延线","lat":39.96636835,"lon":116.34886497000001,"area_km2":3.5527,"D":0.4416,"C":0.7087,"T":0.2752,"U1":0.4693,"U2":0.081,"couplingDegree":0.4416,"level":"勉强协调","road_density":31.3464,"walk_accessibility":0.7123,"metro_line_density":4.6911,"station_count":2,"line_count":4,"population_density":8559.4423,"poi_density":0.0,"poi_diversity":0.0,"gdp_density":0.0,"P":8559.4423,"I":0.0,"G":0.0},{"stationName":"北京五道口(地铁站)","station_id":"北京五道口(地铁站)_39.99156_116.33157","lineId":"北京北京地铁13A号线(车公庄--天通苑东) / 北京地铁13号线","lat":39.99156226333333,"lon":116.33157444666666,"area_km2":4.2726,"D":0.5168,"C":0.9674,"T":0.2761,"U1":0.2061,"U2":0.346,"couplingDegree":0.5168,"level":"勉强协调","road_density":35.0944,"walk_accessibility":0.8566,"metro_line_density":3.1782,"station_count":1,"line_count":2,"population_density":9355.2151,"poi_density":0.0,"poi_diversity":0.0,"gdp_density":2793.3521,"P":9355.2151,"I":0.0,"G":2793.3521},{"stationName":"北京清河站(地铁站)","station_id":"北京清河站(地铁站)_40.03984_116.30876","lineId":"北京北京地铁13A号线(车公庄--天通苑东) / 北京地铁昌平线","lat":40.039836315,"lon":116.30875825999999,"area_km2":2.3257,"D":0.3086,"C":0.7911,"T":0.1204,"U1":0.194,"U2":0.0467,"couplingDegree":0.3086,"level":"中度失调","road_density":29.5864,"walk_accessibility":0.4663,"metro_line_density":6.1268,"station_count":1,"line_count":2,"population_density":4948.5382,"poi_density":0.0,"poi_diversity":0.0,"gdp_density":0.0,"P":4948.5382,"I":0.0,"G":0.0},{"stationName":"北京西二旗(地铁站)","station_id":"北京西二旗(地铁站)_40.05173_116.30010","lineId":"北京北京地铁13A号线(车公庄--天通苑东) / 北京地铁昌平线","lat":40.051730625,"lon":116.30010437,"area_km2":3.1733,"D":0.2678,"C":0.6547,"T":0.1095,"U1":0.1923,"U2":0.0267,"couplingDegree":0.2678,"level":"中度失调","road_density":29.2271,"walk_accessibility":0.6362,"metro_line_density":4.5734,"station_count":1,"line_count":2,"population_density":2844.3635,"poi_density":0.0,"poi_diversity":0.0,"gdp_density":0.0,"P":2844.3635,"I":0.0,"G":0.0},{"stationName":"北京六道口(地铁站)","station_id":"北京六道口(地铁站)_39.99913_116.34651","lineId":"北京地铁15号线 / 北京地铁昌平线","lat":39.999125675,"lon":116.34651052999999,"area_km2":3.6198,"D":0.3606,"C":0.9435,"T":0.1378,"U1":0.1835,"U2":0.0922,"couplingDegree":0.3606,"level":"中度失调","road_density":25.9128,"walk_accessibility":0.7258,"metro_line_density":3.457,"station_count":1,"line_count":2,"population_density":9729.7582,"poi_density":0.0,"poi_diversity":0.0,"gdp_density":0.0,"P":9729.7582,"I":0.0,"G":0.0},{"stationName":"北京东管头南(地铁站)","station_id":"北京东管头南(地铁站)_39.85359_116.31692","lineId":"北京地铁16号线 / 北京地铁房山线","lat":39.85359321,"lon":116.31691551,"area_km2":1.5751,"D":0.3152,"C":0.543,"T":0.183,"U1":0.3366,"U2":0.0293,"couplingDegree":0.3152,"level":"中度失调","road_density":30.9271,"walk_accessibility":0.3158,"metro_line_density":3.4054,"station_count":2,"line_count":3,"population_density":3116.5585,"poi_density":0.0,"poi_diversity":0.0,"gdp_density":0.0,"P":3116.5585,"I":0.0,"G":0.0},{"stationName":"北京昌平西山口(地铁站)","station_id":"北京昌平西山口(地铁站)_40.24334_116.18921","lineId":"北京地铁昌平线","lat":40.24333612,"lon":116.18921334,"area_km2":3.6419,"D":0.347,"C":0.9965,"T":0.1208,"U1":0.131,"U2":0.1107,"couplingDegree":0.347,"level":"中度失调","road_density":21.8668,"walk_accessibility":0.7302,"metro_line_density":0.7779,"station_count":2,"line_count":1,"population_density":169.1439,"poi_density":0.0,"poi_diversity":0.0,"gdp_density":1187.1228,"P":169.1439,"I":0.0,"G":1187.1228},{"stationName":"北京十三陵景区(地铁站)","station_id":"北京十三陵景区(地铁站)_40.23894_116.20151","lineId":"北京地铁昌平线","lat":40.2389398,"lon":116.20151114,"area_km2":2.8227,"D":0.2169,"C":0.6445,"T":0.073,"U1":0.1288,"U2":0.0172,"couplingDegree":0.2169,"level":"中度失调","road_density":22.2371,"walk_accessibility":0.5659,"metro_line_density":1.7682,"station_count":2,"line_count":1,"population_density":1839.3634,"poi_density":0.0,"poi_diversity":0.0,"gdp_density":0.0,"P":1839.3634,"I":0.0,"G":0.0},{"stationName":"北京昌平(地铁站)","station_id":"北京昌平(地铁站)_40.21931_116.22751","lineId":"北京地铁昌平线","lat":40.21930556,"lon":116.22751066,"area_km2":3.2323,"D":0.2717,"C":0.9956,"T":0.0741,"U1":0.0672,"U2":0.081,"couplingDegree":0.2717,"level":"中度失调","road_density":24.4222,"walk_accessibility":0.6481,"metro_line_density":1.9743,"station_count":1,"line_count":1,"population_density":8559.2984,"poi_density":0.0,"poi_diversity":0.0,"gdp_density":0.0,"P":8559.2984,"I":0.0,"G":0.0},{"stationName":"北京昌平东关(地铁站)","station_id":"北京昌平东关(地铁站)_40.22049_116.25599","lineId":"北京地铁昌平线","lat":40.22048734,"lon":116.25599089,"area_km2":2.707,"D":0.179,"C":0.8822,"T":0.0363,"U1":0.0534,"U2":0.0192,"couplingDegree":0.179,"level":"极度失调","road_density":18.5044,"walk_accessibility":0.5428,"metro_line_density":2.429,"station_count":1,"line_count":1,"population_density":2052.798,"poi_density":0.0,"poi_diversity":0.0,"gdp_density":0.0,"P":2052.798,"I":0.0,"G":0.0},{"stationName":"北京北邵洼(地铁站)","station_id":"北京北邵洼(地铁站)_40.22075_116.27587","lineId":"北京地铁昌平线","lat":40.2207505,"lon":116.2758667,"area_km2":1.512,"D":0.2033,"C":0.9541,"T":0.0433,"U1":0.0563,"U2":0.0303,"couplingDegree":0.2033,"level":"中度失调","road_density":21.5041,"walk_accessibility":0.3032,"metro_line_density":4.0844,"station_count":1,"line_count":1,"population_density":3224.8104,"poi_density":0.0,"poi_diversity":0.0,"gdp_density":0.0,"P":3224.8104,"I":0.0,"G":0.0},{"stationName":"北京南邵(地铁站)","station_id":"北京南邵(地铁站)_40.20627_116.28154","lineId":"北京地铁昌平线","lat":40.2062686,"lon":116.2815397,"area_km2":1.9758,"D":0.3449,"C":0.6749,"T":0.1763,"U1":0.0462,"U2":0.3064,"couplingDegree":0.3449,"level":"中度失调","road_density":18.8407,"walk_accessibility":0.3961,"metro_line_density":2.6032,"station_count":1,"line_count":1,"population_density":2294.7382,"poi_density":0.0,"poi_diversity":0.0,"gdp_density":3091.4403,"P":2294.7382,"I":0.0,"G":3091.4403},{"stationName":"北京沙河高教园(地铁站)","station_id":"北京沙河高教园(地铁站)_40.16342_116.27439","lineId":"北京地铁昌平线","lat":40.16341784,"lon":116.27438834,"area_km2":1.397,"D":0.0788,"C":0.2276,"T":0.0273,"U1":0.0538,"U2":0.0007,"couplingDegree":0.0788,"level":"极度失调","road_density":19.5476,"walk_accessibility":0.2801,"metro_line_density":4.4146,"station_count":1,"line_count":1,"population_density":105.9402,"poi_density":0.0,"poi_diversity":0.0,"gdp_density":0.0,"P":105.9402,"I":0.0,"G":0.0},{"stationName":"北京沙河(地铁站)","station_id":"北京沙河(地铁站)_40.14702_116.28278","lineId":"北京地铁昌平线","lat":40.14702064,"lon":116.28278002,"area_km2":2.3821,"D":0.3155,"C":0.8189,"T":0.1215,"U1":0.0518,"U2":0.1913,"couplingDegree":0.3155,"level":"中度失调","road_density":21.0548,"walk_accessibility":0.4776,"metro_line_density":2.1395,"station_count":1,"line_count":1,"population_density":1330.7448,"poi_density":0.0,"poi_diversity":0.0,"gdp_density":1941.8239,"P":1330.7448,"I":0.0,"G":1941.8239},{"stationName":"北京巩华城(地铁站)","station_id":"北京巩华城(地铁站)_40.12964_116.28789","lineId":"北京地铁昌平线","lat":40.12963659,"lon":116.28788866,"area_km2":0.7551,"D":0.035,"C":0.8396,"T":0.0015,"U1":0.0022,"U2":0.0007,"couplingDegree":0.035,"level":"极度失调","road_density":13.699,"walk_accessibility":0.1514,"metro_line_density":0.0,"station_count":1,"line_count":1,"population_density":100.65,"poi_density":0.0,"poi_diversity":0.0,"gdp_density":0.0,"P":100.65,"I":0.0,"G":0.0},{"stationName":"北京生命科学园(地铁站)","station_id":"北京生命科学园(地铁站)_40.09353_116.28814","lineId":"北京地铁昌平线","lat":40.09352875,"lon":116.2881436,"area_km2":2.198,"D":0.2232,"C":0.9185,"T":0.0542,"U1":0.0757,"U2":0.0328,"couplingDegree":0.2232,"level":"中度失调","road_density":34.5673,"walk_accessibility":0.4407,"metro_line_density":2.3842,"station_count":1,"line_count":1,"population_density":3482.1815,"poi_density":0.0,"poi_diversity":0.0,"gdp_density":0.0,"P":3482.1815,"I":0.0,"G":0.0},{"stationName":"北京朱房北(地铁站)","station_id":"北京朱房北(地铁站)_40.03463_116.32555","lineId":"北京地铁昌平线","lat":40.03462961,"lon":116.32555218,"area_km2":2.439,"D":0.3328,"C":0.9938,"T":0.1114,"U1":0.1238,"U2":0.0991,"couplingDegree":0.3328,"level":"中度失调","road_density":19.8565,"walk_accessibility":0.489,"metro_line_density":2.3074,"station_count":2,"line_count":1,"population_density":10457.3486,"poi_density":0.0,"poi_diversity":0.0,"gdp_density":0.0,"P":10457.3486,"I":0.0,"G":0.0},{"stationName":"北京清河小营桥(地铁站)","station_id":"北京清河小营桥(地铁站)_40.03338_116.33755","lineId":"北京地铁昌平线","lat":40.03337638,"lon":116.33755409,"area_km2":2.0637,"D":0.4029,"C":0.8383,"T":0.1936,"U1":0.2992,"U2":0.088,"couplingDegree":0.4029,"level":"勉强协调","road_density":21.8797,"walk_accessibility":0.4138,"metro_line_density":3.177,"station_count":3,"line_count":2,"population_density":9296.5829,"poi_density":0.0,"poi_diversity":0.0,"gdp_density":0.0,"P":9296.5829,"I":0.0,"G":0.0},{"stationName":"北京学知园(地铁站)","station_id":"北京学知园(地铁站)_40.01365_116.34599","lineId":"北京地铁昌平线","lat":40.01365145,"lon":116.34599492,"area_km2":3.3893,"D":0.2769,"C":0.9995,"T":0.0767,"U1":0.079,"U2":0.0744,"couplingDegree":0.2769,"level":"中度失调","road_density":30.891,"walk_accessibility":0.6795,"metro_line_density":1.7301,"station_count":1,"line_count":1,"population_density":7861.7823,"poi_density":0.0,"poi_diversity":0.0,"gdp_density":0.0,"P":7861.7823,"I":0.0,"G":0.0},{"stationName":"北京学院桥(地铁站)","station_id":"北京学院桥(地铁站)_39.98684_116.34724","lineId":"北京地铁昌平线","lat":39.98684401,"lon":116.34723855,"area_km2":4.4505,"D":0.317,"C":0.993,"T":0.1012,"U1":0.0893,"U2":0.1131,"couplingDegree":0.317,"level":"中度失调","road_density":30.3234,"walk_accessibility":0.8923,"metro_line_density":1.4714,"station_count":1,"line_count":1,"population_density":11935.2049,"poi_density":0.0,"poi_diversity":0.0,"gdp_density":0.0,"P":11935.2049,"I":0.0,"G":0.0},{"stationName":"北京花乡东桥(地铁站)","station_id":"北京花乡东桥(地铁站)_39.82792_116.31396","lineId":"北京地铁房山线","lat":39.82791952,"lon":116.31395891,"area_km2":2.6882,"D":0.2865,"C":0.8977,"T":0.0914,"U1":0.1317,"U2":0.0511,"couplingDegree":0.2865,"level":"中度失调","road_density":26.0226,"walk_accessibility":0.539,"metro_line_density":1.4619,"station_count":2,"line_count":1,"population_density":5412.9469,"poi_density":0.0,"poi_diversity":0.0,"gdp_density":0.0,"P":5412.9469,"I":0.0,"G":0.0},{"stationName":"北京白盆窑(地铁站)","station_id":"北京白盆窑(地铁站)_39.81831_116.30730","lineId":"北京地铁房山线","lat":39.81831136,"lon":116.30730122,"area_km2":2.0537,"D":0.4816,"C":0.8325,"T":0.2786,"U1":0.1242,"U2":0.433,"couplingDegree":0.4816,"level":"勉强协调","road_density":23.7536,"walk_accessibility":0.4118,"metro_line_density":2.0686,"station_count":2,"line_count":1,"population_density":4781.6706,"poi_density":0.0,"poi_diversity":0.0,"gdp_density":4208.7691,"P":4781.6706,"I":0.0,"G":4208.7691},{"stationName":"北京大葆台(地铁站)","station_id":"北京大葆台(地铁站)_39.80657_116.28563","lineId":"北京地铁房山线","lat":39.80656876,"lon":116.28563395,"area_km2":2.468,"D":0.2475,"C":0.9846,"T":0.0622,"U1":0.0513,"U2":0.0731,"couplingDegree":0.2475,"level":"中度失调","road_density":21.7035,"walk_accessibility":0.4948,"metro_line_density":1.7768,"station_count":1,"line_count":1,"population_density":7722.9297,"poi_density":0.0,"poi_diversity":0.0,"gdp_density":0.0,"P":7722.9297,"I":0.0,"G":0.0},