{"cityCode":"440100","year":2023,"stations":[{"stationName":"广州西塱(地铁站)","station_id":"广州西塱(地铁站)_23.06821_113.22651","lineId":"广州地铁10号线 / 广州地铁1号线 / 广州地铁22号线 / 广州广州广佛线(新城东--沥滘)","lat":23.068209426000003,"lon":113.226507804,"area_km2":1.6968,"D":0.4423,"C":0.9215,"T":0.2123,"U1":0.2947,"U2":0.1298,"couplingDegree":0.4423,"level":"勉强协调","road_density":26.3285,"walk_accessibility":0.3402,"metro_line_density":6.9731,"station_count":1,"line_count":4,"population_density":21962.5304,"poi_density":6.4828,"poi_diversity":1.499,"gdp_density":0.0,"P":21962.5304,"I":6.4828,"G":0.0},{"stationName":"广州坑口(地铁站)","station_id":"广州坑口(地铁站)_23.08157_113.22717","lineId":"广州地铁1号线","lat":23.08157413,"lon":113.22717253,"area_km2":2.5888,"D":0.374,"C":0.9984,"T":0.1401,"U1":0.1323,"U2":0.1479,"couplingDegree":0.374,"level":"中度失调","road_density":29.5079,"walk_accessibility":0.519,"metro_line_density":3.535,"station_count":2,"line_count":1,"population_density":14610.0356,"poi_density":5.7943,"poi_diversity":2.2111,"gdp_density":0.0,"P":14610.0356,"I":5.7943,"G":0.0},{"stationName":"广州花地湾(地铁站)","station_id":"广州花地湾(地铁站)_23.08975_113.22871","lineId":"广州地铁1号线","lat":23.08974785,"lon":113.22870587,"area_km2":2.6639,"D":0.3677,"C":0.9977,"T":0.1355,"U1":0.1447,"U2":0.1263,"couplingDegree":0.3677,"level":"中度失调","road_density":33.1286,"walk_accessibility":0.5341,"metro_line_density":4.8753,"station_count":2,"line_count":1,"population_density":14931.364,"poi_density":4.5046,"poi_diversity":1.8201,"gdp_density":0.0,"P":14931.364,"I":4.5046,"G":0.0},{"stationName":"广州芳村(地铁站)","station_id":"广州芳村(地铁站)_23.10157_113.23069","lineId":"广州地铁11号线 / 广州地铁1号线 / 广州地铁22号线","lat":23.101569972,"lon":113.230690944,"area_km2":2.4325,"D":0.4095,"C":0.9473,"T":0.177,"U1":0.2338,"U2":0.1203,"couplingDegree":0.4095,"level":"勉强协调","road_density":29.65,"walk_accessibility":0.4877,"metro_line_density":6.7234,"station_count":1,"line_count":3,"population_density":24194.8419,"poi_density":4.1109,"poi_diversity":1.3592,"gdp_density":0.0,"P":24194.8419,"I":4.1109,"G":0.0},{"stationName":"广州黄沙(地铁站)","station_id":"广州黄沙(地铁站)_23.11242_113.23510","lineId":"广州地铁1号线 / 广州地铁6号线","lat":23.112418535000003,"lon":113.235100905,"area_km2":2.1562,"D":0.5577,"C":0.9973,"T":0.3119,"U1":0.3347,"U2":0.2891,"couplingDegree":0.5577,"level":"勉强协调","road_density":32.1177,"walk_accessibility":0.4323,"metro_line_density":5.4232,"station_count":4,"line_count":2,"population_density":16620.1709,"poi_density":41.7406,"poi_diversity":2.8791,"gdp_density":0.0,"P":16620.1709,"I":41.7406,"G":0.0},{"stationName":"广州长寿路(地铁站)","station_id":"广州长寿路(地铁站)_23.12109_113.23695","lineId":"广州地铁1号线","lat":23.12108553,"lon":113.23694782499999,"area_km2":3.1815,"D":0.5779,"C":1.0,"T":0.334,"U1":0.3307,"U2":0.3372,"couplingDegree":0.5779,"level":"勉强协调","road_density":28.0217,"walk_accessibility":0.6379,"metro_line_density":2.2972,"station_count":4,"line_count":2,"population_density":40137.0523,"poi_density":41.1756,"poi_diversity":3.0239,"gdp_density":0.0,"P":40137.0523,"I":41.1756,"G":0.0},{"stationName":"广州陈家祠(地铁站)","station_id":"广州陈家祠(地铁站)_23.12841_113.24111","lineId":"广州地铁1号线","lat":23.12840889,"lon":113.24111492,"area_km2":3.0666,"D":0.6357,"C":0.9822,"T":0.4115,"U1":0.4887,"U2":0.3343,"couplingDegree":0.6357,"level":"良好协调","road_density":30.341,"walk_accessibility":0.6148,"metro_line_density":2.8115,"station_count":4,"line_count":4,"population_density":29798.3557,"poi_density":47.6095,"poi_diversity":2.959,"gdp_density":0.0,"P":29798.3557,"I":47.6095,"G":0.0},{"stationName":"广州西门口(地铁站)","station_id":"广州西门口(地铁站)_23.12790_113.25050","lineId":"广州地铁1号线","lat":23.127900420000003,"lon":113.25050498,"area_km2":3.5231,"D":0.6787,"C":0.9965,"T":0.4622,"U1":0.5011,"U2":0.4234,"couplingDegree":0.6787,"level":"良好协调","road_density":32.1814,"walk_accessibility":0.7064,"metro_line_density":3.6105,"station_count":4,"line_count":4,"population_density":46758.9785,"poi_density":62.4445,"poi_diversity":3.2637,"gdp_density":0.0,"P":46758.9785,"I":62.4445,"G":0.0},{"stationName":"广州公园前(地铁站)","station_id":"广州公园前(地铁站)_23.12810_113.25885","lineId":"广州地铁1号线","lat":23.12809794,"lon":113.25885318,"area_km2":3.2838,"D":0.7415,"C":0.9502,"T":0.5786,"U1":0.7589,"U2":0.3984,"couplingDegree":0.7415,"level":"良好协调","road_density":31.5047,"walk_accessibility":0.6584,"metro_line_density":5.1549,"station_count":7,"line_count":5,"population_density":29831.4291,"poi_density":65.7778,"poi_diversity":3.1803,"gdp_density":0.0,"P":29831.4291,"I":65.7778,"G":0.0},{"stationName":"广州农讲所(地铁站)","station_id":"广州农讲所(地铁站)_23.12929_113.27026","lineId":"广州地铁1号线","lat":23.12929255,"lon":113.27026288,"area_km2":3.2668,"D":0.8408,"C":0.9918,"T":0.7128,"U1":0.6219,"U2":0.8038,"couplingDegree":0.8408,"level":"优质协调","road_density":32.2013,"walk_accessibility":0.655,"metro_line_density":4.7849,"station_count":6,"line_count":4,"population_density":70125.9526,"poi_density":68.5682,"poi_diversity":2.9932,"gdp_density":301586.3796,"P":70125.9526,"I":68.5682,"G":301586.3796},{"stationName":"广州烈士陵园(地铁站)","station_id":"广州烈士陵园(地铁站)_23.12867_113.28080","lineId":"广州地铁12号线 / 广州地铁1号线","lat":23.12866966,"lon":113.28079735,"area_km2":2.9241,"D":0.7874,"C":0.9551,"T":0.6491,"U1":0.8413,"U2":0.4569,"couplingDegree":0.7874,"level":"良好协调","road_density":34.1382,"walk_accessibility":0.5863,"metro_line_density":6.8814,"station_count":7,"line_count":6,"population_density":65602.6094,"poi_density":66.6874,"poi_diversity":2.9784,"gdp_density":0.0,"P":65602.6094,"I":66.6874,"G":0.0},{"stationName":"广州东山口(地铁站)","station_id":"广州东山口(地铁站)_23.12652_113.29043","lineId":"广州地铁1号线 / 广州地铁6号线","lat":23.126521175,"lon":113.2904276,"area_km2":3.0671,"D":0.7487,"C":0.9701,"T":0.5779,"U1":0.7182,"U2":0.4375,"couplingDegree":0.7487,"level":"良好协调","road_density":30.7666,"walk_accessibility":0.6149,"metro_line_density":7.5123,"station_count":5,"line_count":6,"population_density":68800.9384,"poi_density":59.3395,"poi_diversity":2.9039,"gdp_density":0.0,"P":68800.9384,"I":59.3395,"G":0.0},{"stationName":"广州杨箕(地铁站)","station_id":"广州杨箕(地铁站)_23.13014_113.30283","lineId":"广州地铁1号线 / 广州地铁5号线","lat":23.130141115,"lon":113.30282725500001,"area_km2":2.2657,"D":0.5876,"C":0.9261,"T":0.3728,"U1":0.5135,"U2":0.2321,"couplingDegree":0.5876,"level":"勉强协调","road_density":38.3154,"walk_accessibility":0.4543,"metro_line_density":9.104,"station_count":4,"line_count":4,"population_density":41063.7441,"poi_density":16.3302,"poi_diversity":2.313,"gdp_density":0.0,"P":41063.7441,"I":16.3302,"G":0.0},{"stationName":"广州体育西路(地铁站)","station_id":"广州体育西路(地铁站)_23.13542_113.31711","lineId":"广州地铁10号线 / 广州地铁1号线","lat":23.135422016666666,"lon":113.31710547333334,"area_km2":2.8779,"D":0.7821,"C":0.9793,"T":0.6246,"U1":0.751,"U2":0.4983,"couplingDegree":0.7821,"level":"良好协调","road_density":45.0716,"walk_accessibility":0.577,"metro_line_density":9.8035,"station_count":5,"line_count":6,"population_density":23384.0754,"poi_density":38.2223,"poi_diversity":2.8667,"gdp_density":188567.4436,"P":23384.0754,"I":38.2223,"G":188567.4436},{"stationName":"广州体育中心(地铁站)","station_id":"广州体育中心(地铁站)_23.13715_113.32295","lineId":"广州地铁1号线","lat":23.13715107,"lon":113.32294731,"area_km2":3.1275,"D":0.7885,"C":0.9845,"T":0.6315,"U1":0.7423,"U2":0.5206,"couplingDegree":0.7885,"level":"良好协调","road_density":41.9356,"walk_accessibility":0.6271,"metro_line_density":7.9619,"station_count":5,"line_count":6,"population_density":37770.0069,"poi_density":41.567,"poi_diversity":2.9246,"gdp_density":173519.1689,"P":37770.0069,"I":41.567,"G":173519.1689},{"stationName":"广州广州东站(地铁站)","station_id":"广州广州东站(地铁站)_23.15339_113.31958","lineId":"广州地铁11号线 / 广州地铁18号线 / 广州地铁1号线 / 广州地铁3号线","lat":23.1533919375,"lon":113.3195788075,"area_km2":1.5228,"D":0.6024,"C":0.8124,"T":0.4468,"U1":0.7073,"U2":0.1862,"couplingDegree":0.6024,"level":"良好协调","road_density":34.2442,"walk_accessibility":0.3053,"metro_line_density":8.5864,"station_count":5,"line_count":6,"population_density":27414.6901,"poi_density":13.134,"poi_diversity":2.0685,"gdp_density":0.0,"P":27414.6901,"I":13.134,"G":0.0},{"stationName":"广州广州南站(地铁站)","station_id":"广州广州南站(地铁站)_22.99152_113.26361","lineId":"广州地铁2号线 / 广州地铁7号线","lat":22.991516100000002,"lon":113.26360775,"area_km2":1.6,"D":0.3869,"C":0.9672,"T":0.1548,"U1":0.1941,"U2":0.1155,"couplingDegree":0.3869,"level":"中度失调","road_density":30.0987,"walk_accessibility":0.3208,"metro_line_density":2.7638,"station_count":2,"line_count":2,"population_density":3115.5641,"poi_density":6.8749,"poi_diversity":1.121,"gdp_density":33311.2242,"P":3115.5641,"I":6.8749,"G":33311.2242},{"stationName":"广州石壁(地铁站)","station_id":"广州石壁(地铁站)_22.99687_113.27331","lineId":"广州地铁2号线 / 广州地铁7号线","lat":22.996867006666665,"lon":113.27331355000001,"area_km2":1.477,"D":0.1461,"C":0.2232,"T":0.0956,"U1":0.1889,"U2":0.0024,"couplingDegree":0.1461,"level":"极度失调","road_density":29.1067,"walk_accessibility":0.2961,"metro_line_density":2.2522,"station_count":2,"line_count":2,"population_density":1320.8906,"poi_density":0.0,"poi_diversity":0.0,"gdp_density":0.0,"P":1320.8906,"I":0.0,"G":0.0},{"stationName":"广州会江(地铁站)","station_id":"广州会江(地铁站)_23.01575_113.28105","lineId":"广州地铁2号线","lat":23.01575206,"lon":113.28104841,"area_km2":1.5662,"D":0.2193,"C":0.9993,"T":0.0481,"U1":0.0463,"U2":0.05,"couplingDegree":0.2193,"level":"中度失调","road_density":26.7174,"walk_accessibility":0.314,"metro_line_density":1.5746,"station_count":1,"line_count":1,"population_density":7442.0988,"poi_density":1.277,"poi_diversity":0.6931,"gdp_density":0.0,"P":7442.0988,"I":1.277,"G":0.0},{"stationName":"广州南浦(地铁站)","station_id":"广州南浦(地铁站)_23.03562_113.28780","lineId":"广州地铁2号线","lat":23.03561612,"lon":113.28779802,"area_km2":2.0582,"D":0.2892,"C":0.9716,"T":0.0861,"U1":0.1065,"U2":0.0657,"couplingDegree":0.2892,"level":"中度失调","road_density":22.079,"walk_accessibility":0.4127,"metro_line_density":2.2901,"station_count":2,"line_count":1,"population_density":5298.2138,"poi_density":1.4576,"poi_diversity":1.0986,"gdp_density":0.0,"P":5298.2138,"I":1.4576,"G":0.0},{"stationName":"广州洛溪(地铁站)","station_id":"广州洛溪(地铁站)_23.04557_113.29330","lineId":"广州地铁2号线","lat":23.04557025,"lon":113.29329905,"area_km2":2.2862,"D":0.3285,"C":0.9996,"T":0.108,"U1":0.1112,"U2":0.1048,"couplingDegree":0.3285,"level":"中度失调","road_density":23.4802,"walk_accessibility":0.4584,"metro_line_density":1.9207,"station_count":2,"line_count":1,"population_density":14849.8564,"poi_density":1.7496,"poi_diversity":1.0397,"gdp_density":21341.8024,"P":14849.8564,"I":1.7496,"G":21341.8024},{"stationName":"广州南洲(地铁站)","station_id":"广州南洲(地铁站)_23.06705_113.29228","lineId":"广州地铁2号线 / 广州广州广佛线(新城东--沥滘)","lat":23.067046689999998,"lon":113.29228402999999,"area_km2":2.0158,"D":0.4058,"C":0.8703,"T":0.1892,"U1":0.2823,"U2":0.096,"couplingDegree":0.4058,"level":"勉强协调","road_density":28.7488,"walk_accessibility":0.4042,"metro_line_density":5.4052,"station_count":2,"line_count":3,"population_density":21835.9266,"poi_density":1.4883,"poi_diversity":1.0986,"gdp_density":0.0,"P":21835.9266,"I":1.4883,"G":0.0},{"stationName":"广州东晓南(地铁站)","station_id":"广州东晓南(地铁站)_23.07382_113.28831","lineId":"广州地铁10号线 / 广州地铁2号线","lat":23.073824185,"lon":113.288305735,"area_km2":2.4767,"D":0.5057,"C":0.9946,"T":0.2571,"U1":0.2839,"U2":0.2304,"couplingDegree":0.5057,"level":"勉强协调","road_density":26.7811,"walk_accessibility":0.4966,"metro_line_density":5.1268,"station_count":2,"line_count":3,"population_density":37222.6982,"poi_density":0.8075,"poi_diversity":0.6931,"gdp_density":115567.573,"P":37222.6982,"I":0.8075,"G":115567.573},{"stationName":"广州江泰路(地铁站)","station_id":"广州江泰路(地铁站)_23.08473_113.27448","lineId":"广州地铁11号线 / 广州地铁2号线","lat":23.084725855000002,"lon":113.27447567,"area_km2":1.8654,"D":0.4399,"C":0.9997,"T":0.1935,"U1":0.1889,"U2":0.1982,"couplingDegree":0.4399,"level":"勉强协调","road_density":24.5891,"walk_accessibility":0.374,"metro_line_density":3.3721,"station_count":2,"line_count":2,"population_density":37156.9344,"poi_density":11.2576,"poi_diversity":2.0618,"gdp_density":0.0,"P":37156.9344,"I":11.2576,"G":0.0},{"stationName":"广州昌岗(地铁站)","station_id":"广州昌岗(地铁站)_23.09278_113.27177","lineId":"广州地铁2号线","lat":23.092775465000003,"lon":113.271770785,"area_km2":2.862,"D":0.5087,"C":0.9996,"T":0.2589,"U1":0.2665,"U2":0.2513,"couplingDegree":0.5087,"level":"勉强协调","road_density":28.3273,"walk_accessibility":0.5738,"metro_line_density":2.2543,"station_count":3,"line_count":2,"population_density":45845.4499,"poi_density":17.121,"poi_diversity":2.4857,"gdp_density":0.0,"P":45845.4499,"I":17.121,"G":0.0},{"stationName":"广州江南西(地铁站)","station_id":"广州江南西(地铁站)_23.09990_113.26858","lineId":"广州地铁2号线","lat":23.09989636,"lon":113.26858341,"area_km2":3.0765,"D":0.4997,"C":0.9717,"T":0.2569,"U1":0.1963,"U2":0.3176,"couplingDegree":0.4997,"level":"勉强协调","road_density":30.9584,"walk_accessibility":0.6168,"metro_line_density":1.7326,"station_count":3,"line_count":1,"population_density":47190.9636,"poi_density":21.7777,"poi_diversity":2.5054,"gdp_density":44560.0881,"P":47190.9636,"I":21.7777,"G":44560.0881},{"stationName":"广州市二宫(地铁站)","station_id":"广州市二宫(地铁站)_23.10868_113.26456","lineId":"广州地铁2号线","lat":23.10867898,"lon":113.26455869,"area_km2":2.8643,"D":0.5414,"C":0.9971,"T":0.294,"U1":0.2716,"U2":0.3163,"couplingDegree":0.5414,"level":"勉强协调","road_density":31.105,"walk_accessibility":0.5743,"metro_line_density":2.1328,"station_count":3,"line_count":2,"population_density":52480.3498,"poi_density":15.3617,"poi_diversity":2.5982,"gdp_density":47862.4225,"P":52480.3498,"I":15.3617,"G":47862.4225},{"stationName":"广州海珠广场(地铁站)","station_id":"广州海珠广场(地铁站)_23.11743_113.26044","lineId":"广州地铁2号线 / 广州地铁6号线","lat":23.117431815000003,"lon":113.26044308499999,"area_km2":3.1122,"D":0.6133,"C":0.9766,"T":0.3851,"U1":0.4679,"U2":0.3023,"couplingDegree":0.6133,"level":"良好协调","road_density":27.0237,"walk_accessibility":0.624,"metro_line_density":3.3055,"station_count":5,"line_count":3,"population_density":44772.2356,"poi_density":30.2042,"poi_diversity":2.7911,"gdp_density":0.0,"P":44772.2356,"I":30.2042,"G":0.0},{"stationName":"广州纪念堂(地铁站)","station_id":"广州纪念堂(地铁站)_23.13473_113.25708","lineId":"广州地铁13号线 / 广州地铁2号线 / 广州地铁8号线","lat":23.134734716666667,"lon":113.25708422666666,"area_km2":3.0782,"D":0.8136,"C":0.9885,"T":0.6697,"U1":0.5683,"U2":0.771,"couplingDegree":0.8136,"level":"优质协调","road_density":32.9765,"walk_accessibility":0.6172,"metro_line_density":7.1913,"station_count":5,"line_count":4,"population_density":54282.3913,"poi_density":60.1008,"poi_diversity":3.0107,"gdp_density":320070.5372,"P":54282.3913,"I":60.1008,"G":320070.5372},{"stationName":"广州越秀公园(地铁站)","station_id":"广州越秀公园(地铁站)_23.14244_113.25617","lineId":"广州地铁2号线","lat":23.14244166,"lon":113.25617401,"area_km2":2.5829,"D":0.6671,"C":0.9186,"T":0.4845,"U1":0.6759,"U2":0.293,"couplingDegree":0.6671,"level":"良好协调","road_density":34.8451,"walk_accessibility":0.5179,"metro_line_density":7.5763,"station_count":3,"line_count":7,"population_density":44180.6628,"poi_density":30.1989,"poi_diversity":2.6157,"gdp_density":0.0,"P":44180.6628,"I":30.1989,"G":0.0},{"stationName":"广州广州火车站(地铁站)","station_id":"广州广州火车站(地铁站)_23.15084_113.25170","lineId":"广州地铁11号线 / 广州地铁14号线 / 广州地铁22号线 / 广州地铁2号线 / 广州地铁5号线","lat":23.15084483833333,"lon":113.25170346499999,"area_km2":2.3501,"D":0.6092,"C":0.8485,"T":0.4373,"U1":0.6687,"U2":0.2059,"couplingDegree":0.6092,"level":"良好协调","road_density":37.1019,"walk_accessibility":0.4712,"metro_line_density":10.065,"station_count":4,"line_count":6,"population_density":40258.0127,"poi_density":9.3613,"poi_diversity":2.2243,"gdp_density":0.0,"P":40258.0127,"I":9.3613,"G":0.0},{"stationName":"广州三元里(地铁站)","station_id":"广州三元里(地铁站)_23.16207_113.25152","lineId":"广州地铁2号线","lat":23.1620706,"lon":113.25152331,"area_km2":1.9886,"D":0.5997,"C":0.8366,"T":0.4299,"U1":0.6654,"U2":0.1944,"couplingDegree":0.5997,"level":"勉强协调","road_density":36.5183,"walk_accessibility":0.3987,"metro_line_density":10.9188,"station_count":4,"line_count":6,"population_density":38723.7499,"poi_density":7.5431,"poi_diversity":2.1535,"gdp_density":0.0,"P":38723.7499,"I":7.5431,"G":0.0},{"stationName":"广州飞翔公园(地铁站)","station_id":"广州飞翔公园(地铁站)_23.17149_113.25830","lineId":"广州地铁2号线","lat":23.1714946,"lon":113.2583034,"area_km2":1.3297,"D":0.4317,"C":0.946,"T":0.197,"U1":0.2609,"U2":0.1332,"couplingDegree":0.4317,"level":"勉强协调","road_density":28.7009,"walk_accessibility":0.2666,"metro_line_density":6.8069,"station_count":3,"line_count":2,"population_density":19412.1879,"poi_density":4.5122,"poi_diversity":1.7918,"gdp_density":0.0,"P":19412.1879,"I":4.5122,"G":0.0},{"stationName":"广州白云公园(地铁站)","station_id":"广州白云公园(地铁站)_23.18426_113.26563","lineId":"广州地铁2号线","lat":23.1842649,"lon":113.26562739,"area_km2":2.0487,"D":0.4727,"C":0.9231,"T":0.2421,"U1":0.3352,"U2":0.1489,"couplingDegree":0.4727,"level":"勉强协调","road_density":28.7257,"walk_accessibility":0.4108,"metro_line_density":2.9697,"station_count":3,"line_count":3,"population_density":9941.5112,"poi_density":12.203,"poi_diversity":2.0125,"gdp_density":0.0,"P":9941.5112,"I":12.203,"G":0.0},{"stationName":"广州白云文化广场(地铁站)","station_id":"广州白云文化广场(地铁站)_23.19388_113.27084","lineId":"广州地铁12号线 / 广州地铁2号线","lat":23.193875730000002,"lon":113.27084250499999,"area_km2":1.8818,"D":0.4151,"C":0.9174,"T":0.1878,"U1":0.2625,"U2":0.1131,"couplingDegree":0.4151,"level":"勉强协调","road_density":29.5813,"walk_accessibility":0.3773,"metro_line_density":4.4171,"station_count":3,"line_count":2,"population_density":4413.3242,"poi_density":2.657,"poi_diversity":1.3322,"gdp_density":31238.6832,"P":4413.3242,"I":2.657,"G":31238.6832},{"stationName":"广州萧岗(地铁站)","station_id":"广州萧岗(地铁站)_23.20122_113.27535","lineId":"广州地铁2号线","lat":23.20121738,"lon":113.27534695,"area_km2":1.6302,"D":0.2617,"C":0.6157,"T":0.1113,"U1":0.1989,"U2":0.0236,"couplingDegree":0.2617,"level":"中度失调","road_density":31.1829,"walk_accessibility":0.3269,"metro_line_density":3.4677,"station_count":2,"line_count":2,"population_density":12916.203,"poi_density":0.0,"poi_diversity":0.0,"gdp_density":0.0,"P":12916.203,"I":0.0,"G":0.0},{"stationName":"广州江夏(地铁站)","station_id":"广州江夏(地铁站)_23.21393_113.27810","lineId":"广州地铁2号线","lat":23.21393056,"lon":113.27809704,"area_km2":1.9634,"D":0.3094,"C":0.962,"T":0.0995,"U1":0.1267,"U2":0.0723,"couplingDegree":0.3094,"level":"中度失调","road_density":33.4297,"walk_accessibility":0.3937,"metro_line_density":2.0582,"station_count":2,"line_count":1,"population_density":8811.1317,"poi_density":1.5279,"poi_diversity":1.0986,"gdp_density":0.0,"P":8811.1317,"I":1.5279,"G":0.0},{"stationName":"广州黄边(地铁站)","station_id":"广州黄边(地铁站)_23.22427_113.28202","lineId":"广州地铁2号线","lat":23.22426556,"lon":113.28201544999999,"area_km2":2.006,"D":0.4795,"C":0.8677,"T":0.265,"U1":0.3968,"U2":0.1333,"couplingDegree":0.4795,"level":"勉强协调","road_density":25.595,"walk_accessibility":0.4022,"metro_line_density":5.493,"station_count":4,"line_count":3,"population_density":7734.6235,"poi_density":7.4774,"poi_diversity":2.0611,"gdp_density":0.0,"P":7734.6235,"I":7.4774,"G":0.0},{"stationName":"广州嘉禾望岗(地铁站)","station_id":"广州嘉禾望岗(地铁站)_23.24006_113.28373","lineId":"广州地铁14号线 / 广州地铁2号线","lat":23.24006153,"lon":113.28373465,"area_km2":1.81,"D":0.3283,"C":0.9868,"T":0.1092,"U1":0.1269,"U2":0.0915,"couplingDegree":0.3283,"level":"中度失调","road_density":23.7737,"walk_accessibility":0.3629,"metro_line_density":3.5644,"station_count":1,"line_count":2,"population_density":12724.5393,"poi_density":3.3148,"poi_diversity":1.2425,"gdp_density":0.0,"P":12724.5393,"I":3.3148,"G":0.0},{"stationName":"广州南庄(地铁站)","station_id":"广州南庄(地铁站)_22.98568_113.00127","lineId":"广州地铁2号线","lat":22.9856765,"lon":113.00126738,"area_km2":1.0821,"D":0.0,"C":0.0,"T":0.0132,"U1":0.0263,"U2":0.0,"couplingDegree":0.0,"level":"极度失调","road_density":18.5412,"walk_accessibility":0.2169,"metro_line_density":2.414,"station_count":1,"line_count":1,"population_density":0.0,"poi_density":0.0,"poi_diversity":0.0,"gdp_density":0.0,"P":0.0,"I":0.0,"G":0.0},{"stationName":"广州湖涌(地铁站)","station_id":"广州湖涌(地铁站)_23.00587_113.00606","lineId":"广州地铁2号线","lat":23.00586621,"lon":113.00605872,"area_km2":1.522,"D":0.0,"C":0.0,"T":0.0203,"U1":0.0406,"U2":0.0,"couplingDegree":0.0,"level":"极度失调","road_density":24.7763,"walk_accessibility":0.3052,"metro_line_density":1.172,"station_count":1,"line_count":1,"population_density":0.0,"poi_density":0.0,"poi_diversity":0.0,"gdp_density":0.0,"P":0.0,"I":0.0,"G":0.0},{"stationName":"广州绿岛湖(地铁站)","station_id":"广州绿岛湖(地铁站)_23.00462_113.02886","lineId":"广州地铁2号线","lat":23.00462025,"lon":113.02886193,"area_km2":1.4413,"D":0.0,"C":0.0,"T":0.0187,"U1":0.0374,"U2":0.0,"couplingDegree":0.0,"level":"极度失调","road_density":19.8971,"walk_accessibility":0.289,"metro_line_density":3.5049,"station_count":1,"line_count":1,"population_density":0.0,"poi_density":0.0,"poi_diversity":0.0,"gdp_density":0.0,"P":0.0,"I":0.0,"G":0.0},{"stationName":"广州智慧新城(地铁站)","station_id":"广州智慧新城(地铁站)_23.01375_113.04998","lineId":"广州地铁2号线","lat":23.01375057,"lon":113.04998269,"area_km2":1.4739,"D":0.0,"C":0.0,"T":0.0246,"U1":0.0493,"U2":0.0,"couplingDegree":0.0,"level":"极度失调","road_density":25.7561,"walk_accessibility":0.2955,"metro_line_density":3.4949,"station_count":1,"line_count":1,"population_density":0.0,"poi_density":0.0,"poi_diversity":0.0,"gdp_density":0.0,"P":0.0,"I":0.0,"G":0.0},{"stationName":"广州张槎(地铁站)","station_id":"广州张槎(地铁站)_23.01360_113.06229","lineId":"广州地铁2号线","lat":23.01360472,"lon":113.06228855,"area_km2":1.9482,"D":0.0,"C":0.0,"T":0.0263,"U1":0.0525,"U2":0.0,"couplingDegree":0.0,"level":"极度失调","road_density":25.3071,"walk_accessibility":0.3906,"metro_line_density":2.7477,"station_count":1,"line_count":1,"population_density":0.0,"poi_density":0.0,"poi_diversity":0.0,"gdp_density":0.0,"P":0.0,"I":0.0,"G":0.0},{"stationName":"广州石湾(地铁站)","station_id":"广州石湾(地铁站)_23.00785_113.07781","lineId":"广州地铁2号线","lat":23.00785134,"lon":113.07780596,"area_km2":1.8673,"D":0.1088,"C":0.4984,"T":0.0238,"U1":0.0444,"U2":0.0032,"couplingDegree":0.1088,"level":"极度失调","road_density":21.9283,"walk_accessibility":0.3744,"metro_line_density":2.6126,"station_count":1,"line_count":1,"population_density":0.0,"poi_density":1.0711,"poi_diversity":0.0,"gdp_density":0.0,"P":0.0,"I":1.0711,"G":0.0},{"stationName":"广州沙岗(地铁站)","station_id":"广州沙岗(地铁站)_22.99907_113.08876","lineId":"广州地铁2号线","lat":22.99907018,"lon":113.08876009,"area_km2":1.9,"D":0.1107,"C":0.4765,"T":0.0257,"U1":0.0483,"U2":0.0031,"couplingDegree":0.1107,"level":"极度失调","road_density":23.4604,"walk_accessibility":0.3809,"metro_line_density":2.7693,"station_count":1,"line_count":1,"population_density":0.0,"poi_density":1.0526,"poi_diversity":0.0,"gdp_density":0.0,"P":0.0,"I":1.0526,"G":0.0},{"stationName":"广州魁奇路(地铁站)","station_id":"广州魁奇路(地铁站)_22.99634_113.10313","lineId":"广州地铁2号线","lat":22.99634112,"lon":113.10312806,"area_km2":2.4573,"D":0.3209,"C":0.9863,"T":0.1044,"U1":0.1216,"U2":0.0872,"couplingDegree":0.3209,"level":"中度失调","road_density":24.125,"walk_accessibility":0.4927,"metro_line_density":4.0608,"station_count":2,"line_count":1,"population_density":0.0,"poi_density":5.2904,"poi_diversity":1.5194,"gdp_density":0.0,"P":0.0,"I":5.2904,"G":0.0},{"stationName":"广州石梁(地铁站)","station_id":"广州石梁(地铁站)_22.99525_113.11326","lineId":"广州地铁2号线","lat":22.99525313,"lon":113.1132637,"area_km2":2.0501,"D":0.2926,"C":0.9712,"T":0.0881,"U1":0.1091,"U2":0.0671,"couplingDegree":0.2926,"level":"中度失调","road_density":22.3121,"walk_accessibility":0.411,"metro_line_density":3.0104,"station_count":2,"line_count":1,"population_density":0.0,"poi_density":2.9267,"poi_diversity":1.2425,"gdp_density":0.0,"P":0.0,"I":2.9267,"G":0.0},{"stationName":"广州湾华(地铁站)","station_id":"广州湾华(地铁站)_22.99445_113.12618","lineId":"广州地铁2号线","lat":22.99444635,"lon":113.12617985,"area_km2":2.0562,"D":0.0,"C":0.0,"T":0.023,"U1":0.046,"U2":0.0,"couplingDegree":0.0,"level":"极度失调","road_density":21.5916,"walk_accessibility":0.4123,"metro_line_density":2.5123,"station_count":1,"line_count":1,"population_density":0.0,"poi_density":0.0,"poi_diversity":0.0,"gdp_density":0.0,"P":0.0,"I":0.0,"G":0.0},{"stationName":"广州登洲(地铁站)","station_id":"广州登洲(地铁站)_22.98190_113.14333","lineId":"广州地铁2号线","lat":22.98190002,"lon":113.14333221,"area_km2":2.007,"D":0.0,"C":0.0,"T":0.024,"U1":0.048,"U2":0.0,"couplingDegree":0.0,"level":"极度失调","road_density":23.4823,"walk_accessibility":0.4024,"metro_line_density":2.1999,"station_count":1,"line_count":1,"population_density":0.0,"poi_density":0.0,"poi_diversity":0.0,"gdp_density":0.0,"P":0.0,"I":0.0,"G":0.0},{"stationName":"广州花卉世界(地铁站)","station_id":"广州花卉世界(地铁站)_22.97602_113.15593","lineId":"广州地铁2号线","lat":22.97602016,"lon":113.15592703,"area_km2":2.0796,"D":0.0,"C":0.0,"T":0.021,"U1":0.0421,"U2":0.0,"couplingDegree":0.0,"level":"极度失调","road_density":20.0667,"walk_accessibility":0.417,"metro_line_density":2.1333,"station_count":1,"line_count":1,"population_density":0.0,"poi_density":0.0,"poi_diversity":0.0,"gdp_density":0.0,"P":0.0,"I":0.0,"G":0.0},{"stationName":"广州仙涌(地铁站)","station_id":"广州仙涌(地铁站)_22.98570_113.19290","lineId":"广州地铁2号线","lat":22.9857025,"lon":113.19289673,"area_km2":1.92,"D":0.0,"C":0.0,"T":0.021,"U1":0.0421,"U2":0.0,"couplingDegree":0.0,"level":"极度失调","road_density":20.6115,"walk_accessibility":0.3849,"metro_line_density":2.4744,"station_count":1,"line_count":1,"population_density":0.0,"poi_density":0.0,"poi_diversity":0.0,"gdp_density":0.0,"P":0.0,"I":0.0,"G":0.0},{"stationName":"广州石洲(地铁站)","station_id":"广州石洲(地铁站)_22.99331_113.21080","lineId":"广州地铁2号线","lat":22.99331114,"lon":113.21079849,"area_km2":2.0754,"D":0.0,"C":0.0,"T":0.0205,"U1":0.0411,"U2":0.0,"couplingDegree":0.0,"level":"极度失调","road_density":19.0232,"walk_accessibility":0.4161,"metro_line_density":2.4703,"station_count":1,"line_count":1,"population_density":0.0,"poi_density":0.0,"poi_diversity":0.0,"gdp_density":0.0,"P":0.0,"I":0.0,"G":0.0},{"stationName":"广州林岳西(地铁站)","station_id":"广州林岳西(地铁站)_22.99648_113.23184","lineId":"广州地铁2号线","lat":22.99647914,"lon":113.231844905,"area_km2":1.7857,"D":0.0,"C":0.0,"T":0.0245,"U1":0.049,"U2":0.0,"couplingDegree":0.0,"level":"极度失调","road_density":23.8314,"walk_accessibility":0.358,"metro_line_density":3.2549,"station_count":1,"line_count":1,"population_density":0.0,"poi_density":0.0,"poi_diversity":0.0,"gdp_density":0.0,"P":0.0,"I":0.0,"G":0.0},{"stationName":"广州林岳东(2号线)(地铁站)","station_id":"广州林岳东(2号线)(地铁站)_22.99665_113.24438","lineId":"广州地铁2号线","lat":22.99664607,"lon":113.24437798,"area_km2":0.9744,"D":0.0,"C":0.0,"T":0.0273,"U1":0.0547,"U2":0.0,"couplingDegree":0.0,"level":"极度失调","road_density":29.1435,"walk_accessibility":0.1954,"metro_line_density":5.2301,"station_count":1,"line_count":1,"population_density":0.0,"poi_density":0.0,"poi_diversity":0.0,"gdp_density":0.0,"P":0.0,"I":0.0,"G":0.0},{"stationName":"广州机场北(2号航站楼)(地铁站)","station_id":"广州机场北(2号航站楼)(地铁站)_23.39806_113.29862","lineId":"广州地铁22号线 / 广州地铁3号线","lat":23.398061685000002,"lon":113.298622825,"area_km2":0.7143,"D":0.3818,"C":0.9203,"T":0.1584,"U1":0.2204,"U2":0.0965,"couplingDegree":0.3818,"level":"中度失调","road_density":41.2013,"walk_accessibility":0.1432,"metro_line_density":7.9473,"station_count":2,"line_count":2,"population_density":0.0,"poi_density":6.9997,"poi_diversity":1.6094,"gdp_density":0.0,"P":0.0,"I":6.9997,"G":0.0},{"stationName":"广州机场南(1号航站楼)(地铁站)","station_id":"广州机场南(1号航站楼)(地铁站)_23.38751_113.29649","lineId":"广州地铁22号线 / 广州地铁3号线","lat":23.387508816666667,"lon":113.29649164333334,"area_km2":0.777,"D":0.3587,"C":0.8451,"T":0.1523,"U1":0.2337,"U2":0.0709,"couplingDegree":0.3587,"level":"中度失调","road_density":41.3371,"walk_accessibility":0.1558,"metro_line_density":11.7672,"station_count":2,"line_count":2,"population_density":4236.8273,"poi_density":3.861,"poi_diversity":1.0986,"gdp_density":0.0,"P":4236.8273,"I":3.861,"G":0.0},{"stationName":"广州高增(地铁站)","station_id":"广州高增(地铁站)_23.35773_113.29012","lineId":"广州地铁3号线","lat":23.35773387,"lon":113.29012133,"area_km2":0.9267,"D":0.1981,"C":0.84,"T":0.0467,"U1":0.0214,"U2":0.0721,"couplingDegree":0.1981,"level":"极度失调","road_density":19.0778,"walk_accessibility":0.1858,"metro_line_density":1.2005,"station_count":1,"line_count":1,"population_density":5906.0263,"poi_density":3.2374,"poi_diversity":1.0986,"gdp_density":0.0,"P":5906.0263,"I":3.2374,"G":0.0},{"stationName":"广州人和(地铁站)","station_id":"广州人和(地铁站)_23.33824_113.28921","lineId":"广州地铁22号线 / 广州地铁3号线","lat":23.33823735,"lon":113.289210885,"area_km2":1.6594,"D":0.3059,"C":0.9611,"T":0.0974,"U1":0.1243,"U2":0.0705,"couplingDegree":0.3059,"level":"中度失调","road_density":20.6035,"walk_accessibility":0.3327,"metro_line_density":5.3169,"station_count":1,"line_count":2,"population_density":6661.3253,"poi_density":3.6157,"poi_diversity":1.0114,"gdp_density":0.0,"P":6661.3253,"I":3.6157,"G":0.0},{"stationName":"广州龙归(地铁站)","station_id":"广州龙归(地铁站)_23.29132_113.29545","lineId":"广州地铁3号线","lat":23.291315230000002,"lon":113.29544661,"area_km2":2.0495,"D":0.258,"C":0.9006,"T":0.0739,"U1":0.0418,"U2":0.106,"couplingDegree":0.258,"level":"中度失调","road_density":19.4525,"walk_accessibility":0.4109,"metro_line_density":2.54,"station_count":1,"line_count":1,"population_density":8044.5013,"poi_density":1.9517,"poi_diversity":1.3863,"gdp_density":18397.3992,"P":8044.5013,"I":1.9517,"G":18397.3992},{"stationName":"广州白云大道北(地铁站)","station_id":"广州白云大道北(地铁站)_23.22475_113.29210","lineId":"广州地铁3号线","lat":23.224754485,"lon":113.292103325,"area_km2":2.446,"D":0.4951,"C":0.9958,"T":0.2462,"U1":0.2687,"U2":0.2237,"couplingDegree":0.4951,"level":"勉强协调","road_density":32.1233,"walk_accessibility":0.4904,"metro_line_density":2.3756,"station_count":3,"line_count":2,"population_density":12670.9407,"poi_density":16.3533,"poi_diversity":2.6298,"gdp_density":25774.0172,"P":12670.9407,"I":16.3533,"G":25774.0172},{"stationName":"广州永泰(地铁站)","station_id":"广州永泰(地铁站)_23.22247_113.30084","lineId":"广州地铁3号线","lat":23.22247335,"lon":113.30084268,"area_km2":2.1658,"D":0.402,"C":0.9691,"T":0.1668,"U1":0.1257,"U2":0.2079,"couplingDegree":0.402,"level":"勉强协调","road_density":30.8315,"walk_accessibility":0.4342,"metro_line_density":2.4664,"station_count":2,"line_count":1,"population_density":4920.1431,"poi_density":16.1604,"poi_diversity":2.53,"gdp_density":29108.5382,"P":4920.1431,"I":16.1604,"G":29108.5382},{"stationName":"广州同和(地铁站)","station_id":"广州同和(地铁站)_23.19962_113.32083","lineId":"广州地铁3号线","lat":23.19962259,"lon":113.32083262,"area_km2":1.5674,"D":0.243,"C":0.8919,"T":0.0662,"U1":0.0363,"U2":0.0961,"couplingDegree":0.243,"level":"中度失调","road_density":18.9745,"walk_accessibility":0.3143,"metro_line_density":3.1701,"station_count":1,"line_count":1,"population_density":12763.4179,"poi_density":2.5519,"poi_diversity":1.3863,"gdp_density":0.0,"P":12763.4179,"I":2.5519,"G":0.0},{"stationName":"广州京溪南方医院(地铁站)","station_id":"广州京溪南方医院(地铁站)_23.18779_113.32070","lineId":"广州地铁3号线","lat":23.1877933,"lon":113.32069648,"area_km2":1.5741,"D":0.3876,"C":0.9872,"T":0.1522,"U1":0.1764,"U2":0.1279,"couplingDegree":0.3876,"level":"中度失调","road_density":19.2015,"walk_accessibility":0.3156,"metro_line_density":4.0108,"station_count":2,"line_count":2,"population_density":30558.5676,"poi_density":3.1765,"poi_diversity":1.3322,"gdp_density":0.0,"P":30558.5676,"I":3.1765,"G":0.0},{"stationName":"广州梅花园(地铁站)","station_id":"广州梅花园(地铁站)_23.17768_113.31499","lineId":"广州地铁3号线","lat":23.17767977,"lon":113.31498956,"area_km2":1.475,"D":0.4102,"C":0.9998,"T":0.1683,"U1":0.1716,"U2":0.165,"couplingDegree":0.4102,"level":"勉强协调","road_density":18.9193,"walk_accessibility":0.2957,"metro_line_density":3.1195,"station_count":2,"line_count":2,"population_density":37583.0867,"poi_density":4.7458,"poi_diversity":1.7479,"gdp_density":0.0,"P":37583.0867,"I":4.7458,"G":0.0},{"stationName":"广州燕塘(地铁站)","station_id":"广州燕塘(地铁站)_23.16283_113.32163","lineId":"广州地铁3号线","lat":23.16283329,"lon":113.32162731,"area_km2":1.5528,"D":0.7163,"C":0.999,"T":0.5136,"U1":0.4911,"U2":0.5361,"couplingDegree":0.7163,"level":"良好协调","road_density":28.413,"walk_accessibility":0.3113,"metro_line_density":6.0699,"station_count":3,"line_count":5,"population_density":46521.381,"poi_density":3.22,"poi_diversity":1.3322,"gdp_density":343767.7544,"P":46521.381,"I":3.22,"G":343767.7544},{"stationName":"广州林和西(地铁站)","station_id":"广州林和西(地铁站)_23.14346_113.31823","lineId":"广州地铁3号线 / 广州广州APM线(广州塔--林和西)","lat":23.14346264,"lon":113.31822610500001,"area_km2":2.4249,"D":0.6224,"C":0.8743,"T":0.443,"U1":0.6581,"U2":0.228,"couplingDegree":0.6224,"level":"良好协调","road_density":34.7168,"walk_accessibility":0.4862,"metro_line_density":7.8899,"station_count":4,"line_count":6,"population_density":22720.1309,"poi_density":25.5676,"poi_diversity":2.3573,"gdp_density":0.0,"P":22720.1309,"I":25.5676,"G":0.0},{"stationName":"广州海傍(地铁站)","station_id":"广州海傍(地铁站)_22.94266_113.47033","lineId":"广州地铁3号线 / 广州地铁4号线","lat":22.942664164999997,"lon":113.47033204499999,"area_km2":1.2915,"D":0.1695,"C":0.4071,"T":0.0705,"U1":0.135,"U2":0.0061,"couplingDegree":0.1695,"level":"极度失调","road_density":32.5613,"walk_accessibility":0.2589,"metro_line_density":2.9158,"station_count":1,"line_count":2,"population_density":2093.7696,"poi_density":0.7743,"poi_diversity":0.0,"gdp_density":0.0,"P":2093.7696,"I":0.7743,"G":0.0},{"stationName":"广州海涌路(地铁站)","station_id":"广州海涌路(地铁站)_22.94459_113.45226","lineId":"广州地铁3号线","lat":22.94459027,"lon":113.45225741,"area_km2":0.8856,"D":0.1117,"C":0.6019,"T":0.0207,"U1":0.0373,"U2":0.0042,"couplingDegree":0.1117,"level":"极度失调","road_density":22.452,"walk_accessibility":0.1776,"metro_line_density":4.2764,"station_count":1,"line_count":1,"population_density":2285.5788,"poi_density":0.0,"poi_diversity":0.0,"gdp_density":0.0,"P":2285.5788,"I":0.0,"G":0.0},{"stationName":"广州石碁南(地铁站)","station_id":"广州石碁南(地铁站)_22.94076_113.43420","lineId":"广州地铁3号线","lat":22.94076249,"lon":113.43420182,"area_km2":0.9176,"D":0.141,"C":0.7935,"T":0.0251,"U1":0.0403,"U2":0.0098,"couplingDegree":0.141,"level":"极度失调","road_density":21.6519,"walk_accessibility":0.184,"metro_line_density":5.5776,"station_count":1,"line_count":1,"population_density":5371.4542,"poi_density":0.0,"poi_diversity":0.0,"gdp_density":0.0,"P":5371.4542,"I":0.0,"G":0.0},{"stationName":"广州傍江(地铁站)","station_id":"广州傍江(地铁站)_22.93928_113.40457","lineId":"广州地铁3号线","lat":22.93927978,"lon":113.40456738,"area_km2":1.4073,"D":0.138,"C":0.7619,"T":0.025,"U1":0.0412,"U2":0.0088,"couplingDegree":0.138,"level":"极度失调","road_density":21.9065,"walk_accessibility":0.2822,"metro_line_density":3.6037,"station_count":1,"line_count":1,"population_density":4821.9461,"poi_density":0.0,"poi_diversity":0.0,"gdp_density":0.0,"P":4821.9461,"I":0.0,"G":0.0},{"stationName":"广州番禺广场(地铁站)","station_id":"广州番禺广场(地铁站)_22.93806_113.38013","lineId":"广州地铁3号线","lat":22.93806417,"lon":113.38013013,"area_km2":2.7796,"D":0.3418,"C":0.9345,"T":0.125,"U1":0.0805,"U2":0.1696,"couplingDegree":0.3418,"level":"中度失调","road_density":36.7962,"walk_accessibility":0.5573,"metro_line_density":0.9153,"station_count":1,"line_count":1,"population_density":11959.8958,"poi_density":12.5916,"poi_diversity":2.3474,"gdp_density":0.0,"P":11959.8958,"I":12.5916,"G":0.0},{"stationName":"广州黄村(地铁站)","station_id":"广州黄村(地铁站)_23.13568_113.40116","lineId":"广州地铁21号线 / 广州地铁4号线","lat":23.135682833333334,"lon":113.40116035,"area_km2":1.662,"D":0.1929,"C":0.5085,"T":0.0732,"U1":0.1363,"U2":0.0102,"couplingDegree":0.1929,"level":"极度失调","road_density":30.0651,"walk_accessibility":0.3332,"metro_line_density":3.2626,"station_count":1,"line_count":2,"population_density":5569.0509,"poi_density":0.0,"poi_diversity":0.0,"gdp_density":0.0,"P":5569.0509,"I":0.0,"G":0.0},{"stationName":"广州车陂(地铁站)","station_id":"广州车陂(地铁站)_23.12707_113.39067","lineId":"广州地铁13号线 / 广州地铁4号线","lat":23.127069765,"lon":113.390674455,"area_km2":1.8077,"D":0.4558,"C":0.7886,"T":0.2635,"U1":0.4255,"U2":0.1015,"couplingDegree":0.4558,"level":"勉强协调","road_density":26.6413,"walk_accessibility":0.3624,"metro_line_density":9.5238,"station_count":3,"line_count":4,"population_density":23877.8346,"poi_density":2.7659,"poi_diversity":1.0549,"gdp_density":0.0,"P":23877.8346,"I":2.7659,"G":0.0},{"stationName":"广州车陂南(地铁站)","station_id":"广州车陂南(地铁站)_23.11836_113.38448","lineId":"广州地铁4号线 / 广州地铁5号线","lat":23.118358545,"lon":113.38448477,"area_km2":1.6987,"D":0.4039,"C":0.8681,"T":0.1879,"U1":0.2812,"U2":0.0946,"couplingDegree":0.4039,"level":"勉强协调","road_density":27.8826,"walk_accessibility":0.3406,"metro_line_density":6.9427,"station_count":2,"line_count":3,"population_density":12219.1213,"poi_density":4.1207,"poi_diversity":1.277,"gdp_density":0.0,"P":12219.1213,"I":4.1207,"G":0.0},{"stationName":"广州万胜围(地铁站)","station_id":"广州万胜围(地铁站)_23.10027_113.37904","lineId":"广州地铁4号线","lat":23.10027266,"lon":113.37904334,"area_km2":1.7792,"D":0.3038,"C":0.9069,"T":0.1018,"U1":0.0589,"U2":0.1447,"couplingDegree":0.3038,"level":"中度失调","road_density":27.2035,"walk_accessibility":0.3567,"metro_line_density":4.3025,"station_count":1,"line_count":1,"population_density":13907.6097,"poi_density":6.1824,"poi_diversity":2.1458,"gdp_density":0.0,"P":13907.6097,"I":6.1824,"G":0.0},{"stationName":"广州官洲(地铁站)","station_id":"广州官洲(地铁站)_23.07017_113.37139","lineId":"广州地铁12号线 / 广州地铁4号线","lat":23.070168586666668,"lon":113.37138594999999,"area_km2":1.1347,"D":0.1596,"C":0.3686,"T":0.0691,"U1":0.1334,"U2":0.0049,"couplingDegree":0.1596,"level":"极度失调","road_density":30.9463,"walk_accessibility":0.2275,"metro_line_density":4.0932,"station_count":1,"line_count":2,"population_density":2665.9255,"poi_density":0.0,"poi_diversity":0.0,"gdp_density":0.0,"P":2665.9255,"I":0.0,"G":0.0},{"stationName":"广州大学城北(地铁站)","station_id":"广州大学城北(地铁站)_23.06047_113.38028","lineId":"广州地铁4号线","lat":23.06046717,"lon":113.38027887,"area_km2":2.0403,"D":0.276,"C":0.9455,"T":0.0806,"U1":0.0543,"U2":0.1068,"couplingDegree":0.276,"level":"中度失调","road_density":26.3608,"walk_accessibility":0.4091,"metro_line_density":2.2811,"station_count":1,"line_count":1,"population_density":7883.7335,"poi_density":3.4309,"poi_diversity":1.7479,"gdp_density":0.0,"P":7883.7335,"I":3.4309,"G":0.0},{"stationName":"广州大学城南(地铁站)","station_id":"广州大学城南(地铁站)_23.04594_113.39496","lineId":"广州地铁4号线","lat":23.04593859,"lon":113.39495803,"area_km2":2.5023,"D":0.2707,"C":0.9723,"T":0.0754,"U1":0.093,"U2":0.0578,"couplingDegree":0.2707,"level":"中度失调","road_density":39.8856,"walk_accessibility":0.5017,"metro_line_density":4.0945,"station_count":1,"line_count":1,"population_density":3889.9993,"poi_density":0.7993,"poi_diversity":0.6931,"gdp_density":14210.0467,"P":3889.9993,"I":0.7993,"G":14210.0467},{"stationName":"广州新造(地铁站)","station_id":"广州新造(地铁站)_23.03072_113.41020","lineId":"广州地铁4号线","lat":23.03072258,"lon":113.41020155,"area_km2":1.3472,"D":0.2286,"C":0.9655,"T":0.0541,"U1":0.04,"U2":0.0682,"couplingDegree":0.2286,"level":"中度失调","road_density":24.796,"walk_accessibility":0.2701,"metro_line_density":1.7231,"station_count":1,"line_count":1,"population_density":5417.1761,"poi_density":2.2268,"poi_diversity":1.0986,"gdp_density":0.0,"P":5417.1761,"I":2.2268,"G":0.0},{"stationName":"广州官桥(地铁站)","station_id":"广州官桥(地铁站)_22.98355_113.43903","lineId":"广州地铁4号线","lat":22.98354846,"lon":113.43902686,"area_km2":0.5263,"D":0.083,"C":0.879,"T":0.0078,"U1":0.0116,"U2":0.0041,"couplingDegree":0.083,"level":"极度失调","road_density":18.1212,"walk_accessibility":0.1055,"metro_line_density":0.44,"station_count":1,"line_count":1,"population_density":2245.8428,"poi_density":0.0,"poi_diversity":0.0,"gdp_density":0.0,"P":2245.8428,"I":0.0,"G":0.0},{"stationName":"广州石碁(地铁站)","station_id":"广州石碁(地铁站)_22.95984_113.45981","lineId":"广州地铁4号线","lat":22.95983691,"lon":113.4598146,"area_km2":1.1474,"D":0.1218,"C":0.8939,"T":0.0166,"U1":0.024,"U2":0.0091,"couplingDegree":0.1218,"level":"极度失调","road_density":19.1068,"walk_accessibility":0.2301,"metro_line_density":1.0658,"station_count":1,"line_count":1,"population_density":5009.4811,"poi_density":0.0,"poi_diversity":0.0,"gdp_density":0.0,"P":5009.4811,"I":0.0,"G":0.0},{"stationName":"广州低涌(地铁站)","station_id":"广州低涌(地铁站)_22.92219_113.47947","lineId":"广州地铁4号线","lat":22.92218608,"lon":113.47947099,"area_km2":1.651,"D":0.1156,"C":0.703,"T":0.019,"U1":0.0325,"U2":0.0055,"couplingDegree":0.1156,"level":"极度失调","road_density":16.3961,"walk_accessibility":0.331,"metro_line_density":3.2223,"station_count":1,"line_count":1,"population_density":3004.7846,"poi_density":0.0,"poi_diversity":0.0,"gdp_density":0.0,"P":3004.7846,"I":0.0,"G":0.0},{"stationName":"广州东涌(地铁站)","station_id":"广州东涌(地铁站)_22.88830_113.47359","lineId":"广州地铁4号线","lat":22.88829546,"lon":113.47359215,"area_km2":1.5436,"D":0.1759,"C":0.9977,"T":0.031,"U1":0.0331,"U2":0.0289,"couplingDegree":0.1759,"level":"极度失调","road_density":18.6943,"walk_accessibility":0.3095,"metro_line_density":2.4638,"station_count":1,"line_count":1,"population_density":552.6146,"poi_density":0.6478,"poi_diversity":0.0,"gdp_density":23593.9885,"P":552.6146,"I":0.6478,"G":23593.9885},{"stationName":"广州庆盛(地铁站)","station_id":"广州庆盛(地铁站)_22.86976_113.48513","lineId":"广州地铁4号线","lat":22.86976012,"lon":113.48513261,"area_km2":1.3899,"D":0.0829,"C":0.3218,"T":0.0214,"U1":0.0416,"U2":0.0011,"couplingDegree":0.0829,"level":"极度失调","road_density":24.9697,"walk_accessibility":0.2787,"metro_line_density":1.9319,"station_count":1,"line_count":1,"population_density":622.347,"poi_density":0.0,"poi_diversity":0.0,"gdp_density":0.0,"P":622.347,"I":0.0,"G":0.0},{"stationName":"广州黄阁汽车城(地铁站)","station_id":"广州黄阁汽车城(地铁站)_22.83864_113.50446","lineId":"广州地铁4号线","lat":22.83864251,"lon":113.504464935,"area_km2":0.9799,"D":0.2069,"C":0.9964,"T":0.0429,"U1":0.0393,"U2":0.0466,"couplingDegree":0.2069,"level":"中度失调","road_density":21.3907,"walk_accessibility":0.1965,"metro_line_density":5.1628,"station_count":1,"line_count":1,"population_density":931.7426,"poi_density":0.0,"poi_diversity":0.0,"gdp_density":40703.7805,"P":931.7426,"I":0.0,"G":40703.7805},{"stationName":"广州黄阁(地铁站)","station_id":"广州黄阁(地铁站)_22.82760_113.51355","lineId":"广州地铁4号线","lat":22.82759681,"lon":113.51354647,"area_km2":1.0953,"D":0.0807,"C":0.413,"T":0.0158,"U1":0.0301,"U2":0.0014,"couplingDegree":0.0807,"level":"极度失调","road_density":18.0622,"walk_accessibility":0.2196,"metro_line_density":3.8314,"station_count":1,"line_count":1,"population_density":770.5356,"poi_density":0.0,"poi_diversity":0.0,"gdp_density":0.0,"P":770.5356,"I":0.0,"G":0.0},{"stationName":"广州蕉门(地铁站)","station_id":"广州蕉门(地铁站)_22.80360_113.52231","lineId":"广州地铁4号线","lat":22.80359812,"lon":113.52231004,"area_km2":1.7436,"D":0.2718,"C":0.9368,"T":0.0788,"U1":0.0513,"U2":0.1064,"couplingDegree":0.2718,"level":"中度失调","road_density":26.7032,"walk_accessibility":0.3496,"metro_line_density":2.3743,"station_count":1,"line_count":1,"population_density":1703.9636,"poi_density":4.5883,"poi_diversity":1.9062,"gdp_density":0.0,"P":1703.9636,"I":4.5883,"G":0.0},{"stationName":"广州金洲(地铁站)","station_id":"广州金洲(地铁站)_22.79510_113.53373","lineId":"广州地铁4号线","lat":22.79510434,"lon":113.53373069,"area_km2":1.1106,"D":0.3296,"C":0.9966,"T":0.109,"U1":0.1001,"U2":0.1179,"couplingDegree":0.3296,"level":"中度失调","road_density":22.6158,"walk_accessibility":0.2227,"metro_line_density":4.0132,"station_count":2,"line_count":1,"population_density":2006.2018,"poi_density":11.7058,"poi_diversity":1.6924,"gdp_density":0.0,"P":2006.2018,"I":11.7058,"G":0.0},{"stationName":"广州飞沙角(地铁站)","station_id":"广州飞沙角(地铁站)_22.78479_113.53561","lineId":"广州地铁4号线","lat":22.78478867,"lon":113.53560729,"area_km2":0.8355,"D":0.132,"C":0.224,"T":0.0778,"U1":0.1537,"U2":0.002,"couplingDegree":0.132,"level":"极度失调","road_density":20.6383,"walk_accessibility":0.1675,"metro_line_density":4.3176,"station_count":3,"line_count":1,"population_density":1083.1551,"poi_density":0.0,"poi_diversity":0.0,"gdp_density":0.0,"P":1083.1551,"I":0.0,"G":0.0},{"stationName":"广州广隆(地铁站)","station_id":"广州广隆(地铁站)_22.77508_113.53558","lineId":"广州地铁4号线","lat":22.77508039,"lon":113.5355785,"area_km2":0.8593,"D":0.2548,"C":0.9723,"T":0.0668,"U1":0.0824,"U2":0.0512,"couplingDegree":0.2548,"level":"中度失调","road_density":16.2298,"walk_accessibility":0.1723,"metro_line_density":3.4705,"station_count":2,"line_count":1,"population_density":1936.4231,"poi_density":0.0,"poi_diversity":0.0,"gdp_density":43208.7681,"P":1936.4231,"I":0.0,"G":43208.7681},{"stationName":"广州大涌(地铁站)","station_id":"广州大涌(地铁站)_22.76205_113.55087","lineId":"广州地铁4号线","lat":22.76204976,"lon":113.55086527,"area_km2":1.1204,"D":0.1043,"C":0.5295,"T":0.0205,"U1":0.038,"U2":0.0031,"couplingDegree":0.1043,"level":"极度失调","road_density":20.35,"walk_accessibility":0.2246,"metro_line_density":4.7714,"station_count":1,"line_count":1,"population_density":1705.6903,"poi_density":0.0,"poi_diversity":0.0,"gdp_density":0.0,"P":1705.6903,"I":0.0,"G":0.0},{"stationName":"广州塘坑(地铁站)","station_id":"广州塘坑(地铁站)_22.75610_113.56799","lineId":"广州地铁4号线","lat":22.7560984,"lon":113.56798771,"area_km2":1.1488,"D":0.1016,"C":0.4578,"T":0.0225,"U1":0.0426,"U2":0.0025,"couplingDegree":0.1016,"level":"极度失调","road_density":22.5786,"walk_accessibility":0.2303,"metro_line_density":4.7223,"station_count":1,"line_count":1,"population_density":1368.4283,"poi_density":0.0,"poi_diversity":0.0,"gdp_density":0.0,"P":1368.4283,"I":0.0,"G":0.0},{"stationName":"广州南横(地铁站)","station_id":"广州南横(地铁站)_22.75090_113.58933","lineId":"广州地铁4号线","lat":22.7509002,"lon":113.58932783,"area_km2":1.2323,"D":0.1077,"C":0.588,"T":0.0197,"U1":0.0357,"U2":0.0038,"couplingDegree":0.1077,"level":"极度失调","road_density":19.4206,"walk_accessibility":0.2471,"metro_line_density":4.1564,"station_count":1,"line_count":1,"population_density":2065.2527,"poi_density":0.0,"poi_diversity":0.0,"gdp_density":0.0,"P":2065.2527,"I":0.0,"G":0.0},{"stationName":"广州南沙客运港(地铁站)","station_id":"广州南沙客运港(地铁站)_22.76999_113.60592","lineId":"广州地铁4号线","lat":22.76999321,"lon":113.60591772,"area_km2":1.0573,"D":0.1065,"C":0.6337,"T":0.0179,"U1":0.0317,"U2":0.004,"couplingDegree":0.1065,"level":"极度失调","road_density":21.1861,"walk_accessibility":0.212,"metro_line_density":2.5822,"station_count":1,"line_count":1,"population_density":688.5286,"poi_density":0.9458,"poi_diversity":0.0,"gdp_density":0.0,"P":688.5286,"I":0.9458,"G":0.0},{"stationName":"广州滘口(地铁站)","station_id":"广州滘口(地铁站)_23.11645_113.20309","lineId":"广州地铁5号线","lat":23.11645274,"lon":113.20308939,"area_km2":1.7134,"D":0.1395,"C":0.7254,"T":0.0268,"U1":0.0453,"U2":0.0084,"couplingDegree":0.1395,"level":"极度失调","road_density":26.428,"walk_accessibility":0.3435,"metro_line_density":0.8156,"station_count":1,"line_count":1,"population_density":3637.7054,"poi_density":0.5836,"poi_diversity":0.0,"gdp_density":0.0,"P":3637.7054,"I":0.5836,"G":0.0},{"stationName":"广州坦尾(地铁站)","station_id":"广州坦尾(地铁站)_23.12790_113.21305","lineId":"广州地铁5号线","lat":23.12789781,"lon":113.21304759,"area_km2":1.717,"D":0.2649,"C":0.6573,"T":0.1067,"U1":0.1872,"U2":0.0263,"couplingDegree":0.2649,"level":"中度失调","road_density":21.4505,"walk_accessibility":0.3443,"metro_line_density":5.3897,"station_count":2,"line_count":2,"population_density":14398.8447,"poi_density":0.0,"poi_diversity":0.0,"gdp_density":0.0,"P":14398.8447,"I":0.0,"G":0.0},{"stationName":"广州中山八(地铁站)","station_id":"广州中山八(地铁站)_23.12898_113.22803","lineId":"广州地铁5号线","lat":23.12898299,"lon":113.22802937,"area_km2":2.3473,"D":0.3626,"C":0.853,"T":0.1542,"U1":0.0737,"U2":0.2347,"couplingDegree":0.3626,"level":"中度失调","road_density":27.5243,"walk_accessibility":0.4706,"metro_line_density":6.2985,"station_count":1,"line_count":1,"population_density":21681.3203,"poi_density":22.1534,"poi_diversity":2.7536,"gdp_density":0.0,"P":21681.3203,"I":22.1534,"G":0.0},{"stationName":"广州西场(地铁站)","station_id":"广州西场(地铁站)_23.14006_113.23273","lineId":"广州地铁5号线","lat":23.14005659,"lon":113.23272961,"area_km2":1.9288,"D":0.5899,"C":0.9672,"T":0.3598,"U1":0.4511,"U2":0.2684,"couplingDegree":0.5899,"level":"勉强协调","road_density":36.9045,"walk_accessibility":0.3867,"metro_line_density":10.7366,"station_count":3,"line_count":4,"population_density":37576.0381,"poi_density":5.1847,"poi_diversity":1.6434,"gdp_density":97189.0811,"P":37576.0381,"I":5.1847,"G":97189.0811},{"stationName":"广州西村(地铁站)","station_id":"广州西村(地铁站)_23.14490_113.23680","lineId":"广州地铁5号线","lat":23.14489689,"lon":113.23679991,"area_km2":2.1511,"D":0.5047,"C":0.8634,"T":0.295,"U1":0.4438,"U2":0.1461,"couplingDegree":0.5047,"level":"勉强协调","road_density":36.5179,"walk_accessibility":0.4313,"metro_line_density":7.755,"station_count":3,"line_count":4,"population_density":35481.8037,"poi_density":3.7191,"poi_diversity":1.4942,"gdp_density":0.0,"P":35481.8037,"I":3.7191,"G":0.0},{"stationName":"广州小北(地铁站)","station_id":"广州小北(地铁站)_23.14209_113.27156","lineId":"广州地铁5号线","lat":23.14208615,"lon":113.27156432,"area_km2":2.9351,"D":0.7216,"C":0.9377,"T":0.5553,"U1":0.3624,"U2":0.7482,"couplingDegree":0.7216,"level":"良好协调","road_density":34.1064,"walk_accessibility":0.5885,"metro_line_density":4.4096,"station_count":3,"line_count":3,"population_density":54840.8568,"poi_density":54.1721,"poi_diversity":2.5109,"gdp_density":335672.1885,"P":54840.8568,"I":54.1721,"G":335672.1885},{"stationName":"广州淘金(地铁站)","station_id":"广州淘金(地铁站)_23.13657_113.28004","lineId":"广州地铁12号线 / 广州地铁13号线 / 广州地铁5号线","lat":23.136571503333332,"lon":113.28003749999999,"area_km2":2.487,"D":0.7459,"C":0.9896,"T":0.5622,"U1":0.6431,"U2":0.4814,"couplingDegree":0.7459,"level":"良好协调","road_density":36.378,"walk_accessibility":0.4986,"metro_line_density":7.0552,"station_count":5,"line_count":5,"population_density":59168.7448,"poi_density":83.6347,"poi_diversity":2.6866,"gdp_density":0.0,"P":59168.7448,"I":83.6347,"G":0.0},{"stationName":"广州区庄(地铁站)","station_id":"广州区庄(地铁站)_23.13693_113.29146","lineId":"广州地铁5号线 / 广州地铁6号线","lat":23.136927686666667,"lon":113.29145703666666,"area_km2":2.5778,"D":0.8767,"C":1.0,"T":0.7686,"U1":0.7613,"U2":0.7758,"couplingDegree":0.8767,"level":"优质协调","road_density":33.5019,"walk_accessibility":0.5168,"metro_line_density":7.7277,"station_count":7,"line_count":5,"population_density":34537.3648,"poi_density":51.594,"poi_diversity":2.5364,"gdp_density":400180.8786,"P":34537.3648,"I":51.594,"G":400180.8786},{"stationName":"广州动物园(地铁站)","station_id":"广州动物园(地铁站)_23.13734_113.30190","lineId":"广州地铁5号线","lat":23.137335444999998,"lon":113.3019041,"area_km2":2.4904,"D":0.7826,"C":0.9972,"T":0.6143,"U1":0.568,"U2":0.6605,"couplingDegree":0.7826,"level":"良好协调","road_density":35.5273,"walk_accessibility":0.4993,"metro_line_density":8.0676,"station_count":5,"line_count":4,"population_density":35512.6772,"poi_density":16.0615,"poi_diversity":1.9473,"gdp_density":414222.0799,"P":35512.6772,"I":16.0615,"G":414222.0799},{"stationName":"广州五羊邨(地铁站)","station_id":"广州五羊邨(地铁站)_23.12236_113.30778","lineId":"广州地铁10号线 / 广州地铁5号线","lat":23.122362080000002,"lon":113.307780705,"area_km2":2.8846,"D":0.5685,"C":0.9942,"T":0.3251,"U1":0.3599,"U2":0.2902,"couplingDegree":0.5685,"level":"勉强协调","road_density":34.2476,"walk_accessibility":0.5784,"metro_line_density":3.7592,"station_count":3,"line_count":3,"population_density":16692.8554,"poi_density":44.0271,"poi_diversity":2.7562,"gdp_density":0.0,"P":16692.8554,"I":44.0271,"G":0.0},{"stationName":"广州珠江新城(地铁站)","station_id":"广州珠江新城(地铁站)_23.12197_113.31579","lineId":"广州地铁5号线","lat":23.12196898,"lon":113.31578602,"area_km2":3.1943,"D":0.6483,"C":0.9501,"T":0.4424,"U1":0.5804,"U2":0.3044,"couplingDegree":0.6483,"level":"良好协调","road_density":42.1058,"walk_accessibility":0.6405,"metro_line_density":4.9042,"station_count":5,"line_count":4,"population_density":22423.0936,"poi_density":44.1406,"poi_diversity":2.8279,"gdp_density":0.0,"P":22423.0936,"I":44.1406,"G":0.0},{"stationName":"广州猎德(地铁站)","station_id":"广州猎德(地铁站)_23.12112_113.32667","lineId":"广州地铁5号线","lat":23.12112075,"lon":113.32666753,"area_km2":2.9589,"D":0.5517,"C":0.9434,"T":0.3227,"U1":0.4297,"U2":0.2157,"couplingDegree":0.5517,"level":"勉强协调","road_density":39.1908,"walk_accessibility":0.5932,"metro_line_density":3.3756,"station_count":4,"line_count":3,"population_density":19731.5499,"poi_density":18.9262,"poi_diversity":2.6282,"gdp_density":0.0,"P":19731.5499,"I":18.9262,"G":0.0},{"stationName":"广州潭村(地铁站)","station_id":"广州潭村(地铁站)_23.11992_113.34048","lineId":"广州地铁5号线","lat":23.11992279,"lon":113.3404832,"area_km2":2.1347,"D":0.4313,"C":0.8686,"T":0.2142,"U1":0.3203,"U2":0.1081,"couplingDegree":0.4313,"level":"勉强协调","road_density":28.4047,"walk_accessibility":0.428,"metro_line_density":3.2854,"station_count":4,"line_count":2,"population_density":19940.5446,"poi_density":4.6845,"poi_diversity":1.2275,"gdp_density":0.0,"P":19940.5446,"I":4.6845,"G":0.0},{"stationName":"广州员村(地铁站)","station_id":"广州员村(地铁站)_23.11747_113.35822","lineId":"广州地铁11号线 / 广州地铁5号线","lat":23.117467595,"lon":113.358221265,"area_km2":1.3392,"D":0.4522,"C":0.9702,"T":0.2107,"U1":0.2618,"U2":0.1597,"couplingDegree":0.4522,"level":"勉强协调","road_density":22.8343,"walk_accessibility":0.2685,"metro_line_density":5.5129,"station_count":2,"line_count":3,"population_density":31834.4885,"poi_density":6.7205,"poi_diversity":1.7351,"gdp_density":0.0,"P":31834.4885,"I":6.7205,"G":0.0},{"stationName":"广州科韵路(地铁站)","station_id":"广州科韵路(地铁站)_23.12179_113.37170","lineId":"广州地铁5号线","lat":23.12179091,"lon":113.37170322,"area_km2":2.2691,"D":0.4545,"C":0.9998,"T":0.2066,"U1":0.2026,"U2":0.2106,"couplingDegree":0.4545,"level":"勉强协调","road_density":28.2282,"walk_accessibility":0.455,"metro_line_density":3.7021,"station_count":2,"line_count":2,"population_density":31156.3919,"poi_density":16.3058,"poi_diversity":2.2416,"gdp_density":0.0,"P":31156.3919,"I":16.3058,"G":0.0},{"stationName":"广州东圃(地铁站)","station_id":"广州东圃(地铁站)_23.11189_113.39604","lineId":"广州地铁5号线","lat":23.11189403,"lon":113.39603774,"area_km2":1.4871,"D":0.191,"C":0.9796,"T":0.0372,"U1":0.0447,"U2":0.0298,"couplingDegree":0.191,"level":"极度失调","road_density":23.2117,"walk_accessibility":0.2982,"metro_line_density":3.5691,"station_count":1,"line_count":1,"population_density":15207.7986,"poi_density":0.6724,"poi_diversity":0.0,"gdp_density":0.0,"P":15207.7986,"I":0.6724,"G":0.0},{"stationName":"广州三溪(地铁站)","station_id":"广州三溪(地铁站)_23.10661_113.41027","lineId":"广州地铁5号线","lat":23.10660722,"lon":113.41026741,"area_km2":1.5018,"D":0.3223,"C":0.7567,"T":0.1373,"U1":0.0475,"U2":0.2271,"couplingDegree":0.3223,"level":"中度失调","road_density":24.8085,"walk_accessibility":0.3011,"metro_line_density":3.4066,"station_count":1,"line_count":1,"population_density":11927.253,"poi_density":3.9953,"poi_diversity":1.7918,"gdp_density":98995.1341,"P":11927.253,"I":3.9953,"G":98995.1341},{"stationName":"广州鱼珠(地铁站)","station_id":"广州鱼珠(地铁站)_23.10287_113.42678","lineId":"广州地铁5号线","lat":23.1028697,"lon":113.4267831,"area_km2":1.022,"D":0.2181,"C":0.9531,"T":0.0499,"U1":0.065,"U2":0.0348,"couplingDegree":0.2181,"level":"中度失调","road_density":29.3454,"walk_accessibility":0.2049,"metro_line_density":8.1406,"station_count":1,"line_count":1,"population_density":19062.9043,"poi_density":0.0,"poi_diversity":0.0,"gdp_density":0.0,"P":19062.9043,"I":0.0,"G":0.0},{"stationName":"广州大沙地(地铁站)","station_id":"广州大沙地(地铁站)_23.10577_113.44060","lineId":"广州地铁5号线","lat":23.105774705,"lon":113.44060333499999,"area_km2":1.2617,"D":0.4791,"C":0.9773,"T":0.2348,"U1":0.185,"U2":0.2846,"couplingDegree":0.4791,"level":"勉强协调","road_density":26.1349,"walk_accessibility":0.253,"metro_line_density":3.8009,"station_count":2,"line_count":2,"population_density":6130.5529,"poi_density":13.4737,"poi_diversity":2.2824,"gdp_density":114480.0511,"P":6130.5529,"I":13.4737,"G":114480.0511},{"stationName":"广州大沙东(地铁站)","station_id":"广州大沙东(地铁站)_23.10925_113.45231","lineId":"广州地铁5号线 / 广州地铁7号线","lat":23.109246119999998,"lon":113.45231028666666,"area_km2":1.6581,"D":0.4121,"C":0.9163,"T":0.1854,"U1":0.2596,"U2":0.1111,"couplingDegree":0.4121,"level":"勉强协调","road_density":25.4363,"walk_accessibility":0.3325,"metro_line_density":6.9992,"station_count":3,"line_count":2,"population_density":14304.5618,"poi_density":5.4278,"poi_diversity":1.4648,"gdp_density":0.0,"P":14304.5618,"I":5.4278,"G":0.0},{"stationName":"广州文冲(地铁站)","station_id":"广州文冲(地铁站)_23.10640_113.46359","lineId":"广州地铁5号线","lat":23.10639517,"lon":113.463594,"area_km2":1.6588,"D":0.389,"C":0.9809,"T":0.1542,"U1":0.1843,"U2":0.1242,"couplingDegree":0.389,"level":"中度失调","road_density":24.9713,"walk_accessibility":0.3326,"metro_line_density":2.5707,"station_count":2,"line_count":2,"population_density":7394.4716,"poi_density":6.0284,"poi_diversity":1.973,"gdp_density":0.0,"P":7394.4716,"I":6.0284,"G":0.0},{"stationName":"广州双沙(地铁站)","station_id":"广州双沙(地铁站)_23.10052_113.47888","lineId":"广州地铁5号线","lat":23.100517099999998,"lon":113.478884145,"area_km2":1.1377,"D":0.1334,"C":0.7371,"T":0.0241,"U1":0.0404,"U2":0.0078,"couplingDegree":0.1334,"level":"极度失调","road_density":25.5027,"walk_accessibility":0.2281,"metro_line_density":2.3194,"station_count":1,"line_count":1,"population_density":4283.1731,"poi_density":0.0,"poi_diversity":0.0,"gdp_density":0.0,"P":4283.1731,"I":0.0,"G":0.0},{"stationName":"广州庙头(地铁站)","station_id":"广州庙头(地铁站)_23.08757_113.49729","lineId":"广州地铁5号线","lat":23.087568835,"lon":113.497292225,"area_km2":1.0516,"D":0.1623,"C":0.7804,"T":0.0338,"U1":0.0549,"U2":0.0127,"couplingDegree":0.1623,"level":"极度失调","road_density":28.0733,"walk_accessibility":0.2108,"metro_line_density":5.6274,"station_count":1,"line_count":1,"population_density":6927.7479,"poi_density":0.0,"poi_diversity":0.0,"gdp_density":0.0,"P":6927.7479,"I":0.0,"G":0.0},{"stationName":"广州夏园(地铁站)","station_id":"广州夏园(地铁站)_23.08558_113.51315","lineId":"广州地铁5号线","lat":23.08557598,"lon":113.513151045,"area_km2":1.1127,"D":0.2277,"C":0.6998,"T":0.0741,"U1":0.127,"U2":0.0212,"couplingDegree":0.2277,"level":"中度失调","road_density":27.6353,"walk_accessibility":0.2231,"metro_line_density":9.334,"station_count":2,"line_count":1,"population_density":11587.2241,"poi_density":0.0,"poi_diversity":0.0,"gdp_density":0.0,"P":11587.2241,"I":0.0,"G":0.0},{"stationName":"广州保盈大道(地铁站)","station_id":"广州保盈大道(地铁站)_23.07734_113.52085","lineId":"广州地铁5号线","lat":23.077335384999998,"lon":113.52085210999999,"area_km2":1.1219,"D":0.3339,"C":0.897,"T":0.1243,"U1":0.1793,"U2":0.0694,"couplingDegree":0.3339,"level":"中度失调","road_density":24.1592,"walk_accessibility":0.2249,"metro_line_density":8.9412,"station_count":3,"line_count":1,"population_density":17245.9382,"poi_density":2.6739,"poi_diversity":0.6365,"gdp_density":0.0,"P":17245.9382,"I":2.6739,"G":0.0},{"stationName":"广州夏港(地铁站)","station_id":"广州夏港(地铁站)_23.06625_113.52002","lineId":"广州地铁5号线","lat":23.066252865000003,"lon":113.52002316,"area_km2":2.0123,"D":0.3422,"C":0.9214,"T":0.1271,"U1":0.1765,"U2":0.0777,"couplingDegree":0.3422,"level":"中度失调","road_density":22.4073,"walk_accessibility":0.4035,"metro_line_density":5.3344,"station_count":3,"line_count":1,"population_density":12529.4714,"poi_density":1.9878,"poi_diversity":1.0397,"gdp_density":0.0,"P":12529.4714,"I":1.9878,"G":0.0},{"stationName":"广州黄埔新港(地铁站)","station_id":"广州黄埔新港(地铁站)_23.05509_113.51951","lineId":"广州地铁5号线","lat":23.055087965,"lon":113.51951488,"area_km2":1.5851,"D":0.2138,"C":0.7372,"T":0.062,"U1":0.1039,"U2":0.0201,"couplingDegree":0.2138,"level":"中度失调","road_density":22.5264,"walk_accessibility":0.3178,"metro_line_density":3.2266,"station_count":2,"line_count":1,"population_density":11010.5028,"poi_density":0.0,"poi_diversity":0.0,"gdp_density":0.0,"P":11010.5028,"I":0.0,"G":0.0},{"stationName":"广州香雪(地铁站)","station_id":"广州香雪(地铁站)_23.17505_113.49592","lineId":"广州地铁6号线","lat":23.17504691,"lon":113.49591832,"area_km2":2.1618,"D":0.1515,"C":0.7257,"T":0.0316,"U1":0.0534,"U2":0.0099,"couplingDegree":0.1515,"level":"极度失调","road_density":26.7216,"walk_accessibility":0.4334,"metro_line_density":1.2417,"station_count":1,"line_count":1,"population_density":4654.5537,"poi_density":0.4626,"poi_diversity":0.0,"gdp_density":0.0,"P":4654.5537,"I":0.4626,"G":0.0},{"stationName":"广州萝岗(地铁站)","station_id":"广州萝岗(地铁站)_23.17900_113.47631","lineId":"广州地铁6号线 / 广州地铁7号线","lat":23.17900146,"lon":113.47630703,"area_km2":1.6704,"D":0.3314,"C":0.6675,"T":0.1645,"U1":0.287,"U2":0.042,"couplingDegree":0.3314,"level":"中度失调","road_density":29.3053,"walk_accessibility":0.3349,"metro_line_density":8.0003,"station_count":2,"line_count":3,"population_density":3195.729,"poi_density":1.1974,"poi_diversity":0.6931,"gdp_density":0.0,"P":3195.729,"I":1.1974,"G":0.0},{"stationName":"广州苏元(地铁站)","station_id":"广州苏元(地铁站)_23.17331_113.46279","lineId":"广州地铁21号线 / 广州地铁6号线","lat":23.173307523333335,"lon":113.46279111000001,"area_km2":1.3577,"D":0.4292,"C":0.8397,"T":0.2194,"U1":0.3385,"U2":0.1003,"couplingDegree":0.4292,"level":"勉强协调","road_density":24.6501,"walk_accessibility":0.2722,"metro_line_density":9.4542,"station_count":3,"line_count":3,"population_density":1493.7293,"poi_density":5.1559,"poi_diversity":1.7479,"gdp_density":0.0,"P":1493.7293,"I":5.1559,"G":0.0},{"stationName":"广州暹岗(地铁站)","station_id":"广州暹岗(地铁站)_23.17485_113.45474","lineId":"广州地铁6号线","lat":23.17484542,"lon":113.45473653,"area_km2":1.3389,"D":0.1733,"C":0.1827,"T":0.1644,"U1":0.3261,"U2":0.0028,"couplingDegree":0.1733,"level":"极度失调","road_density":22.4692,"walk_accessibility":0.2684,"metro_line_density":6.9993,"station_count":3,"line_count":3,"population_density":1514.6708,"poi_density":0.0,"poi_diversity":0.0,"gdp_density":0.0,"P":1514.6708,"I":0.0,"G":0.0},{"stationName":"广州金峰(地铁站)","station_id":"广州金峰(地铁站)_23.18384_113.44561","lineId":"广州地铁6号线","lat":23.18384341,"lon":113.44560727,"area_km2":1.0946,"D":0.199,"C":0.9992,"T":0.0396,"U1":0.0412,"U2":0.0381,"couplingDegree":0.199,"level":"极度失调","road_density":22.1426,"walk_accessibility":0.2195,"metro_line_density":4.7931,"station_count":1,"line_count":1,"population_density":0.0,"poi_density":2.7408,"poi_diversity":0.6365,"gdp_density":0.0,"P":0.0,"I":2.7408,"G":0.0},{"stationName":"广州黄陂(地铁站)","station_id":"广州黄陂(地铁站)_23.19087_113.42824","lineId":"广州地铁6号线","lat":23.19087201,"lon":113.4282373,"area_km2":1.656,"D":0.1365,"C":0.5652,"T":0.0329,"U1":0.0601,"U2":0.0058,"couplingDegree":0.1365,"level":"极度失调","road_density":30.5489,"walk_accessibility":0.332,"metro_line_density":3.1672,"station_count":1,"line_count":1,"population_density":2181.7665,"poi_density":0.6039,"poi_diversity":0.0,"gdp_density":0.0,"P":2181.7665,"I":0.6039,"G":0.0},{"stationName":"广州高塘石(地铁站)","station_id":"广州高塘石(地铁站)_23.19353_113.40488","lineId":"广州地铁6号线","lat":23.19352929,"lon":113.40488169,"area_km2":1.1687,"D":0.1638,"C":0.9262,"T":0.029,"U1":0.0399,"U2":0.018,"couplingDegree":0.1638,"level":"极度失调","road_density":21.2509,"walk_accessibility":0.2343,"metro_line_density":4.6193,"station_count":1,"line_count":1,"population_density":8500.2677,"poi_density":0.8557,"poi_diversity":0.0,"gdp_density":0.0,"P":8500.2677,"I":0.8557,"G":0.0},{"stationName":"广州柯木塱(地铁站)","station_id":"广州柯木塱(地铁站)_23.19599_113.39107","lineId":"广州地铁6号线","lat":23.19599176,"lon":113.39107375,"area_km2":1.6587,"D":0.2828,"C":0.784,"T":0.102,"U1":0.0387,"U2":0.1653,"couplingDegree":0.2828,"level":"中度失调","road_density":19.4807,"walk_accessibility":0.3326,"metro_line_density":3.232,"station_count":1,"line_count":1,"population_density":8549.3301,"poi_density":0.6029,"poi_diversity":0.0,"gdp_density":134231.2944,"P":8549.3301,"I":0.6029,"G":134231.2944},{"stationName":"广州龙洞(地铁站)","station_id":"广州龙洞(地铁站)_23.19344_113.37200","lineId":"广州地铁6号线","lat":23.19344377,"lon":113.37200172,"area_km2":1.3213,"D":0.3017,"C":0.9924,"T":0.0917,"U1":0.103,"U2":0.0804,"couplingDegree":0.3017,"level":"中度失调","road_density":22.6674,"walk_accessibility":0.2649,"metro_line_density":3.9858,"station_count":2,"line_count":1,"population_density":12335.1861,"poi_density":3.0272,"poi_diversity":1.0397,"gdp_density":0.0,"P":12335.1861,"I":3.0272,"G":0.0},{"stationName":"广州植物园(地铁站)","station_id":"广州植物园(地铁站)_23.19266_113.36018","lineId":"广州地铁6号线","lat":23.19266205,"lon":113.36018238,"area_km2":1.7714,"D":0.4612,"C":0.7848,"T":0.2711,"U1":0.1031,"U2":0.4391,"couplingDegree":0.4612,"level":"勉强协调","road_density":21.1167,"walk_accessibility":0.3552,"metro_line_density":3.0471,"station_count":2,"line_count":1,"population_density":6657.324,"poi_density":4.5161,"poi_diversity":1.9062,"gdp_density":293798.9463,"P":6657.324,"I":4.5161,"G":293798.9463},{"stationName":"广州长湴(地铁站)","station_id":"广州长湴(地铁站)_23.18090_113.34385","lineId":"广州地铁6号线","lat":23.18089624,"lon":113.34384804,"area_km2":0.933,"D":0.3844,"C":0.9742,"T":0.1516,"U1":0.1859,"U2":0.1174,"couplingDegree":0.3844,"level":"中度失调","road_density":25.2023,"walk_accessibility":0.1871,"metro_line_density":6.0277,"station_count":2,"line_count":2,"population_density":0.0,"poi_density":9.6462,"poi_diversity":1.8892,"gdp_density":0.0,"P":0.0,"I":9.6462,"G":0.0},{"stationName":"广州天河客运站(地铁站)","station_id":"广州天河客运站(地铁站)_23.17354_113.33860","lineId":"广州地铁10号线 / 广州地铁6号线","lat":23.173543746666667,"lon":113.33859633333333,"area_km2":2.0877,"D":0.4397,"C":1.0,"T":0.1934,"U1":0.1917,"U2":0.1951,"couplingDegree":0.4397,"level":"勉强协调","road_density":25.8573,"walk_accessibility":0.4186,"metro_line_density":2.5062,"station_count":2,"line_count":2,"population_density":17032.9039,"poi_density":15.3281,"poi_diversity":2.5217,"gdp_density":0.0,"P":17032.9039,"I":15.3281,"G":0.0},{"stationName":"广州天平架(地铁站)","station_id":"广州天平架(地铁站)_23.16211_113.31593","lineId":"广州地铁6号线","lat":23.16211152,"lon":113.31593439,"area_km2":1.6821,"D":0.7137,"C":0.9956,"T":0.5116,"U1":0.5598,"U2":0.4634,"couplingDegree":0.7137,"level":"良好协调","road_density":30.5818,"walk_accessibility":0.3372,"metro_line_density":6.8561,"station_count":4,"line_count":5,"population_density":42946.7065,"poi_density":1.7835,"poi_diversity":0.6365,"gdp_density":317352.8502,"P":42946.7065,"I":1.7835,"G":317352.8502},{"stationName":"广州沙河(地铁站)","station_id":"广州沙河(地铁站)_23.15477_113.30758","lineId":"广州地铁11号线 / 广州地铁6号线","lat":23.15476822,"lon":113.307578385,"area_km2":1.9952,"D":0.5754,"C":0.8803,"T":0.3761,"U1":0.5545,"U2":0.1977,"couplingDegree":0.5754,"level":"勉强协调","road_density":29.9906,"walk_accessibility":0.4,"metro_line_density":4.2082,"station_count":4,"line_count":5,"population_density":47915.713,"poi_density":5.0121,"poi_diversity":2.0253,"gdp_density":0.0,"P":47915.713,"I":5.0121,"G":0.0},{"stationName":"广州沙河顶(地铁站)","station_id":"广州沙河顶(地铁站)_23.14989_113.30158","lineId":"广州地铁6号线","lat":23.14989453,"lon":113.30157744,"area_km2":1.8581,"D":0.4978,"C":0.9991,"T":0.248,"U1":0.2585,"U2":0.2375,"couplingDegree":0.4978,"level":"勉强协调","road_density":28.2771,"walk_accessibility":0.3726,"metro_line_density":4.0541,"station_count":3,"line_count":2,"population_density":54880.2514,"poi_density":10.2253,"poi_diversity":2.2745,"gdp_density":0.0,"P":54880.2514,"I":10.2253,"G":0.0},{"stationName":"广州黄花岗(地铁站)","station_id":"广州黄花岗(地铁站)_23.14376_113.29453","lineId":"广州地铁6号线","lat":23.14375933,"lon":113.29453143,"area_km2":1.9602,"D":0.6242,"C":0.9582,"T":0.4067,"U1":0.523,"U2":0.2904,"couplingDegree":0.6242,"level":"良好协调","road_density":31.6161,"walk_accessibility":0.393,"metro_line_density":3.7833,"station_count":6,"line_count":3,"population_density":63654.8442,"poi_density":22.9565,"poi_diversity":2.2586,"gdp_density":0.0,"P":63654.8442,"I":22.9565,"G":0.0},{"stationName":"广州东湖(地铁站)","station_id":"广州东湖(地铁站)_23.11791_113.28354","lineId":"广州地铁10号线 / 广州地铁6号线","lat":23.117914120000002,"lon":113.283539805,"area_km2":2.1926,"D":0.6401,"C":0.9838,"T":0.4164,"U1":0.4911,"U2":0.3418,"couplingDegree":0.6401,"level":"良好协调","road_density":32.7071,"walk_accessibility":0.4396,"metro_line_density":5.847,"station_count":4,"line_count":4,"population_density":28042.9334,"poi_density":54.2725,"poi_diversity":2.7691,"gdp_density":0.0,"P":28042.9334,"I":54.2725,"G":0.0},{"stationName":"广州团一大广场(地铁站)","station_id":"广州团一大广场(地铁站)_23.12078_113.27292","lineId":"广州地铁6号线","lat":23.120782005000002,"lon":113.272924895,"area_km2":2.8543,"D":0.6436,"C":0.9625,"T":0.4304,"U1":0.5471,"U2":0.3137,"couplingDegree":0.6436,"level":"良好协调","road_density":31.3703,"walk_accessibility":0.5723,"metro_line_density":2.5188,"station_count":5,"line_count":4,"population_density":22281.413,"poi_density":50.0997,"poi_diversity":2.6573,"gdp_density":0.0,"P":22281.413,"I":50.0997,"G":0.0},{"stationName":"广州北京路(地铁站)","station_id":"广州北京路(地铁站)_23.12144_113.26499","lineId":"广州地铁6号线","lat":23.12143812,"lon":113.26499364,"area_km2":2.9897,"D":0.6503,"C":0.9932,"T":0.4258,"U1":0.4752,"U2":0.3764,"couplingDegree":0.6503,"level":"良好协调","road_density":30.9259,"walk_accessibility":0.5994,"metro_line_density":3.7006,"station_count":5,"line_count":3,"population_density":41784.41,"poi_density":54.8554,"poi_diversity":2.9338,"gdp_density":0.0,"P":41784.41,"I":54.8554,"G":0.0},{"stationName":"广州一德路(地铁站)","station_id":"广州一德路(地铁站)_23.11552_113.25223","lineId":"广州地铁6号线","lat":23.11552276,"lon":113.25223263,"area_km2":2.609,"D":0.5542,"C":0.9893,"T":0.3105,"U1":0.2651,"U2":0.3558,"couplingDegree":0.5542,"level":"勉强协调","road_density":28.9567,"walk_accessibility":0.5231,"metro_line_density":2.5057,"station_count":3,"line_count":2,"population_density":42191.836,"poi_density":44.8446,"poi_diversity":3.1098,"gdp_density":0.0,"P":42191.836,"I":44.8446,"G":0.0},{"stationName":"广州文化公园(地铁站)","station_id":"广州文化公园(地铁站)_23.11167_113.24463","lineId":"广州地铁6号线","lat":23.11166968,"lon":113.24463033,"area_km2":2.988,"D":0.5391,"C":0.9989,"T":0.2909,"U1":0.2775,"U2":0.3042,"couplingDegree":0.5391,"level":"勉强协调","road_density":33.6123,"walk_accessibility":0.5991,"metro_line_density":1.9114,"station_count":3,"line_count":2,"population_density":33381.7412,"poi_density":35.4751,"poi_diversity":2.9429,"gdp_density":0.0,"P":33381.7412,"I":35.4751,"G":0.0},{"stationName":"广州如意坊(地铁站)","station_id":"广州如意坊(地铁站)_23.11784_113.22578","lineId":"广州地铁6号线","lat":23.11784371,"lon":113.22578145,"area_km2":2.0636,"D":0.5109,"C":0.9981,"T":0.2615,"U1":0.2776,"U2":0.2454,"couplingDegree":0.5109,"level":"勉强协调","road_density":30.3313,"walk_accessibility":0.4137,"metro_line_density":7.9047,"station_count":3,"line_count":2,"population_density":13714.869,"poi_density":28.5908,"poi_diversity":2.8876,"gdp_density":0.0,"P":13714.869,"I":28.5908,"G":0.0},{"stationName":"广州河沙(地铁站)","station_id":"广州河沙(地铁站)_23.13823_113.21206","lineId":"广州地铁6号线","lat":23.13823428,"lon":113.21206314,"area_km2":1.291,"D":0.2862,"C":0.7827,"T":0.1046,"U1":0.1697,"U2":0.0395,"couplingDegree":0.2862,"level":"中度失调","road_density":19.8328,"walk_accessibility":0.2588,"metro_line_density":2.75,"station_count":2,"line_count":2,"population_density":21630.8412,"poi_density":0.0,"poi_diversity":0.0,"gdp_density":0.0,"P":21630.8412,"I":0.0,"G":0.0},{"stationName":"广州沙贝(地铁站)","station_id":"广州沙贝(地铁站)_23.15497_113.20595","lineId":"广州地铁6号线","lat":23.15496679,"lon":113.20595089,"area_km2":1.4899,"D":0.2317,"C":0.8035,"T":0.0668,"U1":0.1066,"U2":0.027,"couplingDegree":0.2317,"level":"中度失调","road_density":25.9744,"walk_accessibility":0.2987,"metro_line_density":2.365,"station_count":2,"line_count":1,"population_density":13720.7231,"poi_density":0.6712,"poi_diversity":0.0,"gdp_density":0.0,"P":13720.7231,"I":0.6712,"G":0.0},{"stationName":"广州横沙(地铁站)","station_id":"广州横沙(地铁站)_23.16082_113.20143","lineId":"广州地铁6号线","lat":23.16082413,"lon":113.201434,"area_km2":1.7479,"D":0.2742,"C":0.564,"T":0.1333,"U1":0.2435,"U2":0.0232,"couplingDegree":0.2742,"level":"中度失调","road_density":24.3011,"walk_accessibility":0.3504,"metro_line_density":2.2734,"station_count":3,"line_count":2,"population_density":11795.6205,"poi_density":0.5721,"poi_diversity":0.0,"gdp_density":0.0,"P":11795.6205,"I":0.5721,"G":0.0},{"stationName":"广州浔峰岗(地铁站)","station_id":"广州浔峰岗(地铁站)_23.16768_113.19651","lineId":"广州地铁12号线 / 广州地铁6号线","lat":23.167678090000003,"lon":113.196509975,"area_km2":1.7351,"D":0.194,"C":0.3991,"T":0.0943,"U1":0.1807,"U2":0.0078,"couplingDegree":0.194,"level":"极度失调","road_density":22.3568,"walk_accessibility":0.3479,"metro_line_density":2.727,"station_count":2,"line_count":2,"population_density":3357.2358,"poi_density":0.5763,"poi_diversity":0.0,"gdp_density":0.0,"P":3357.2358,"I":0.5763,"G":0.0},{"stationName":"广州燕山(地铁站)","station_id":"广州燕山(地铁站)_23.19744_113.46958","lineId":"广州地铁7号线","lat":23.19744076,"lon":113.469583755,"area_km2":0.5091,"D":0.4291,"C":0.9958,"T":0.1849,"U1":0.1681,"U2":0.2018,"couplingDegree":0.4291,"level":"勉强协调","road_density":18.8564,"walk_accessibility":0.1021,"metro_line_density":6.1658,"station_count":2,"line_count":2,"population_density":7248.7444,"poi_density":0.0,"poi_diversity":0.0,"gdp_density":171082.1548,"P":7248.7444,"I":0.0,"G":171082.1548},{"stationName":"广州水西(地铁站)","station_id":"广州水西(地铁站)_23.18994_113.47347","lineId":"广州地铁21号线 / 广州地铁7号线","lat":23.1899355225,"lon":113.47346759,"area_km2":1.7091,"D":0.4629,"C":0.9058,"T":0.2366,"U1":0.3369,"U2":0.1363,"couplingDegree":0.4629,"level":"勉强协调","road_density":25.8058,"walk_accessibility":0.3427,"metro_line_density":6.7423,"station_count":3,"line_count":3,"population_density":4368.32,"poi_density":2.3404,"poi_diversity":1.3863,"gdp_density":50955.9317,"P":4368.32,"I":2.3404,"G":50955.9317},{"stationName":"广州科丰路(地铁站)","station_id":"广州科丰路(地铁站)_23.16543_113.46076","lineId":"广州地铁7号线","lat":23.16542662,"lon":113.46076123,"area_km2":1.4252,"D":0.4068,"C":0.7889,"T":0.2097,"U1":0.3386,"U2":0.0808,"couplingDegree":0.4068,"level":"勉强协调","road_density":24.4397,"walk_accessibility":0.2857,"metro_line_density":9.3421,"station_count":3,"line_count":3,"population_density":4242.2178,"poi_density":3.5083,"poi_diversity":1.3322,"gdp_density":0.0,"P":4242.2178,"I":3.5083,"G":0.0},{"stationName":"广州加庄(地铁站)","station_id":"广州加庄(地铁站)_23.15074_113.45480","lineId":"广州地铁7号线","lat":23.15074178,"lon":113.45480176999999,"area_km2":1.1157,"D":0.1229,"C":0.488,"T":0.0309,"U1":0.0579,"U2":0.0039,"couplingDegree":0.1229,"level":"极度失调","road_density":22.5244,"walk_accessibility":0.2237,"metro_line_density":9.7012,"station_count":1,"line_count":1,"population_density":2153.7646,"poi_density":0.0,"poi_diversity":0.0,"gdp_density":0.0,"P":2153.7646,"I":0.0,"G":0.0},{"stationName":"广州姬堂(地铁站)","station_id":"广州姬堂(地铁站)_23.13486_113.45053","lineId":"广州地铁7号线","lat":23.134864775,"lon":113.45052834500001,"area_km2":0.7793,"D":0.1916,"C":0.8572,"T":0.0428,"U1":0.0649,"U2":0.0208,"couplingDegree":0.1916,"level":"极度失调","road_density":24.4171,"walk_accessibility":0.1562,"metro_line_density":12.1546,"station_count":1,"line_count":1,"population_density":11380.1399,"poi_density":0.0,"poi_diversity":0.0,"gdp_density":0.0,"P":11380.1399,"I":0.0,"G":0.0},{"stationName":"广州裕丰围(地铁站)","station_id":"广州裕丰围(地铁站)_23.09742_113.45037","lineId":"广州地铁7号线","lat":23.097418255,"lon":113.45036667,"area_km2":0.7376,"D":0.2723,"C":0.9208,"T":0.0805,"U1":0.0491,"U2":0.1119,"couplingDegree":0.2723,"level":"中度失调","road_density":25.7227,"walk_accessibility":0.1479,"metro_line_density":6.6044,"station_count":1,"line_count":1,"population_density":16776.8429,"poi_density":5.4233,"poi_diversity":1.3863,"gdp_density":0.0,"P":16776.8429,"I":5.4233,"G":0.0},{"stationName":"广州洪圣沙(地铁站)","station_id":"广州洪圣沙(地铁站)_23.08512_113.43830","lineId":"广州地铁7号线","lat":23.08512025,"lon":113.43829864,"area_km2":0.2739,"D":0.0,"C":0.0,"T":0.0041,"U1":0.0081,"U2":0.0,"couplingDegree":0.0,"level":"极度失调","road_density":15.4354,"walk_accessibility":0.0549,"metro_line_density":2.087,"station_count":1,"line_count":1,"population_density":0.0,"poi_density":0.0,"poi_diversity":0.0,"gdp_density":0.0,"P":0.0,"I":0.0,"G":0.0},{"stationName":"广州长洲(地铁站)","station_id":"广州长洲(地铁站)_23.07853_113.42362","lineId":"广州地铁7号线 / 广州地铁8号线","lat":23.0785328375,"lon":113.4236245525,"area_km2":1.3449,"D":0.3182,"C":0.9711,"T":0.1043,"U1":0.1291,"U2":0.0794,"couplingDegree":0.3182,"level":"中度失调","road_density":16.1254,"walk_accessibility":0.2696,"metro_line_density":10.9176,"station_count":1,"line_count":2,"population_density":2918.5305,"poi_density":2.9743,"poi_diversity":1.3863,"gdp_density":0.0,"P":2918.5305,"I":2.9743,"G":0.0},{"stationName":"广州深井(地铁站)","station_id":"广州深井(地铁站)_23.07178_113.40474","lineId":"广州地铁7号线","lat":23.0717796,"lon":113.40473629,"area_km2":1.6054,"D":0.2727,"C":0.9748,"T":0.0763,"U1":0.0593,"U2":0.0933,"couplingDegree":0.2727,"level":"中度失调","road_density":21.9365,"walk_accessibility":0.3219,"metro_line_density":8.3818,"station_count":1,"line_count":1,"population_density":2417.4706,"poi_density":6.229,"poi_diversity":1.4979,"gdp_density":0.0,"P":2417.4706,"I":6.229,"G":0.0},{"stationName":"广州板桥(地铁站)","station_id":"广州板桥(地铁站)_23.01939_113.38262","lineId":"广州地铁7号线","lat":23.019390289999997,"lon":113.382624815,"area_km2":1.9916,"D":0.2117,"C":0.996,"T":0.045,"U1":0.049,"U2":0.041,"couplingDegree":0.2117,"level":"中度失调","road_density":23.7036,"walk_accessibility":0.3993,"metro_line_density":2.442,"station_count":1,"line_count":1,"population_density":1885.9346,"poi_density":0.0,"poi_diversity":0.0,"gdp_density":34044.7348,"P":1885.9346,"I":0.0,"G":34044.7348},{"stationName":"广州员岗(地铁站)","station_id":"广州员岗(地铁站)_23.01853_113.36015","lineId":"广州地铁7号线","lat":23.01853128,"lon":113.36014926,"area_km2":1.5376,"D":0.2407,"C":0.9614,"T":0.0603,"U1":0.0437,"U2":0.0768,"couplingDegree":0.2407,"level":"中度失调","road_density":22.5053,"walk_accessibility":0.3083,"metro_line_density":3.4595,"station_count":1,"line_count":1,"population_density":13110.7318,"poi_density":0.6504,"poi_diversity":0.0,"gdp_density":46256.6441,"P":13110.7318,"I":0.6504,"G":46256.6441},{"stationName":"广州南村万博(地铁站)","station_id":"广州南村万博(地铁站)_23.00739_113.34209","lineId":"广州地铁7号线","lat":23.00739183,"lon":113.34209459,"area_km2":2.0657,"D":0.2692,"C":0.9916,"T":0.0731,"U1":0.0636,"U2":0.0825,"couplingDegree":0.2692,"level":"中度失调","road_density":30.5545,"walk_accessibility":0.4142,"metro_line_density":2.4999,"station_count":1,"line_count":1,"population_density":14072.4264,"poi_density":2.4205,"poi_diversity":1.0549,"gdp_density":0.0,"P":14072.4264,"I":2.4205,"G":0.0},{"stationName":"广州汉溪长隆(地铁站)","station_id":"广州汉溪长隆(地铁站)_22.99660_113.32474","lineId":"广州地铁7号线","lat":22.99660449,"lon":113.32473855,"area_km2":1.8236,"D":0.2519,"C":0.9837,"T":0.0645,"U1":0.0529,"U2":0.0761,"couplingDegree":0.2519,"level":"中度失调","road_density":26.048,"walk_accessibility":0.3656,"metro_line_density":2.9417,"station_count":1,"line_count":1,"population_density":2212.6618,"poi_density":4.3869,"poi_diversity":1.2555,"gdp_density":0.0,"P":2212.6618,"I":4.3869,"G":0.0},{"stationName":"广州钟村(地铁站)","station_id":"广州钟村(地铁站)_22.98939_113.31115","lineId":"广州地铁7号线","lat":22.98939464,"lon":113.31115495,"area_km2":1.5452,"D":0.1389,"C":0.7,"T":0.0276,"U1":0.0472,"U2":0.0079,"couplingDegree":0.1389,"level":"极度失调","road_density":24.3148,"walk_accessibility":0.3098,"metro_line_density":3.4304,"station_count":1,"line_count":1,"population_density":4313.3415,"poi_density":0.0,"poi_diversity":0.0,"gdp_density":0.0,"P":4313.3415,"I":0.0,"G":0.0},{"stationName":"广州谢村(地铁站)","station_id":"广州谢村(地铁站)_22.99328_113.29047","lineId":"广州地铁7号线","lat":22.99328038,"lon":113.29047375,"area_km2":0.9356,"D":0.0816,"C":0.3067,"T":0.0217,"U1":0.0424,"U2":0.001,"couplingDegree":0.0816,"level":"极度失调","road_density":24.7938,"walk_accessibility":0.1876,"metro_line_density":4.2248,"station_count":1,"line_count":1,"population_density":572.8755,"poi_density":0.0,"poi_diversity":0.0,"gdp_density":0.0,"P":572.8755,"I":0.0,"G":0.0},{"stationName":"广州大洲(地铁站)","station_id":"广州大洲(地铁站)_22.98653_113.25198","lineId":"广州地铁7号线","lat":22.98653472,"lon":113.25197895,"area_km2":1.5787,"D":0.1132,"C":0.6722,"T":0.0191,"U1":0.0332,"U2":0.0049,"couplingDegree":0.1132,"level":"极度失调","road_density":18.1268,"walk_accessibility":0.3165,"metro_line_density":2.6739,"station_count":1,"line_count":1,"population_density":1684.897,"poi_density":0.6334,"poi_diversity":0.0,"gdp_density":0.0,"P":1684.897,"I":0.6334,"G":0.0},{"stationName":"广州陈村北(地铁站)","station_id":"广州陈村北(地铁站)_22.97887_113.23993","lineId":"广州地铁7号线","lat":22.97886864,"lon":113.23993109,"area_km2":1.2446,"D":0.0,"C":0.0,"T":0.0524,"U1":0.1048,"U2":0.0,"couplingDegree":0.0,"level":"极度失调","road_density":23.7691,"walk_accessibility":0.2495,"metro_line_density":4.2012,"station_count":2,"line_count":1,"population_density":0.0,"poi_density":0.0,"poi_diversity":0.0,"gdp_density":0.0,"P":0.0,"I":0.0,"G":0.0},{"stationName":"广州陈村(地铁站)","station_id":"广州陈村(地铁站)_22.97074_113.23155","lineId":"广州地铁7号线","lat":22.97073765,"lon":113.23155369,"area_km2":1.9055,"D":0.0,"C":0.0,"T":0.0525,"U1":0.105,"U2":0.0,"couplingDegree":0.0,"level":"极度失调","road_density":21.9673,"walk_accessibility":0.382,"metro_line_density":2.5576,"station_count":2,"line_count":1,"population_density":0.0,"poi_density":0.0,"poi_diversity":0.0,"gdp_density":0.0,"P":0.0,"I":0.0,"G":0.0},{"stationName":"广州锦龙(地铁站)","station_id":"广州锦龙(地铁站)_22.95589_113.23619","lineId":"广州地铁7号线","lat":22.95589185,"lon":113.23618779,"area_km2":2.2822,"D":0.2663,"C":0.9667,"T":0.0734,"U1":0.0546,"U2":0.0921,"couplingDegree":0.2663,"level":"中度失调","road_density":24.8002,"walk_accessibility":0.4576,"metro_line_density":2.2716,"station_count":1,"line_count":1,"population_density":0.0,"poi_density":2.629,"poi_diversity":1.7918,"gdp_density":0.0,"P":0.0,"I":2.629,"G":0.0},{"stationName":"广州南涌(地铁站)","station_id":"广州南涌(地铁站)_22.94208_113.23286","lineId":"广州地铁7号线","lat":22.94207907,"lon":113.23285927,"area_km2":1.7574,"D":0.0,"C":0.0,"T":0.02,"U1":0.04,"U2":0.0,"couplingDegree":0.0,"level":"极度失调","road_density":20.0426,"walk_accessibility":0.3524,"metro_line_density":2.8773,"station_count":1,"line_count":1,"population_density":0.0,"poi_density":0.0,"poi_diversity":0.0,"gdp_density":0.0,"P":0.0,"I":0.0,"G":0.0},{"stationName":"广州美的(地铁站)","station_id":"广州美的(地铁站)_22.93626_113.22155","lineId":"广州地铁7号线","lat":22.93625927,"lon":113.22154868,"area_km2":2.0333,"D":0.0906,"C":0.3427,"T":0.024,"U1":0.0465,"U2":0.0015,"couplingDegree":0.0906,"level":"极度失调","road_density":22.0579,"walk_accessibility":0.4077,"metro_line_density":2.4909,"station_count":1,"line_count":1,"population_density":0.0,"poi_density":0.4918,"poi_diversity":0.0,"gdp_density":0.0,"P":0.0,"I":0.4918,"G":0.0},{"stationName":"广州北滘公园(地铁站)","station_id":"广州北滘公园(地铁站)_22.93279_113.20676","lineId":"广州地铁7号线","lat":22.93278847,"lon":113.20675861,"area_km2":2.2758,"D":0.2391,"C":0.9996,"T":0.0572,"U1":0.0587,"U2":0.0556,"couplingDegree":0.2391,"level":"中度失调","road_density":27.7221,"walk_accessibility":0.4563,"metro_line_density":1.8117,"station_count":1,"line_count":1,"population_density":0.0,"poi_density":1.3182,"poi_diversity":1.0986,"gdp_density":0.0,"P":0.0,"I":1.3182,"G":0.0},{"stationName":"广州美的大道(地铁站)","station_id":"广州美的大道(地铁站)_22.94749_113.20243","lineId":"广州地铁7号线","lat":22.94749396,"lon":113.20242633,"area_km2":1.9315,"D":0.0,"C":0.0,"T":0.0223,"U1":0.0447,"U2":0.0,"couplingDegree":0.0,"level":"极度失调","road_density":23.9753,"walk_accessibility":0.3873,"metro_line_density":1.1803,"station_count":1,"line_count":1,"population_density":0.0,"poi_density":0.0,"poi_diversity":0.0,"gdp_density":0.0,"P":0.0,"I":0.0,"G":0.0},{"stationName":"广州黄埔古港(地铁站)","station_id":"广州黄埔古港(地铁站)_23.09562_113.39558","lineId":"广州地铁8号线","lat":23.09561769,"lon":113.39557877,"area_km2":1.5646,"D":0.3287,"C":0.99,"T":0.1092,"U1":0.1246,"U2":0.0938,"couplingDegree":0.3287,"level":"中度失调","road_density":27.1965,"walk_accessibility":0.3137,"metro_line_density":6.9191,"station_count":2,"line_count":1,"population_density":11177.1764,"poi_density":4.4739,"poi_diversity":1.277,"gdp_density":0.0,"P":11177.1764,"I":4.4739,"G":0.0},{"stationName":"广州新洲(地铁站)","station_id":"广州新洲(地铁站)_23.08999_113.40195","lineId":"广州地铁8号线","lat":23.089994895,"lon":113.40194846,"area_km2":0.9054,"D":0.2419,"C":0.8694,"T":0.0673,"U1":0.1005,"U2":0.034,"couplingDegree":0.2419,"level":"中度失调","road_density":18.6413,"walk_accessibility":0.1815,"metro_line_density":7.4651,"station_count":2,"line_count":1,"population_density":16857.5787,"poi_density":1.1045,"poi_diversity":0.0,"gdp_density":0.0,"P":16857.5787,"I":1.1045,"G":0.0},{"stationName":"广州沙亭(地铁站)","station_id":"广州沙亭(地铁站)_23.06132_113.44742","lineId":"广州地铁8号线","lat":23.06131542,"lon":113.447424195,"area_km2":1.6332,"D":0.1137,"C":0.5,"T":0.0258,"U1":0.0482,"U2":0.0035,"couplingDegree":0.1137,"level":"极度失调","road_density":24.3101,"walk_accessibility":0.3274,"metro_line_density":3.3611,"station_count":1,"line_count":1,"population_density":1895.6933,"poi_density":0.0,"poi_diversity":0.0,"gdp_density":0.0,"P":1895.6933,"I":0.0,"G":0.0},{"stationName":"广州化龙(地铁站)","station_id":"广州化龙(地铁站)_23.04776_113.45330","lineId":"广州地铁8号线","lat":23.04776156,"lon":113.45330123,"area_km2":1.2403,"D":0.2339,"C":0.9369,"T":0.0584,"U1":0.038,"U2":0.0788,"couplingDegree":0.2339,"level":"中度失调","road_density":21.9843,"walk_accessibility":0.2487,"metro_line_density":3.2626,"station_count":1,"line_count":1,"population_density":6603.0868,"poi_density":2.4187,"poi_diversity":0.6365,"gdp_density":26877.5463,"P":6603.0868,"I":2.4187,"G":26877.5463},{"stationName":"广州仙岭(地铁站)","station_id":"广州仙岭(地铁站)_23.02053_113.46426","lineId":"广州地铁8号线","lat":23.02052815,"lon":113.46425789,"area_km2":1.45,"D":0.1504,"C":0.4047,"T":0.0559,"U1":0.1071,"U2":0.0048,"couplingDegree":0.1504,"level":"极度失调","road_density":20.0343,"walk_accessibility":0.2907,"metro_line_density":6.3261,"station_count":2,"line_count":1,"population_density":2619.2351,"poi_density":0.0,"poi_diversity":0.0,"gdp_density":0.0,"P":2619.2351,"I":0.0,"G":0.0},{"stationName":"广州龙泽路(地铁站)","station_id":"广州龙泽路(地铁站)_23.01659_113.47380","lineId":"广州地铁8号线","lat":23.01659175,"lon":113.47379601,"area_km2":1.3458,"D":0.2376,"C":0.8527,"T":0.0662,"U1":0.1008,"U2":0.0316,"couplingDegree":0.2376,"level":"中度失调","road_density":20.0877,"walk_accessibility":0.2698,"metro_line_density":4.7721,"station_count":2,"line_count":1,"population_density":404.2293,"poi_density":0.7431,"poi_diversity":0.0,"gdp_density":26031.1777,"P":404.2293,"I":0.7431,"G":26031.1777},{"stationName":"广州莲花(地铁站)","station_id":"广州莲花(地铁站)_23.00451_113.48924","lineId":"广州地铁8号线","lat":23.00451317,"lon":113.48923708,"area_km2":0.8952,"D":0.0939,"C":0.8552,"T":0.0103,"U1":0.0157,"U2":0.005,"couplingDegree":0.0939,"level":"极度失调","road_density":17.9586,"walk_accessibility":0.1795,"metro_line_density":0.2381,"station_count":1,"line_count":1,"population_density":917.0759,"poi_density":1.117,"poi_diversity":0.0,"gdp_density":0.0,"P":917.0759,"I":1.117,"G":0.0},{"stationName":"广州滘心(地铁站)","station_id":"广州滘心(地铁站)_23.23951_113.21163","lineId":"广州地铁8号线","lat":23.23950912,"lon":113.21163232,"area_km2":0.9853,"D":0.1185,"C":0.9987,"T":0.0141,"U1":0.0148,"U2":0.0133,"couplingDegree":0.1185,"level":"极度失调","road_density":16.4553,"walk_accessibility":0.1975,"metro_line_density":0.4968,"station_count":1,"line_count":1,"population_density":7298.5949,"poi_density":0.0,"poi_diversity":0.0,"gdp_density":0.0,"P":7298.5949,"I":0.0,"G":0.0},{"stationName":"广州凤翔路(地铁站)","station_id":"广州凤翔路(地铁站)_23.25985_113.21007","lineId":"广州地铁8号线","lat":23.25985405,"lon":113.21006705,"area_km2":1.2705,"D":0.2039,"C":0.9432,"T":0.0441,"U1":0.0294,"U2":0.0587,"couplingDegree":0.2039,"level":"中度失调","road_density":17.5847,"walk_accessibility":0.2547,"metro_line_density":3.1567,"station_count":1,"line_count":1,"population_density":5545.7778,"poi_density":0.0,"poi_diversity":0.0,"gdp_density":44083.6603,"P":5545.7778,"I":0.0,"G":44083.6603},{"stationName":"广州江高(地铁站)","station_id":"广州江高(地铁站)_23.27926_113.21803","lineId":"广州地铁8号线","lat":23.2792583,"lon":113.21802804,"area_km2":1.3739,"D":0.1808,"C":0.6234,"T":0.0525,"U1":0.0935,"U2":0.0114,"couplingDegree":0.1808,"level":"极度失调","road_density":18.9569,"walk_accessibility":0.2755,"metro_line_density":3.0644,"station_count":2,"line_count":1,"population_density":6264.7212,"poi_density":0.0,"poi_diversity":0.0,"gdp_density":0.0,"P":6264.7212,"I":0.0,"G":0.0},{"stationName":"广州江村(地铁站)","station_id":"广州江村(地铁站)_23.27757_113.23016","lineId":"广州地铁8号线","lat":23.27757225,"lon":113.23016384,"area_km2":1.2248,"D":0.1972,"C":0.728,"T":0.0534,"U1":0.09,"U2":0.0168,"couplingDegree":0.1972,"level":"极度失调","road_density":18.374,"walk_accessibility":0.2456,"metro_line_density":2.9848,"station_count":2,"line_count":1,"population_density":9195.1814,"poi_density":0.0,"poi_diversity":0.0,"gdp_density":0.0,"P":9195.1814,"I":0.0,"G":0.0},{"stationName":"广州江府(地铁站)","station_id":"广州江府(地铁站)_23.29348_113.23654","lineId":"广州地铁8号线","lat":23.293479155,"lon":113.236537935,"area_km2":0.8547,"D":0.1543,"C":0.7536,"T":0.0316,"U1":0.0524,"U2":0.0108,"couplingDegree":0.1543,"level":"极度失调","road_density":22.4825,"walk_accessibility":0.1714,"metro_line_density":9.1016,"station_count":1,"line_count":1,"population_density":5928.2483,"poi_density":0.0,"poi_diversity":0.0,"gdp_density":0.0,"P":5928.2483,"I":0.0,"G":0.0},{"stationName":"广州水沥(地铁站)","station_id":"广州水沥(地铁站)_23.30733_113.23200","lineId":"广州地铁8号线","lat":23.307325565,"lon":113.231995305,"area_km2":1.1841,"D":0.1321,"C":0.8079,"T":0.0216,"U1":0.0343,"U2":0.0089,"couplingDegree":0.1321,"level":"极度失调","road_density":18.5695,"walk_accessibility":0.2374,"metro_line_density":4.4573,"station_count":1,"line_count":1,"population_density":4857.69,"poi_density":0.0,"poi_diversity":0.0,"gdp_density":0.0,"P":4857.69,"I":0.0,"G":0.0},{"stationName":"广州神山东(地铁站)","station_id":"广州神山东(地铁站)_23.32931_113.22507","lineId":"广州地铁8号线","lat":23.32931214,"lon":113.22506901,"area_km2":1.488,"D":0.1185,"C":0.7288,"T":0.0193,"U1":0.0324,"U2":0.0061,"couplingDegree":0.1185,"level":"极度失调","road_density":16.8386,"walk_accessibility":0.2983,"metro_line_density":3.6265,"station_count":1,"line_count":1,"population_density":3324.62,"poi_density":0.0,"poi_diversity":0.0,"gdp_density":0.0,"P":3324.62,"I":0.0,"G":0.0},{"stationName":"广州东镜(地铁站)","station_id":"广州东镜(地铁站)_23.34440_113.22133","lineId":"广州地铁8号线","lat":23.34439532,"lon":113.22132999,"area_km2":1.6158,"D":0.1342,"C":0.8,"T":0.0225,"U1":0.036,"U2":0.009,"couplingDegree":0.1342,"level":"极度失调","road_density":18.2208,"walk_accessibility":0.324,"metro_line_density":3.3443,"station_count":1,"line_count":1,"population_density":4927.5736,"poi_density":0.0,"poi_diversity":0.0,"gdp_density":0.0,"P":4927.5736,"I":0.0,"G":0.0},{"stationName":"广州雅源(地铁站)","station_id":"广州雅源(地铁站)_23.35619_113.22096","lineId":"广州地铁8号线","lat":23.35619473,"lon":113.22095809999999,"area_km2":1.0528,"D":0.1405,"C":0.7498,"T":0.0263,"U1":0.0438,"U2":0.0089,"couplingDegree":0.1405,"level":"极度失调","road_density":23.1445,"walk_accessibility":0.2111,"metro_line_density":5.1646,"station_count":1,"line_count":1,"population_density":4879.1427,"poi_density":0.0,"poi_diversity":0.0,"gdp_density":0.0,"P":4879.1427,"I":0.0,"G":0.0},{"stationName":"广州雅瑶(地铁站)","station_id":"广州雅瑶(地铁站)_23.36845_113.21601","lineId":"广州地铁8号线","lat":23.36845022,"lon":113.21600679,"area_km2":1.2513,"D":0.1691,"C":0.5132,"T":0.0557,"U1":0.1035,"U2":0.0079,"couplingDegree":0.1691,"level":"极度失调","road_density":23.5918,"walk_accessibility":0.2509,"metro_line_density":3.8889,"station_count":2,"line_count":1,"population_density":4323.5961,"poi_density":0.0,"poi_diversity":0.0,"gdp_density":0.0,"P":4323.5961,"I":0.0,"G":0.0},{"stationName":"广州秀全公园(地铁站)","station_id":"广州秀全公园(地铁站)_23.37439_113.20675","lineId":"广州地铁8号线","lat":23.374394805,"lon":113.20674532000001,"area_km2":1.5718,"D":0.4237,"C":0.9632,"T":0.1863,"U1":0.2364,"U2":0.1363,"couplingDegree":0.4237,"level":"勉强协调","road_density":18.6375,"walk_accessibility":0.3151,"metro_line_density":4.2923,"station_count":3,"line_count":2,"population_density":13765.2046,"poi_density":3.1811,"poi_diversity":1.6094,"gdp_density":23554.049,"P":13765.2046,"I":3.1811,"G":23554.049},{"stationName":"广州广州北站(地铁站)","station_id":"广州广州北站(地铁站)_23.37832_113.19439","lineId":"广州地铁8号线 / 广州地铁9号线","lat":23.378322095,"lon":113.19439353,"area_km2":1.2233,"D":0.1853,"C":0.515,"T":0.0667,"U1":0.1238,"U2":0.0095,"couplingDegree":0.1853,"level":"极度失调","road_density":24.0893,"walk_accessibility":0.2453,"metro_line_density":4.908,"station_count":1,"line_count":2,"population_density":3891.2504,"poi_density":0.8175,"poi_diversity":0.0,"gdp_density":0.0,"P":3891.2504,"I":0.8175,"G":0.0},{"stationName":"广州桃源(地铁站)","station_id":"广州桃源(地铁站)_23.26786_113.24049","lineId":"广州地铁8号线","lat":23.26785531,"lon":113.24049377,"area_km2":1.4783,"D":0.146,"C":0.908,"T":0.0235,"U1":0.0333,"U2":0.0136,"couplingDegree":0.146,"level":"极度失调","road_density":17.6421,"walk_accessibility":0.2964,"metro_line_density":3.4443,"station_count":1,"line_count":1,"population_density":7464.8376,"poi_density":0.0,"poi_diversity":0.0,"gdp_density":0.0,"P":7464.8376,"I":0.0,"G":0.0},{"stationName":"广州均禾(地铁站)","station_id":"广州均禾(地铁站)_23.25669_113.24670","lineId":"广州地铁8号线","lat":23.25669205,"lon":113.24670198,"area_km2":1.6897,"D":0.1978,"C":0.7063,"T":0.0554,"U1":0.0946,"U2":0.0162,"couplingDegree":0.1978,"level":"极度失调","road_density":17.3613,"walk_accessibility":0.3388,"metro_line_density":3.0515,"station_count":2,"line_count":1,"population_density":7905.5993,"poi_density":0.5918,"poi_diversity":0.0,"gdp_density":0.0,"P":7905.5993,"I":0.5918,"G":0.0},{"stationName":"广州白云大朗(地铁站)","station_id":"广州白云大朗(地铁站)_23.24627_113.24806","lineId":"广州地铁8号线","lat":23.24627016,"lon":113.24805858,"area_km2":1.3307,"D":0.194,"C":0.6603,"T":0.057,"U1":0.0998,"U2":0.0142,"couplingDegree":0.194,"level":"极度失调","road_density":21.286,"walk_accessibility":0.2668,"metro_line_density":3.7979,"station_count":2,"line_count":1,"population_density":7770.1795,"poi_density":0.0,"poi_diversity":0.0,"gdp_density":0.0,"P":7770.1795,"I":0.0,"G":0.0},{"stationName":"广州夏茅(地铁站)","station_id":"广州夏茅(地铁站)_23.23053_113.25475","lineId":"广州地铁22号线 / 广州地铁8号线","lat":23.23052991,"lon":113.25474501,"area_km2":1.3285,"D":0.2225,"C":0.6729,"T":0.0735,"U1":0.1279,"U2":0.0191,"couplingDegree":0.2225,"level":"中度失调","road_density":23.1894,"walk_accessibility":0.2664,"metro_line_density":6.2955,"station_count":1,"line_count":2,"population_density":9263.7131,"poi_density":0.7527,"poi_diversity":0.0,"gdp_density":0.0,"P":9263.7131,"I":0.7527,"G":0.0},{"stationName":"广州黄石(地铁站)","station_id":"广州黄石(地铁站)_23.20731_113.24724","lineId":"广州地铁8号线","lat":23.20731226,"lon":113.24724033,"area_km2":1.796,"D":0.393,"C":0.9839,"T":0.157,"U1":0.1851,"U2":0.1289,"couplingDegree":0.393,"level":"中度失调","road_density":23.642,"walk_accessibility":0.3601,"metro_line_density":3.0473,"station_count":2,"line_count":2,"population_density":16318.9613,"poi_density":6.1247,"poi_diversity":1.7202,"gdp_density":0.0,"P":16318.9613,"I":6.1247,"G":0.0},{"stationName":"广州白云(地铁站)","station_id":"广州白云(地铁站)_23.19482_113.24256","lineId":"广州地铁8号线","lat":23.19481849,"lon":113.24256059,"area_km2":1.8673,"D":0.2434,"C":0.9942,"T":0.0596,"U1":0.066,"U2":0.0532,"couplingDegree":0.2434,"level":"中度失调","road_density":27.2266,"walk_accessibility":0.3744,"metro_line_density":6.1321,"station_count":1,"line_count":1,"population_density":9513.5201,"poi_density":1.071,"poi_diversity":0.6931,"gdp_density":0.0,"P":9513.5201,"I":1.071,"G":0.0},{"stationName":"广州棠景(地铁站)","station_id":"广州棠景(地铁站)_23.18200_113.24600","lineId":"广州地铁8号线","lat":23.18200046,"lon":113.24599839,"area_km2":2.0566,"D":0.4686,"C":0.9841,"T":0.2231,"U1":0.2628,"U2":0.1835,"couplingDegree":0.4686,"level":"勉强协调","road_density":26.0549,"walk_accessibility":0.4123,"metro_line_density":5.9275,"station_count":3,"line_count":2,"population_density":26419.9537,"poi_density":10.6971,"poi_diversity":2.2005,"gdp_density":0.0,"P":26419.9537,"I":10.6971,"G":0.0},{"stationName":"广州远景(地铁站)","station_id":"广州远景(地铁站)_23.17592_113.24549","lineId":"广州地铁8号线","lat":23.17592116,"lon":113.24548837,"area_km2":1.6905,"D":0.4759,"C":0.9945,"T":0.2277,"U1":0.2514,"U2":0.2039,"couplingDegree":0.4759,"level":"勉强协调","road_density":25.5241,"walk_accessibility":0.3389,"metro_line_density":4.2623,"station_count":3,"line_count":2,"population_density":32753.5571,"poi_density":14.7885,"poi_diversity":2.1331,"gdp_density":0.0,"P":32753.5571,"I":14.7885,"G":0.0},{"stationName":"广州梓元岗(地铁站)","station_id":"广州梓元岗(地铁站)_23.15614_113.25772","lineId":"广州地铁11号线 / 广州地铁8号线","lat":23.156139345,"lon":113.257724095,"area_km2":1.9503,"D":0.5695,"C":0.8384,"T":0.3869,"U1":0.5978,"U2":0.176,"couplingDegree":0.5695,"level":"勉强协调","road_density":37.4118,"walk_accessibility":0.391,"metro_line_density":8.2585,"station_count":3,"line_count":6,"population_density":31724.2199,"poi_density":8.2038,"poi_diversity":1.9928,"gdp_density":0.0,"P":31724.2199,"I":8.2038,"G":0.0},{"stationName":"广州飞鹅岭(地铁站)","station_id":"广州飞鹅岭(地铁站)_23.38082_113.14966","lineId":"广州地铁9号线","lat":23.380824689999997,"lon":113.14966497500001,"area_km2":1.041,"D":0.1118,"C":0.5934,"T":0.0211,"U1":0.038,"U2":0.0041,"couplingDegree":0.1118,"level":"极度失调","road_density":24.4858,"walk_accessibility":0.2087,"metro_line_density":2.6019,"station_count":1,"line_count":1,"population_density":2249.801,"poi_density":0.0,"poi_diversity":0.0,"gdp_density":0.0,"P":2249.801,"I":0.0,"G":0.0},{"stationName":"广州花都汽车城(地铁站)","station_id":"广州花都汽车城(地铁站)_23.38220_113.17495","lineId":"广州地铁9号线","lat":23.38219618,"lon":113.17495057,"area_km2":2.0537,"D":0.2027,"C":0.9573,"T":0.0429,"U1":0.0554,"U2":0.0305,"couplingDegree":0.2027,"level":"中度失调","road_density":26.2843,"walk_accessibility":0.4118,"metro_line_density":2.5855,"station_count":1,"line_count":1,"population_density":5203.683,"poi_density":0.0,"poi_diversity":0.0,"gdp_density":19072.0557,"P":5203.683,"I":0.0,"G":19072.0557},{"stationName":"广州花城路(地铁站)","station_id":"广州花城路(地铁站)_23.38220_113.20738","lineId":"广州地铁9号线","lat":23.38220136,"lon":113.20737722,"area_km2":2.0121,"D":0.4326,"C":0.9685,"T":0.1932,"U1":0.2413,"U2":0.1451,"couplingDegree":0.4326,"level":"勉强协调","road_density":21.1057,"walk_accessibility":0.4034,"metro_line_density":2.4381,"station_count":3,"line_count":2,"population_density":11862.8097,"poi_density":7.4549,"poi_diversity":2.1535,"gdp_density":0.0,"P":11862.8097,"I":7.4549,"G":0.0},{"stationName":"广州花果山公园(地铁站)","station_id":"广州花果山公园(地铁站)_23.38970_113.21303","lineId":"广州地铁9号线","lat":23.38970364,"lon":113.21303219,"area_km2":1.0947,"D":0.3155,"C":1.0,"T":0.0995,"U1":0.0995,"U2":0.0995,"couplingDegree":0.3155,"level":"中度失调","road_density":24.7008,"walk_accessibility":0.2195,"metro_line_density":2.6357,"station_count":2,"line_count":1,"population_density":5382.51,"poi_density":5.4812,"poi_diversity":1.5607,"gdp_density":0.0,"P":5382.51,"I":5.4812,"G":0.0},{"stationName":"广州花都广场(地铁站)","station_id":"广州花都广场(地铁站)_23.40389_113.21727","lineId":"广州地铁9号线","lat":23.40389238,"lon":113.21727369,"area_km2":2.1942,"D":0.2564,"C":0.9403,"T":0.0699,"U1":0.0461,"U2":0.0937,"couplingDegree":0.2564,"level":"中度失调","road_density":20.8926,"walk_accessibility":0.4399,"metro_line_density":2.3959,"station_count":1,"line_count":1,"population_density":3490.6225,"poi_density":5.0133,"poi_diversity":1.5403,"gdp_density":0.0,"P":3490.6225,"I":5.0133,"G":0.0},{"stationName":"广州马鞍山公园(地铁站)","station_id":"广州马鞍山公园(地铁站)_23.40260_113.23257","lineId":"广州地铁18号线 / 广州地铁9号线","lat":23.402599795,"lon":113.23257107,"area_km2":1.5102,"D":0.2659,"C":0.8677,"T":0.0815,"U1":0.122,"U2":0.041,"couplingDegree":0.2659,"level":"中度失调","road_density":20.5182,"walk_accessibility":0.3028,"metro_line_density":5.2894,"station_count":1,"line_count":2,"population_density":6282.1354,"poi_density":0.6622,"poi_diversity":0.0,"gdp_density":24995.4429,"P":6282.1354,"I":0.6622,"G":24995.4429},{"stationName":"广州莲塘(地铁站)","station_id":"广州莲塘(地铁站)_23.39170_113.23981","lineId":"广州地铁9号线","lat":23.39170301,"lon":113.23980832,"area_km2":1.6525,"D":0.206,"C":0.9995,"T":0.0425,"U1":0.0411,"U2":0.0438,"couplingDegree":0.206,"level":"中度失调","road_density":18.6082,"walk_accessibility":0.3313,"metro_line_density":4.5457,"station_count":1,"line_count":1,"population_density":4155.4073,"poi_density":1.2103,"poi_diversity":0.6931,"gdp_density":0.0,"P":4155.4073,"I":1.2103,"G":0.0},