{"cityCode":"440300","year":2009,"stations":[{"stationName":"深圳机场东(地铁站)","station_id":"深圳机场东(地铁站)_22.65001_113.81745","lineId":"深圳地铁12号线 / 深圳地铁1号线 / 深圳地铁20号线","lat":22.65000622333333,"lon":113.81745417333333,"area_km2":1.8094,"D":0.4903,"C":0.9291,"T":0.2587,"U1":0.3544,"U2":0.1631,"couplingDegree":0.4903,"level":"勉强协调","road_density":23.3038,"walk_accessibility":0.3628,"metro_line_density":6.5442,"station_count":1,"line_count":3,"population_density":1611.5747,"poi_density":0.0,"poi_diversity":0.0,"gdp_density":18689.7158,"P":1611.5747,"I":0.0,"G":18689.7158},{"stationName":"深圳后瑞(地铁站)","station_id":"深圳后瑞(地铁站)_22.63180_113.83045","lineId":"深圳地铁1号线","lat":22.6318011,"lon":113.83045122,"area_km2":2.1041,"D":0.3657,"C":0.9974,"T":0.1341,"U1":0.1438,"U2":0.1243,"couplingDegree":0.3657,"level":"中度失调","road_density":27.7809,"walk_accessibility":0.4219,"metro_line_density":5.241,"station_count":1,"line_count":1,"population_density":2946.1503,"poi_density":0.0,"poi_diversity":0.0,"gdp_density":12625.511,"P":2946.1503,"I":0.0,"G":12625.511},{"stationName":"深圳固戍(地铁站)","station_id":"深圳固戍(地铁站)_22.60435_113.84182","lineId":"深圳地铁1号线","lat":22.60435465,"lon":113.84182451,"area_km2":2.5354,"D":0.3615,"C":0.9886,"T":0.1322,"U1":0.1123,"U2":0.1521,"couplingDegree":0.3615,"level":"中度失调","road_density":26.6834,"walk_accessibility":0.5083,"metro_line_density":2.1077,"station_count":1,"line_count":1,"population_density":1989.8009,"poi_density":0.0,"poi_diversity":0.0,"gdp_density":16970.9024,"P":1989.8009,"I":0.0,"G":16970.9024},{"stationName":"深圳西乡(地铁站)","station_id":"深圳西乡(地铁站)_22.57817_113.85812","lineId":"深圳地铁1号线","lat":22.57817025,"lon":113.85812138,"area_km2":2.6809,"D":0.4245,"C":0.8568,"T":0.2103,"U1":0.3187,"U2":0.1019,"couplingDegree":0.4245,"level":"勉强协调","road_density":28.7036,"walk_accessibility":0.5375,"metro_line_density":3.7063,"station_count":2,"line_count":2,"population_density":3736.0278,"poi_density":0.0,"poi_diversity":0.0,"gdp_density":9088.049,"P":3736.0278,"I":0.0,"G":9088.049},{"stationName":"深圳坪洲(地铁站)","station_id":"深圳坪洲(地铁站)_22.57195_113.86578","lineId":"深圳地铁15号线 / 深圳地铁1号线","lat":22.571946635,"lon":113.865775895,"area_km2":2.9608,"D":0.4592,"C":0.8756,"T":0.2408,"U1":0.3572,"U2":0.1245,"couplingDegree":0.4592,"level":"勉强协调","road_density":30.6237,"walk_accessibility":0.5936,"metro_line_density":4.5866,"station_count":2,"line_count":2,"population_density":10790.4547,"poi_density":0.0,"poi_diversity":0.0,"gdp_density":5210.7208,"P":10790.4547,"I":0.0,"G":5210.7208},{"stationName":"深圳宝体(地铁站)","station_id":"深圳宝体(地铁站)_22.56378_113.87575","lineId":"深圳地铁1号线","lat":22.5637833,"lon":113.87574882,"area_km2":3.1156,"D":0.514,"C":0.947,"T":0.279,"U1":0.3686,"U2":0.1894,"couplingDegree":0.514,"level":"勉强协调","road_density":41.7022,"walk_accessibility":0.6247,"metro_line_density":2.8603,"station_count":2,"line_count":2,"population_density":20097.3817,"poi_density":0.0,"poi_diversity":0.0,"gdp_density":4429.407,"P":20097.3817,"I":0.0,"G":4429.407},{"stationName":"深圳宝安中心(地铁站)","station_id":"深圳宝安中心(地铁站)_22.55762_113.88236","lineId":"深圳地铁1号线 / 深圳地铁5号线","lat":22.55761773,"lon":113.882356145,"area_km2":3.4136,"D":0.4522,"C":0.7504,"T":0.2724,"U1":0.4525,"U2":0.0924,"couplingDegree":0.4522,"level":"勉强协调","road_density":41.0074,"walk_accessibility":0.6844,"metro_line_density":3.6275,"station_count":3,"line_count":2,"population_density":3085.5724,"poi_density":0.0,"poi_diversity":0.0,"gdp_density":8527.7658,"P":3085.5724,"I":0.0,"G":8527.7658},{"stationName":"深圳新安(地铁站)","station_id":"深圳新安(地铁站)_22.55052_113.88975","lineId":"深圳地铁1号线","lat":22.5505208,"lon":113.88975332,"area_km2":3.0257,"D":0.3961,"C":0.6426,"T":0.2441,"U1":0.4312,"U2":0.0571,"couplingDegree":0.3961,"level":"中度失调","road_density":40.2879,"walk_accessibility":0.6066,"metro_line_density":3.9059,"station_count":3,"line_count":2,"population_density":2472.1878,"poi_density":0.0,"poi_diversity":0.0,"gdp_density":4733.4342,"P":2472.1878,"I":0.0,"G":4733.4342},{"stationName":"深圳前海湾(地铁站)","station_id":"深圳前海湾(地铁站)_22.54039_113.89306","lineId":"深圳地铁1号线","lat":22.5403881,"lon":113.89306479999999,"area_km2":2.3465,"D":0.1844,"C":0.2138,"T":0.159,"U1":0.3144,"U2":0.0037,"couplingDegree":0.1844,"level":"极度失调","road_density":43.4533,"walk_accessibility":0.4705,"metro_line_density":5.366,"station_count":3,"line_count":1,"population_density":481.1357,"poi_density":0.0,"poi_diversity":0.0,"gdp_density":0.0,"P":481.1357,"I":0.0,"G":0.0},{"stationName":"深圳鲤鱼门(地铁站)","station_id":"深圳鲤鱼门(地铁站)_22.53506_113.89822","lineId":"深圳地铁1号线","lat":22.53505852,"lon":113.89821563,"area_km2":2.5907,"D":0.2728,"C":0.4585,"T":0.1624,"U1":0.3066,"U2":0.0181,"couplingDegree":0.2728,"level":"中度失调","road_density":40.3698,"walk_accessibility":0.5194,"metro_line_density":4.5708,"station_count":3,"line_count":1,"population_density":2363.8555,"poi_density":0.0,"poi_diversity":0.0,"gdp_density":0.0,"P":2363.8555,"I":0.0,"G":0.0},{"stationName":"深圳大新(地铁站)","station_id":"深圳大新(地铁站)_22.53528_113.91021","lineId":"深圳地铁1号线","lat":22.53528155,"lon":113.91021352,"area_km2":2.7798,"D":0.6241,"C":0.9983,"T":0.3901,"U1":0.3671,"U2":0.4132,"couplingDegree":0.6241,"level":"良好协调","road_density":30.3518,"walk_accessibility":0.5574,"metro_line_density":2.7702,"station_count":3,"line_count":2,"population_density":48596.965,"poi_density":0.0,"poi_diversity":0.0,"gdp_density":5164.5681,"P":48596.965,"I":0.0,"G":5164.5681},{"stationName":"深圳桃园(地铁站)","station_id":"深圳桃园(地铁站)_22.53497_113.91996","lineId":"深圳地铁12号线 / 深圳地铁1号线","lat":22.534973825,"lon":113.91995836000001,"area_km2":2.9509,"D":0.623,"C":0.999,"T":0.3885,"U1":0.3714,"U2":0.4055,"couplingDegree":0.623,"level":"良好协调","road_density":35.1938,"walk_accessibility":0.5916,"metro_line_density":4.6739,"station_count":2,"line_count":2,"population_density":42201.7464,"poi_density":0.0,"poi_diversity":0.0,"gdp_density":10278.6206,"P":42201.7464,"I":0.0,"G":10278.6206},{"stationName":"深圳深大(地铁站)","station_id":"深圳深大(地铁站)_22.54225_113.93968","lineId":"深圳地铁1号线 / 深圳地铁20号线","lat":22.542249435000002,"lon":113.93968090499999,"area_km2":3.0953,"D":0.5223,"C":0.9354,"T":0.2917,"U1":0.3948,"U2":0.1885,"couplingDegree":0.5223,"level":"勉强协调","road_density":38.5053,"walk_accessibility":0.6206,"metro_line_density":4.9497,"station_count":2,"line_count":2,"population_density":13765.8482,"poi_density":0.0,"poi_diversity":0.0,"gdp_density":10322.9872,"P":13765.8482,"I":0.0,"G":10322.9872},{"stationName":"深圳高新园(地铁站)","station_id":"深圳高新园(地铁站)_22.54323_113.94895","lineId":"深圳地铁1号线","lat":22.54323071,"lon":113.94894998,"area_km2":3.0293,"D":0.4639,"C":0.8566,"T":0.2512,"U1":0.3808,"U2":0.1216,"couplingDegree":0.4639,"level":"勉强协调","road_density":40.1298,"walk_accessibility":0.6074,"metro_line_density":4.1185,"station_count":2,"line_count":2,"population_density":4772.7954,"poi_density":0.0,"poi_diversity":0.0,"gdp_density":10550.9302,"P":4772.7954,"I":0.0,"G":10550.9302},{"stationName":"深圳白石洲(地铁站)","station_id":"深圳白石洲(地铁站)_22.54236_113.96268","lineId":"深圳地铁1号线 / 深圳地铁29号线","lat":22.54235794,"lon":113.9626828,"area_km2":2.3067,"D":0.5563,"C":0.9967,"T":0.3104,"U1":0.3356,"U2":0.2853,"couplingDegree":0.5563,"level":"勉强协调","road_density":30.435,"walk_accessibility":0.4625,"metro_line_density":5.6996,"station_count":2,"line_count":2,"population_density":18137.5945,"poi_density":0.0,"poi_diversity":0.0,"gdp_density":18185.4038,"P":18137.5945,"I":0.0,"G":18185.4038},{"stationName":"深圳世界之窗(地铁站)","station_id":"深圳世界之窗(地铁站)_22.53984_113.96928","lineId":"深圳地铁1号线","lat":22.539844119999998,"lon":113.96928457,"area_km2":2.2183,"D":0.539,"C":0.9675,"T":0.3003,"U1":0.3762,"U2":0.2243,"couplingDegree":0.539,"level":"勉强协调","road_density":27.1948,"walk_accessibility":0.4448,"metro_line_density":5.7958,"station_count":3,"line_count":2,"population_density":12252.1882,"poi_density":0.0,"poi_diversity":0.0,"gdp_density":16195.5546,"P":12252.1882,"I":0.0,"G":16195.5546},{"stationName":"深圳华侨城(地铁站)","station_id":"深圳华侨城(地铁站)_22.53640_113.98041","lineId":"深圳地铁1号线","lat":22.53640038,"lon":113.98041078,"area_km2":1.9388,"D":0.4114,"C":0.9876,"T":0.1714,"U1":0.1983,"U2":0.1444,"couplingDegree":0.4114,"level":"勉强协调","road_density":27.7476,"walk_accessibility":0.3887,"metro_line_density":2.8013,"station_count":3,"line_count":1,"population_density":8095.5727,"poi_density":0.0,"poi_diversity":0.0,"gdp_density":10236.0455,"P":8095.5727,"I":0.0,"G":10236.0455},{"stationName":"深圳侨城东(地铁站)","station_id":"深圳侨城东(地铁站)_22.53528_113.99167","lineId":"深圳地铁1号线","lat":22.53528443,"lon":113.991665165,"area_km2":2.6443,"D":0.3673,"C":0.8828,"T":0.1528,"U1":0.2246,"U2":0.081,"couplingDegree":0.3673,"level":"中度失调","road_density":32.6023,"walk_accessibility":0.5302,"metro_line_density":4.0618,"station_count":2,"line_count":1,"population_density":6657.4188,"poi_density":0.0,"poi_diversity":0.0,"gdp_density":3735.5782,"P":6657.4188,"I":0.0,"G":3735.5782},{"stationName":"深圳竹子林(地铁站)","station_id":"深圳竹子林(地铁站)_22.53618_114.00889","lineId":"深圳地铁1号线","lat":22.53618372,"lon":114.00888869,"area_km2":2.636,"D":0.4401,"C":0.9964,"T":0.1944,"U1":0.2108,"U2":0.1779,"couplingDegree":0.4401,"level":"勉强协调","road_density":36.8073,"walk_accessibility":0.5285,"metro_line_density":5.6801,"station_count":1,"line_count":1,"population_density":19612.6277,"poi_density":0.0,"poi_diversity":0.0,"gdp_density":3470.24,"P":19612.6277,"I":0.0,"G":3470.24},{"stationName":"深圳车公庙(地铁站)","station_id":"深圳车公庙(地铁站)_22.53872_114.02221","lineId":"深圳地铁1号线 / 深圳地铁7号线","lat":22.53871917,"lon":114.02220625,"area_km2":2.4824,"D":0.6055,"C":0.9872,"T":0.3714,"U1":0.4307,"U2":0.3121,"couplingDegree":0.6055,"level":"良好协调","road_density":40.5783,"walk_accessibility":0.4977,"metro_line_density":8.8111,"station_count":2,"line_count":2,"population_density":20483.438,"poi_density":0.0,"poi_diversity":0.0,"gdp_density":19285.7848,"P":20483.438,"I":0.0,"G":19285.7848},{"stationName":"深圳香蜜湖(地铁站)","station_id":"深圳香蜜湖(地铁站)_22.54164_114.03355","lineId":"深圳地铁1号线","lat":22.54164462,"lon":114.03355214,"area_km2":1.6897,"D":0.556,"C":0.9914,"T":0.3118,"U1":0.3526,"U2":0.271,"couplingDegree":0.556,"level":"勉强协调","road_density":32.3984,"walk_accessibility":0.3388,"metro_line_density":8.5232,"station_count":2,"line_count":2,"population_density":15526.2043,"poi_density":0.0,"poi_diversity":0.0,"gdp_density":18884.1195,"P":15526.2043,"I":0.0,"G":18884.1195},{"stationName":"深圳购物公园(地铁站)","station_id":"深圳购物公园(地铁站)_22.53683_114.04872","lineId":"深圳地铁1号线 / 深圳地铁3号线","lat":22.536828185,"lon":114.04872448500001,"area_km2":2.9494,"D":0.6665,"C":0.9223,"T":0.4817,"U1":0.6679,"U2":0.2955,"couplingDegree":0.6665,"level":"良好协调","road_density":39.2579,"walk_accessibility":0.5913,"metro_line_density":5.3532,"station_count":3,"line_count":4,"population_density":21547.0083,"poi_density":0.0,"poi_diversity":0.0,"gdp_density":16213.371,"P":21547.0083,"I":0.0,"G":16213.371},{"stationName":"深圳会展中心(地铁站)","station_id":"深圳会展中心(地铁站)_22.53748_114.05598","lineId":"深圳地铁1号线","lat":22.537482,"lon":114.05598438,"area_km2":2.8183,"D":0.7198,"C":0.8923,"T":0.5806,"U1":0.8427,"U2":0.3186,"couplingDegree":0.7198,"level":"良好协调","road_density":39.9326,"walk_accessibility":0.5651,"metro_line_density":6.3594,"station_count":4,"line_count":5,"population_density":23778.6162,"poi_density":0.0,"poi_diversity":0.0,"gdp_density":16958.2494,"P":23778.6162,"I":0.0,"G":16958.2494},{"stationName":"深圳岗厦(地铁站)","station_id":"深圳岗厦(地铁站)_22.53720_114.06300","lineId":"深圳地铁10号线 / 深圳地铁1号线","lat":22.53719936,"lon":114.06300142,"area_km2":3.0179,"D":0.74,"C":0.9062,"T":0.6043,"U1":0.8598,"U2":0.3488,"couplingDegree":0.74,"level":"良好协调","road_density":39.3513,"walk_accessibility":0.6051,"metro_line_density":6.7213,"station_count":4,"line_count":5,"population_density":34488.8457,"poi_density":0.0,"poi_diversity":0.0,"gdp_density":10554.8357,"P":34488.8457,"I":0.0,"G":10554.8357},{"stationName":"深圳华强路(地铁站)","station_id":"深圳华强路(地铁站)_22.54314_114.08000","lineId":"深圳地铁1号线","lat":22.54314425,"lon":114.08000402,"area_km2":3.0295,"D":0.6751,"C":0.9964,"T":0.4574,"U1":0.4188,"U2":0.4959,"couplingDegree":0.6751,"level":"良好协调","road_density":29.8098,"walk_accessibility":0.6074,"metro_line_density":7.9828,"station_count":2,"line_count":2,"population_density":53779.3257,"poi_density":0.0,"poi_diversity":0.0,"gdp_density":10511.736,"P":53779.3257,"I":0.0,"G":10511.736},{"stationName":"深圳科学馆(地铁站)","station_id":"深圳科学馆(地铁站)_22.54281_114.09065","lineId":"深圳地铁1号线 / 深圳地铁6号线","lat":22.542808015,"lon":114.09064715,"area_km2":2.5726,"D":0.6946,"C":0.9798,"T":0.4924,"U1":0.394,"U2":0.5908,"couplingDegree":0.6946,"level":"良好协调","road_density":32.2578,"walk_accessibility":0.5158,"metro_line_density":7.7812,"station_count":2,"line_count":2,"population_density":64221.6042,"poi_density":0.0,"poi_diversity":0.0,"gdp_density":12372.6083,"P":64221.6042,"I":0.0,"G":12372.6083},{"stationName":"深圳大剧院(地铁站)","station_id":"深圳大剧院(地铁站)_22.54405_114.10295","lineId":"深圳地铁1号线 / 深圳地铁2号线 / 深圳地铁5号线","lat":22.54404932,"lon":114.1029459975,"area_km2":2.8679,"D":0.8389,"C":0.9845,"T":0.7148,"U1":0.84,"U2":0.5895,"couplingDegree":0.8389,"level":"优质协调","road_density":37.1631,"walk_accessibility":0.575,"metro_line_density":9.55,"station_count":3,"line_count":5,"population_density":65410.2888,"poi_density":0.0,"poi_diversity":0.0,"gdp_density":11092.3562,"P":65410.2888,"I":0.0,"G":11092.3562},{"stationName":"深圳老街(地铁站)","station_id":"深圳老街(地铁站)_22.54744_114.11095","lineId":"深圳地铁17号线 / 深圳地铁1号线 / 深圳地铁3号线","lat":22.547437164999998,"lon":114.1109457625,"area_km2":3.0672,"D":0.9298,"C":0.999,"T":0.8654,"U1":0.827,"U2":0.9037,"couplingDegree":0.9298,"level":"优质协调","road_density":34.5057,"walk_accessibility":0.615,"metro_line_density":8.5457,"station_count":3,"line_count":5,"population_density":103532.0781,"poi_density":0.0,"poi_diversity":0.0,"gdp_density":13911.1946,"P":103532.0781,"I":0.0,"G":13911.1946},{"stationName":"深圳国贸(地铁站)","station_id":"深圳国贸(地铁站)_22.54236_114.11373","lineId":"深圳地铁1号线","lat":22.54236105,"lon":114.11372756,"area_km2":2.898,"D":0.8299,"C":0.9714,"T":0.7091,"U1":0.8774,"U2":0.5407,"couplingDegree":0.8299,"level":"优质协调","road_density":34.7328,"walk_accessibility":0.581,"metro_line_density":8.9086,"station_count":4,"line_count":5,"population_density":66780.3473,"poi_density":0.0,"poi_diversity":0.0,"gdp_density":3740.5513,"P":66780.3473,"I":0.0,"G":3740.5513},{"stationName":"深圳罗湖(地铁站)","station_id":"深圳罗湖(地铁站)_22.53455_114.11352","lineId":"深圳地铁1号线","lat":22.53455081,"lon":114.11352383,"area_km2":1.9686,"D":0.5119,"C":0.981,"T":0.2671,"U1":0.2153,"U2":0.3189,"couplingDegree":0.5119,"level":"勉强协调","road_density":36.1087,"walk_accessibility":0.3947,"metro_line_density":5.3452,"station_count":2,"line_count":1,"population_density":41705.3197,"poi_density":0.0,"poi_diversity":0.0,"gdp_density":0.0,"P":41705.3197,"I":0.0,"G":0.0},{"stationName":"深圳市民中心(地铁站)","station_id":"深圳市民中心(地铁站)_22.54396_114.05625","lineId":"深圳地铁2号线 / 深圳地铁4号线","lat":22.54396157,"lon":114.05624833499999,"area_km2":2.9712,"D":0.5982,"C":0.6677,"T":0.5361,"U1":0.9351,"U2":0.137,"couplingDegree":0.5982,"level":"勉强协调","road_density":39.3949,"walk_accessibility":0.5957,"metro_line_density":8.0965,"station_count":5,"line_count":5,"population_density":6599.4356,"poi_density":0.0,"poi_diversity":0.0,"gdp_density":10728.2425,"P":6599.4356,"I":0.0,"G":10728.2425},{"stationName":"深圳少年宫(地铁站)","station_id":"深圳少年宫(地铁站)_22.55074_114.05541","lineId":"深圳地铁3号线 / 深圳地铁4号线","lat":22.550741715,"lon":114.05541320500001,"area_km2":2.5826,"D":0.5225,"C":0.8666,"T":0.3151,"U1":0.4723,"U2":0.1579,"couplingDegree":0.5225,"level":"勉强协调","road_density":32.3047,"walk_accessibility":0.5178,"metro_line_density":5.965,"station_count":2,"line_count":3,"population_density":7620.1851,"poi_density":0.0,"poi_diversity":0.0,"gdp_density":12351.5454,"P":7620.1851,"I":0.0,"G":12351.5454},{"stationName":"深圳牛湖(地铁站)","station_id":"深圳牛湖(地铁站)_22.72726_114.08411","lineId":"深圳地铁4号线","lat":22.72725802,"lon":114.08411467,"area_km2":1.56,"D":0.209,"C":0.6628,"T":0.0659,"U1":0.0166,"U2":0.1153,"couplingDegree":0.209,"level":"中度失调","road_density":17.1147,"walk_accessibility":0.3128,"metro_line_density":1.6907,"station_count":1,"line_count":1,"population_density":7711.7817,"poi_density":0.0,"poi_diversity":0.0,"gdp_density":6983.4803,"P":7711.7817,"I":0.0,"G":6983.4803},{"stationName":"深圳观澜湖(地铁站)","station_id":"深圳观澜湖(地铁站)_22.72428_114.07113","lineId":"深圳地铁4号线","lat":22.72427559,"lon":114.07113091,"area_km2":1.2936,"D":0.3747,"C":0.9281,"T":0.1513,"U1":0.2076,"U2":0.095,"couplingDegree":0.3747,"level":"中度失调","road_density":20.3123,"walk_accessibility":0.2594,"metro_line_density":3.6799,"station_count":2,"line_count":2,"population_density":0.0,"poi_density":0.0,"poi_diversity":0.0,"gdp_density":11776.9151,"P":0.0,"I":0.0,"G":11776.9151},{"stationName":"深圳松元厦(地铁站)","station_id":"深圳松元厦(地铁站)_22.72377_114.05923","lineId":"深圳地铁22号线 / 深圳地铁4号线","lat":22.723765653333334,"lon":114.05923284333333,"area_km2":1.3535,"D":0.513,"C":0.9885,"T":0.2662,"U1":0.3064,"U2":0.226,"couplingDegree":0.513,"level":"勉强协调","road_density":20.3143,"walk_accessibility":0.2714,"metro_line_density":6.0172,"station_count":3,"line_count":2,"population_density":5827.9595,"poi_density":0.0,"poi_diversity":0.0,"gdp_density":22498.8008,"P":5827.9595,"I":0.0,"G":22498.8008},{"stationName":"深圳观澜(地铁站)","station_id":"深圳观澜(地铁站)_22.71786_114.04965","lineId":"深圳地铁4号线","lat":22.71786435,"lon":114.04964981,"area_km2":1.3761,"D":0.4251,"C":0.9094,"T":0.1987,"U1":0.2813,"U2":0.116,"couplingDegree":0.4251,"level":"勉强协调","road_density":21.9361,"walk_accessibility":0.2759,"metro_line_density":4.2415,"station_count":3,"line_count":2,"population_density":3513.4954,"poi_density":0.0,"poi_diversity":0.0,"gdp_density":11058.1335,"P":3513.4954,"I":0.0,"G":11058.1335},{"stationName":"深圳长湖(地铁站)","station_id":"深圳长湖(地铁站)_22.71348_114.03969","lineId":"深圳地铁4号线","lat":22.71347934,"lon":114.039689,"area_km2":1.6049,"D":0.3978,"C":0.9654,"T":0.1639,"U1":0.1212,"U2":0.2067,"couplingDegree":0.3978,"level":"中度失调","road_density":23.6311,"walk_accessibility":0.3218,"metro_line_density":3.3393,"station_count":2,"line_count":1,"population_density":10117.7203,"poi_density":0.0,"poi_diversity":0.0,"gdp_density":16035.0554,"P":10117.7203,"I":0.0,"G":16035.0554},{"stationName":"深圳茜坑(地铁站)","station_id":"深圳茜坑(地铁站)_22.69998_114.03599","lineId":"深圳地铁4号线","lat":22.69998229,"lon":114.03598751,"area_km2":1.3555,"D":0.4069,"C":0.972,"T":0.1703,"U1":0.1303,"U2":0.2103,"couplingDegree":0.4069,"level":"勉强协调","road_density":28.1287,"walk_accessibility":0.2718,"metro_line_density":3.9953,"station_count":2,"line_count":1,"population_density":3749.0632,"poi_density":0.0,"poi_diversity":0.0,"gdp_density":22525.2294,"P":3749.0632,"I":0.0,"G":22525.2294},{"stationName":"深圳竹村(地铁站)","station_id":"深圳竹村(地铁站)_22.68946_114.03521","lineId":"深圳地铁4号线","lat":22.68945995,"lon":114.03521228,"area_km2":1.8471,"D":0.3656,"C":1.0,"T":0.1337,"U1":0.1329,"U2":0.1344,"couplingDegree":0.3656,"level":"中度失调","road_density":29.4765,"walk_accessibility":0.3703,"metro_line_density":2.187,"station_count":2,"line_count":1,"population_density":2368.0503,"poi_density":0.0,"poi_diversity":0.0,"gdp_density":14418.5517,"P":2368.0503,"I":0.0,"G":14418.5517},{"stationName":"深圳清湖北(地铁站)","station_id":"深圳清湖北(地铁站)_22.67482_114.03532","lineId":"深圳地铁4号线","lat":22.67482194,"lon":114.03532095,"area_km2":1.4442,"D":0.381,"C":0.9489,"T":0.153,"U1":0.1047,"U2":0.2013,"couplingDegree":0.381,"level":"中度失调","road_density":29.6778,"walk_accessibility":0.2896,"metro_line_density":1.972,"station_count":2,"line_count":1,"population_density":7687.9594,"poi_density":0.0,"poi_diversity":0.0,"gdp_density":17670.4172,"P":7687.9594,"I":0.0,"G":17670.4172},{"stationName":"深圳清湖(地铁站)","station_id":"深圳清湖(地铁站)_22.66683_114.03145","lineId":"深圳地铁4号线","lat":22.66683012,"lon":114.03144992,"area_km2":1.6315,"D":0.408,"C":0.9633,"T":0.1728,"U1":0.1264,"U2":0.2192,"couplingDegree":0.408,"level":"勉强协调","road_density":26.2105,"walk_accessibility":0.3271,"metro_line_density":3.1148,"station_count":2,"line_count":1,"population_density":1403.6568,"poi_density":0.0,"poi_diversity":0.0,"gdp_density":25847.2574,"P":1403.6568,"I":0.0,"G":25847.2574},{"stationName":"深圳龙华(地铁站)","station_id":"深圳龙华(地铁站)_22.65486_114.01800","lineId":"深圳地铁25号线 / 深圳地铁4号线","lat":22.6548649375,"lon":114.01800384500001,"area_km2":2.2203,"D":0.4379,"C":0.9669,"T":0.1983,"U1":0.2489,"U2":0.1478,"couplingDegree":0.4379,"level":"勉强协调","road_density":27.6286,"walk_accessibility":0.4452,"metro_line_density":4.6058,"station_count":1,"line_count":2,"population_density":4720.9142,"poi_density":0.0,"poi_diversity":0.0,"gdp_density":13844.7053,"P":4720.9142,"I":0.0,"G":13844.7053},{"stationName":"深圳龙胜(地铁站)","station_id":"深圳龙胜(地铁站)_22.64756_114.00698","lineId":"深圳地铁4号线","lat":22.64755658,"lon":114.00697831,"area_km2":1.8676,"D":0.416,"C":0.9981,"T":0.1734,"U1":0.184,"U2":0.1628,"couplingDegree":0.416,"level":"勉强协调","road_density":36.3661,"walk_accessibility":0.3744,"metro_line_density":3.8783,"station_count":2,"line_count":1,"population_density":3990.1663,"poi_density":0.0,"poi_diversity":0.0,"gdp_density":16405.3992,"P":3990.1663,"I":0.0,"G":16405.3992},{"stationName":"深圳上塘(地铁站)","station_id":"深圳上塘(地铁站)_22.63987_114.00781","lineId":"深圳地铁4号线","lat":22.63987266,"lon":114.00780504,"area_km2":2.0275,"D":0.4163,"C":0.9934,"T":0.1744,"U1":0.1944,"U2":0.1544,"couplingDegree":0.4163,"level":"勉强协调","road_density":37.1397,"walk_accessibility":0.4065,"metro_line_density":3.7796,"station_count":2,"line_count":1,"population_density":4287.5361,"poi_density":0.0,"poi_diversity":0.0,"gdp_density":15083.5834,"P":4287.5361,"I":0.0,"G":15083.5834},{"stationName":"深圳红山(地铁站)","station_id":"深圳红山(地铁站)_22.62453_114.01841","lineId":"深圳地铁4号线 / 深圳地铁6号线","lat":22.624534505,"lon":114.01840748000001,"area_km2":2.3317,"D":0.3931,"C":0.8422,"T":0.1835,"U1":0.2825,"U2":0.0846,"couplingDegree":0.3931,"level":"中度失调","road_density":41.1422,"walk_accessibility":0.4675,"metro_line_density":3.8896,"station_count":1,"line_count":2,"population_density":155.2516,"poi_density":0.0,"poi_diversity":0.0,"gdp_density":10337.4783,"P":155.2516,"I":0.0,"G":10337.4783},{"stationName":"深圳深圳北站(地铁站)","station_id":"深圳深圳北站(地铁站)_22.61326_114.02550","lineId":"深圳地铁4号线 / 深圳地铁5号线 / 深圳地铁6号线","lat":22.61325544,"lon":114.02550389333332,"area_km2":2.298,"D":0.382,"C":0.634,"T":0.2302,"U1":0.4082,"U2":0.0522,"couplingDegree":0.382,"level":"中度失调","road_density":36.038,"walk_accessibility":0.4607,"metro_line_density":5.7792,"station_count":1,"line_count":3,"population_density":542.645,"poi_density":0.0,"poi_diversity":0.0,"gdp_density":5956.1317,"P":542.645,"I":0.0,"G":5956.1317},{"stationName":"深圳白石龙(地铁站)","station_id":"深圳白石龙(地铁站)_22.60450_114.03695","lineId":"深圳地铁27号线 / 深圳地铁4号线","lat":22.604503125,"lon":114.03694687999999,"area_km2":2.332,"D":0.4954,"C":0.823,"T":0.2981,"U1":0.4675,"U2":0.1288,"couplingDegree":0.4954,"level":"勉强协调","road_density":34.2758,"walk_accessibility":0.4676,"metro_line_density":6.2547,"station_count":2,"line_count":3,"population_density":10664.1632,"poi_density":0.0,"poi_diversity":0.0,"gdp_density":5859.4616,"P":10664.1632,"I":0.0,"G":5859.4616},{"stationName":"深圳民乐(地铁站)","station_id":"深圳民乐(地铁站)_22.59706_114.04402","lineId":"深圳地铁22号线 / 深圳地铁4号线","lat":22.597057956666664,"lon":114.04402448,"area_km2":2.339,"D":0.4482,"C":0.7285,"T":0.2757,"U1":0.4646,"U2":0.0868,"couplingDegree":0.4482,"level":"勉强协调","road_density":39.3544,"walk_accessibility":0.469,"metro_line_density":5.2272,"station_count":2,"line_count":3,"population_density":7332.2014,"poi_density":0.0,"poi_diversity":0.0,"gdp_density":3816.3212,"P":7332.2014,"I":0.0,"G":3816.3212},{"stationName":"深圳上梅林(地铁站)","station_id":"深圳上梅林(地铁站)_22.57216_114.05480","lineId":"深圳地铁4号线 / 深圳地铁9号线","lat":22.57216071,"lon":114.05480460999999,"area_km2":2.56,"D":0.5043,"C":0.9302,"T":0.2734,"U1":0.3738,"U2":0.1731,"couplingDegree":0.5043,"level":"勉强协调","road_density":33.5153,"walk_accessibility":0.5133,"metro_line_density":6.4707,"station_count":2,"line_count":2,"population_density":9476.5303,"poi_density":0.0,"poi_diversity":0.0,"gdp_density":12476.0195,"P":9476.5303,"I":0.0,"G":12476.0195},{"stationName":"深圳莲花北(地铁站)","station_id":"深圳莲花北(地铁站)_22.56325_114.05429","lineId":"深圳地铁4号线","lat":22.56325145,"lon":114.0542851,"area_km2":2.4581,"D":0.5368,"C":0.9838,"T":0.2929,"U1":0.3454,"U2":0.2404,"couplingDegree":0.5368,"level":"勉强协调","road_density":35.1172,"walk_accessibility":0.4929,"metro_line_density":4.9534,"station_count":2,"line_count":2,"population_density":17734.887,"poi_density":0.0,"poi_diversity":0.0,"gdp_density":13000.3456,"P":17734.887,"I":0.0,"G":13000.3456},{"stationName":"深圳福民(地铁站)","station_id":"深圳福民(地铁站)_22.52669_114.06120","lineId":"深圳地铁10号线 / 深圳地铁4号线 / 深圳地铁7号线","lat":22.526694579999997,"lon":114.06120384333333,"area_km2":2.5736,"D":0.6375,"C":0.9188,"T":0.4423,"U1":0.6169,"U2":0.2677,"couplingDegree":0.6375,"level":"良好协调","road_density":34.2155,"walk_accessibility":0.516,"metro_line_density":4.6172,"station_count":3,"line_count":4,"population_density":21981.4349,"poi_density":0.0,"poi_diversity":0.0,"gdp_density":12361.0411,"P":21981.4349,"I":0.0,"G":12361.0411},{"stationName":"深圳福田口岸(地铁站)","station_id":"深圳福田口岸(地铁站)_22.51815_114.06337","lineId":"深圳地铁10号线 / 深圳地铁4号线","lat":22.518145609999998,"lon":114.06336773000001,"area_km2":2.0825,"D":0.516,"C":0.929,"T":0.2867,"U1":0.3928,"U2":0.1806,"couplingDegree":0.516,"level":"勉强协调","road_density":31.4197,"walk_accessibility":0.4175,"metro_line_density":3.3594,"station_count":2,"line_count":3,"population_density":4580.9337,"poi_density":0.0,"poi_diversity":0.0,"gdp_density":18045.2206,"P":4580.9337,"I":0.0,"G":18045.2206}]}