{"cityCode":"110000","year":2003,"stations":[{"stationName":"北京环球度假区(地铁站)","station_id":"北京环球度假区(地铁站)_39.84801_116.67316","lineId":"北京地铁1号线","lat":39.84800964,"lon":116.67315754,"area_km2":2.0677,"D":0.172,"C":0.7277,"T":0.0407,"U1":0.0686,"U2":0.0128,"couplingDegree":0.172,"level":"极度失调","road_density":38.0489,"walk_accessibility":0.4146,"metro_line_density":1.3888,"station_count":1,"line_count":1,"population_density":1429.6179,"poi_density":0.0,"poi_diversity":0.0,"gdp_density":0.0,"P":1429.6179,"I":0.0,"G":0.0},{"stationName":"北京花庄(地铁站)","station_id":"北京花庄(地铁站)_39.85555_116.68951","lineId":"北京地铁1号线","lat":39.85555015,"lon":116.68950889,"area_km2":2.3043,"D":0.0001,"C":0.0,"T":0.0468,"U1":0.0935,"U2":0.0,"couplingDegree":0.0001,"level":"极度失调","road_density":30.8062,"walk_accessibility":0.462,"metro_line_density":4.5734,"station_count":1,"line_count":1,"population_density":156.6624,"poi_density":0.0,"poi_diversity":0.0,"gdp_density":0.0,"P":156.6624,"I":0.0,"G":0.0},{"stationName":"北京土桥(地铁站)","station_id":"北京土桥(地铁站)_39.87077_116.68039","lineId":"北京地铁1号线","lat":39.87076864,"lon":116.68038605,"area_km2":1.7638,"D":0.2317,"C":0.5669,"T":0.0947,"U1":0.1727,"U2":0.0167,"couplingDegree":0.2317,"level":"中度失调","road_density":28.2233,"walk_accessibility":0.3536,"metro_line_density":3.747,"station_count":2,"line_count":1,"population_density":1819.324,"poi_density":0.0,"poi_diversity":0.0,"gdp_density":0.0,"P":1819.324,"I":0.0,"G":0.0},{"stationName":"北京临河里(地铁站)","station_id":"北京临河里(地铁站)_39.87435_116.67287","lineId":"北京地铁1号线","lat":39.87435269,"lon":116.67286862,"area_km2":1.8452,"D":0.5045,"C":0.9971,"T":0.2553,"U1":0.2746,"U2":0.2359,"couplingDegree":0.5045,"level":"勉强协调","road_density":27.1937,"walk_accessibility":0.37,"metro_line_density":3.4878,"station_count":3,"line_count":1,"population_density":870.3471,"poi_density":0.0,"poi_diversity":0.0,"gdp_density":1342.7215,"P":870.3471,"I":0.0,"G":1342.7215},{"stationName":"北京梨园(地铁站)","station_id":"北京梨园(地铁站)_39.88255_116.66280","lineId":"北京地铁1号线","lat":39.88255308,"lon":116.6628048,"area_km2":2.0685,"D":0.4982,"C":0.9939,"T":0.2497,"U1":0.2772,"U2":0.2223,"couplingDegree":0.4982,"level":"勉强协调","road_density":28.2457,"walk_accessibility":0.4147,"metro_line_density":3.0464,"station_count":3,"line_count":1,"population_density":1967.1446,"poi_density":0.0,"poi_diversity":0.0,"gdp_density":1197.8091,"P":1967.1446,"I":0.0,"G":1197.8091},{"stationName":"北京九棵树(地铁站)","station_id":"北京九棵树(地铁站)_39.88917_116.65165","lineId":"北京地铁1号线","lat":39.88917482,"lon":116.6516474,"area_km2":2.5061,"D":0.2116,"C":0.3036,"T":0.1474,"U1":0.2878,"U2":0.007,"couplingDegree":0.2116,"level":"中度失调","road_density":31.6124,"walk_accessibility":0.5025,"metro_line_density":2.5238,"station_count":3,"line_count":1,"population_density":849.9095,"poi_density":0.0,"poi_diversity":0.0,"gdp_density":0.0,"P":849.9095,"I":0.0,"G":0.0},{"stationName":"北京果园(地铁站)","station_id":"北京果园(地铁站)_39.89225_116.64076","lineId":"北京地铁1号线","lat":39.89224577,"lon":116.64076483,"area_km2":2.2972,"D":0.2504,"C":0.6126,"T":0.1024,"U1":0.1833,"U2":0.0215,"couplingDegree":0.2504,"level":"中度失调","road_density":32.396,"walk_accessibility":0.4606,"metro_line_density":2.8587,"station_count":2,"line_count":1,"population_density":2294.5705,"poi_density":0.0,"poi_diversity":0.0,"gdp_density":0.0,"P":2294.5705,"I":0.0,"G":0.0},{"stationName":"北京通州北苑(地铁站)","station_id":"北京通州北苑(地铁站)_39.90279_116.63142","lineId":"北京地铁1号线","lat":39.90279433,"lon":116.631416,"area_km2":1.9621,"D":0.3575,"C":0.7983,"T":0.1601,"U1":0.0637,"U2":0.2566,"couplingDegree":0.3575,"level":"中度失调","road_density":25.6805,"walk_accessibility":0.3934,"metro_line_density":3.2334,"station_count":1,"line_count":1,"population_density":1635.4941,"poi_density":0.0,"poi_diversity":0.0,"gdp_density":1418.8478,"P":1635.4941,"I":0.0,"G":1418.8478},{"stationName":"北京八里桥(地铁站)","station_id":"北京八里桥(地铁站)_39.90507_116.61286","lineId":"北京地铁1号线","lat":39.90507299,"lon":116.61285555,"area_km2":1.9573,"D":0.4994,"C":0.5724,"T":0.4358,"U1":0.0784,"U2":0.7931,"couplingDegree":0.4994,"level":"勉强协调","road_density":20.3,"walk_accessibility":0.3924,"metro_line_density":5.6412,"station_count":1,"line_count":1,"population_density":5092.673,"poi_density":0.0,"poi_diversity":0.0,"gdp_density":4364.1076,"P":5092.673,"I":0.0,"G":4364.1076},{"stationName":"北京管庄(地铁站)","station_id":"北京管庄(地铁站)_39.90803_116.59313","lineId":"北京地铁1号线 / 北京地铁22号线","lat":39.908028335,"lon":116.59312795,"area_km2":2.5021,"D":0.6124,"C":0.8685,"T":0.4319,"U1":0.2178,"U2":0.6459,"couplingDegree":0.6124,"level":"良好协调","road_density":22.7424,"walk_accessibility":0.5017,"metro_line_density":4.6255,"station_count":1,"line_count":2,"population_density":6556.2154,"poi_density":0.0,"poi_diversity":0.0,"gdp_density":3413.9814,"P":6556.2154,"I":0.0,"G":3413.9814},{"stationName":"北京双桥(地铁站)","station_id":"北京双桥(地铁站)_39.90909_116.57096","lineId":"北京地铁1号线","lat":39.9090938,"lon":116.57096023,"area_km2":2.9269,"D":0.4861,"C":0.6122,"T":0.3861,"U1":0.0808,"U2":0.6913,"couplingDegree":0.4861,"level":"勉强协调","road_density":21.4926,"walk_accessibility":0.5868,"metro_line_density":3.4012,"station_count":1,"line_count":1,"population_density":19766.5876,"poi_density":0.0,"poi_diversity":0.0,"gdp_density":2902.2299,"P":19766.5876,"I":0.0,"G":2902.2299},{"stationName":"北京传媒大学(地铁站)","station_id":"北京传媒大学(地铁站)_39.90814_116.54881","lineId":"北京地铁1号线","lat":39.90813539,"lon":116.5488103,"area_km2":2.8283,"D":0.4663,"C":0.5997,"T":0.3626,"U1":0.0725,"U2":0.6528,"couplingDegree":0.4663,"level":"勉强协调","road_density":20.0299,"walk_accessibility":0.5671,"metro_line_density":3.0389,"station_count":1,"line_count":1,"population_density":13989.5075,"poi_density":0.0,"poi_diversity":0.0,"gdp_density":3016.288,"P":13989.5075,"I":0.0,"G":3016.288},{"stationName":"北京高碑店(地铁站)","station_id":"北京高碑店(地铁站)_39.90832_116.52553","lineId":"北京地铁1号线","lat":39.90831553,"lon":116.52552782,"area_km2":2.8891,"D":0.317,"C":0.9538,"T":0.1053,"U1":0.0737,"U2":0.137,"couplingDegree":0.317,"level":"中度失调","road_density":22.0198,"walk_accessibility":0.5793,"metro_line_density":2.6857,"station_count":1,"line_count":1,"population_density":13804.6729,"poi_density":0.0,"poi_diversity":0.0,"gdp_density":0.0,"P":13804.6729,"I":0.0,"G":0.0},{"stationName":"北京四惠东(地铁站)","station_id":"北京四惠东(地铁站)_39.90732_116.50972","lineId":"北京地铁1号线","lat":39.90731937,"lon":116.50971598,"area_km2":2.8478,"D":0.4553,"C":0.6023,"T":0.3441,"U1":0.0694,"U2":0.6188,"couplingDegree":0.4553,"level":"勉强协调","road_density":21.4999,"walk_accessibility":0.571,"metro_line_density":2.4388,"station_count":1,"line_count":1,"population_density":10958.9517,"poi_density":0.0,"poi_diversity":0.0,"gdp_density":2995.7883,"P":10958.9517,"I":0.0,"G":2995.7883},{"stationName":"北京四惠(地铁站)","station_id":"北京四惠(地铁站)_39.90751_116.48943","lineId":"北京地铁1号线","lat":39.90751336,"lon":116.48943115,"area_km2":2.6535,"D":0.4973,"C":0.6004,"T":0.412,"U1":0.0825,"U2":0.7415,"couplingDegree":0.4973,"level":"勉强协调","road_density":32.088,"walk_accessibility":0.532,"metro_line_density":2.4254,"station_count":1,"line_count":1,"population_density":19432.7312,"poi_density":0.0,"poi_diversity":0.0,"gdp_density":3216.1916,"P":19432.7312,"I":0.0,"G":3216.1916},{"stationName":"北京大望路(地铁站)","station_id":"北京大望路(地铁站)_39.90731_116.47022","lineId":"北京地铁14号线 / 北京地铁1号线 / 北京地铁28号线","lat":39.907310545,"lon":116.470221045,"area_km2":3.2643,"D":0.541,"C":0.9564,"T":0.306,"U1":0.3954,"U2":0.2166,"couplingDegree":0.541,"level":"勉强协调","road_density":29.1489,"walk_accessibility":0.6545,"metro_line_density":6.2836,"station_count":1,"line_count":3,"population_density":21734.2303,"poi_density":0.0,"poi_diversity":0.0,"gdp_density":0.0,"P":21734.2303,"I":0.0,"G":0.0},{"stationName":"北京国贸(地铁站)","station_id":"北京国贸(地铁站)_39.90743_116.45463","lineId":"北京地铁10号线 / 北京地铁1号线","lat":39.90743234,"lon":116.454626935,"area_km2":3.5147,"D":0.7205,"C":0.9992,"T":0.5195,"U1":0.4992,"U2":0.5397,"couplingDegree":0.7205,"level":"良好协调","road_density":31.697,"walk_accessibility":0.7047,"metro_line_density":5.2167,"station_count":2,"line_count":3,"population_density":12755.8366,"poi_density":0.0,"poi_diversity":0.0,"gdp_density":2425.5495,"P":12755.8366,"I":0.0,"G":2425.5495},{"stationName":"北京永安里(地铁站)","station_id":"北京永安里(地铁站)_39.90712_116.44414","lineId":"北京地铁17号线 / 北京地铁1号线","lat":39.907116145,"lon":116.4441439,"area_km2":3.4313,"D":0.6972,"C":1.0,"T":0.4861,"U1":0.4868,"U2":0.4854,"couplingDegree":0.6972,"level":"良好协调","road_density":28.5775,"walk_accessibility":0.688,"metro_line_density":4.6829,"station_count":2,"line_count":3,"population_density":6339.2515,"poi_density":0.0,"poi_diversity":0.0,"gdp_density":2484.493,"P":6339.2515,"I":0.0,"G":2484.493},{"stationName":"北京建国门(地铁站)","station_id":"北京建国门(地铁站)_39.90718_116.42900","lineId":"北京地铁1号线 / 北京地铁2号线","lat":39.907178425,"lon":116.42900401,"area_km2":3.6693,"D":0.6519,"C":0.9885,"T":0.4299,"U1":0.365,"U2":0.4948,"couplingDegree":0.6519,"level":"良好协调","road_density":28.7287,"walk_accessibility":0.7357,"metro_line_density":5.195,"station_count":2,"line_count":2,"population_density":9997.7124,"poi_density":0.0,"poi_diversity":0.0,"gdp_density":2324.242,"P":9997.7124,"I":0.0,"G":2324.242},{"stationName":"北京东单(地铁站)","station_id":"北京东单(地铁站)_39.90692_116.41286","lineId":"北京地铁1号线 / 北京地铁5号线","lat":39.906924186666664,"lon":116.41286102333333,"area_km2":3.6488,"D":0.5502,"C":0.6364,"T":0.4756,"U1":0.8425,"U2":0.1087,"couplingDegree":0.5502,"level":"勉强协调","road_density":24.066,"walk_accessibility":0.7316,"metro_line_density":6.3931,"station_count":4,"line_count":4,"population_density":10989.1485,"poi_density":0.0,"poi_diversity":0.0,"gdp_density":0.0,"P":10989.1485,"I":0.0,"G":0.0},{"stationName":"北京王府井(地铁站)","station_id":"北京王府井(地铁站)_39.90733_116.40522","lineId":"北京地铁1号线 / 北京地铁8号线","lat":39.907334565,"lon":116.405216115,"area_km2":3.821,"D":0.573,"C":0.6806,"T":0.4824,"U1":0.8359,"U2":0.129,"couplingDegree":0.573,"level":"勉强协调","road_density":22.8988,"walk_accessibility":0.7661,"metro_line_density":5.5191,"station_count":4,"line_count":4,"population_density":13005.0625,"poi_density":0.0,"poi_diversity":0.0,"gdp_density":0.0,"P":13005.0625,"I":0.0,"G":0.0},{"stationName":"北京天安门东(地铁站)","station_id":"北京天安门东(地铁站)_39.90638_116.39497","lineId":"北京地铁1号线","lat":39.90637578,"lon":116.39497219,"area_km2":3.7633,"D":0.7564,"C":0.9827,"T":0.5822,"U1":0.6899,"U2":0.4744,"couplingDegree":0.7564,"level":"良好协调","road_density":27.7532,"walk_accessibility":0.7545,"metro_line_density":3.4932,"station_count":4,"line_count":3,"population_density":8989.0763,"poi_density":0.0,"poi_diversity":0.0,"gdp_density":2264.2296,"P":8989.0763,"I":0.0,"G":2264.2296},{"stationName":"北京天安门西(地铁站)","station_id":"北京天安门西(地铁站)_39.90607_116.38504","lineId":"北京地铁1号线","lat":39.90607009,"lon":116.38503632,"area_km2":3.6935,"D":0.7553,"C":0.9838,"T":0.5799,"U1":0.6839,"U2":0.4759,"couplingDegree":0.7553,"level":"良好协调","road_density":27.7263,"walk_accessibility":0.7405,"metro_line_density":3.0536,"station_count":4,"line_count":3,"population_density":8412.5919,"poi_density":0.0,"poi_diversity":0.0,"gdp_density":2307.0403,"P":8412.5919,"I":0.0,"G":2307.0403},{"stationName":"北京西单(地铁站)","station_id":"北京西单(地铁站)_39.90590_116.36902","lineId":"北京地铁1号线 / 北京地铁4号线","lat":39.905897895,"lon":116.36902326,"area_km2":3.9957,"D":0.7367,"C":0.9941,"T":0.546,"U1":0.6054,"U2":0.4866,"couplingDegree":0.7367,"level":"良好协调","road_density":30.6563,"walk_accessibility":0.8011,"metro_line_density":4.4522,"station_count":3,"line_count":3,"population_density":12440.8598,"poi_density":0.0,"poi_diversity":0.0,"gdp_density":2132.3149,"P":12440.8598,"I":0.0,"G":2132.3149},{"stationName":"北京复兴门(地铁站)","station_id":"北京复兴门(地铁站)_39.90584_116.35113","lineId":"北京地铁1号线 / 北京地铁2号线","lat":39.905843565,"lon":116.351132115,"area_km2":3.6028,"D":0.5585,"C":0.9139,"T":0.3413,"U1":0.4798,"U2":0.2027,"couplingDegree":0.5585,"level":"勉强协调","road_density":27.0003,"walk_accessibility":0.7223,"metro_line_density":6.7051,"station_count":3,"line_count":2,"population_density":20351.322,"poi_density":0.0,"poi_diversity":0.0,"gdp_density":0.0,"P":20351.322,"I":0.0,"G":0.0},{"stationName":"北京南礼士路(地铁站)","station_id":"北京南礼士路(地铁站)_39.90588_116.34640","lineId":"北京地铁1号线","lat":39.90587754,"lon":116.34639530000001,"area_km2":3.4212,"D":0.5063,"C":0.9494,"T":0.27,"U1":0.3549,"U2":0.1852,"couplingDegree":0.5063,"level":"勉强协调","road_density":25.1947,"walk_accessibility":0.6859,"metro_line_density":5.3555,"station_count":2,"line_count":2,"population_density":18608.2356,"poi_density":0.0,"poi_diversity":0.0,"gdp_density":0.0,"P":18608.2356,"I":0.0,"G":0.0},{"stationName":"北京木樨地(地铁站)","station_id":"北京木樨地(地铁站)_39.90703_116.32963","lineId":"北京地铁16号线 / 北京地铁1号线","lat":39.90703202,"lon":116.32962928500001,"area_km2":2.8043,"D":0.7663,"C":0.9695,"T":0.6056,"U1":0.4573,"U2":0.754,"couplingDegree":0.7663,"level":"良好协调","road_density":21.4198,"walk_accessibility":0.5622,"metro_line_density":4.3887,"station_count":2,"line_count":3,"population_density":23717.3741,"poi_density":0.0,"poi_diversity":0.0,"gdp_density":3037.2567,"P":23717.3741,"I":0.0,"G":3037.2567},{"stationName":"北京军事博物馆(地铁站)","station_id":"北京军事博物馆(地铁站)_39.90612_116.31630","lineId":"北京地铁1号线 / 北京地铁9号线","lat":39.906120994999995,"lon":116.31630097,"area_km2":2.4966,"D":0.8751,"C":0.996,"T":0.7689,"U1":0.7004,"U2":0.8375,"couplingDegree":0.8751,"level":"优质协调","road_density":23.2785,"walk_accessibility":0.5006,"metro_line_density":5.4167,"station_count":3,"line_count":4,"population_density":25705.2142,"poi_density":0.0,"poi_diversity":0.0,"gdp_density":3410.2353,"P":25705.2142,"I":0.0,"G":3410.2353},{"stationName":"北京公主坟(地铁站)","station_id":"北京公主坟(地铁站)_39.90620_116.30420","lineId":"北京地铁10号线 / 北京地铁1号线","lat":39.90619958,"lon":116.30419570999999,"area_km2":2.8029,"D":0.7565,"C":0.9809,"T":0.5834,"U1":0.47,"U2":0.6968,"couplingDegree":0.7565,"level":"良好协调","road_density":25.7154,"walk_accessibility":0.562,"metro_line_density":4.9468,"station_count":2,"line_count":3,"population_density":18011.512,"poi_density":0.0,"poi_diversity":0.0,"gdp_density":3037.6111,"P":18011.512,"I":0.0,"G":3037.6111},{"stationName":"北京万寿路(地铁站)","station_id":"北京万寿路(地铁站)_39.90622_116.28870","lineId":"北京地铁1号线","lat":39.90622098,"lon":116.28870022,"area_km2":2.8749,"D":0.3073,"C":0.9462,"T":0.0998,"U1":0.0675,"U2":0.1321,"couplingDegree":0.3073,"level":"中度失调","road_density":21.3955,"walk_accessibility":0.5764,"metro_line_density":2.1997,"station_count":1,"line_count":1,"population_density":13318.2635,"poi_density":0.0,"poi_diversity":0.0,"gdp_density":0.0,"P":13318.2635,"I":0.0,"G":0.0},{"stationName":"北京五棵松(地铁站)","station_id":"北京五棵松(地铁站)_39.90623_116.26795","lineId":"北京地铁1号线","lat":39.90623005,"lon":116.26794898,"area_km2":2.4903,"D":0.4675,"C":0.5702,"T":0.3834,"U1":0.0684,"U2":0.6983,"couplingDegree":0.4675,"level":"勉强协调","road_density":24.8974,"walk_accessibility":0.4993,"metro_line_density":2.6041,"station_count":1,"line_count":1,"population_density":11779.9748,"poi_density":0.0,"poi_diversity":0.0,"gdp_density":3414.005,"P":11779.9748,"I":0.0,"G":3414.005},{"stationName":"北京玉泉路(地铁站)","station_id":"北京玉泉路(地铁站)_39.90622_116.24686","lineId":"北京地铁1号线","lat":39.90621796,"lon":116.24685843,"area_km2":2.5928,"D":0.4599,"C":0.5717,"T":0.37,"U1":0.0664,"U2":0.6735,"couplingDegree":0.4599,"level":"勉强协调","road_density":23.6016,"walk_accessibility":0.5198,"metro_line_density":2.3819,"station_count":1,"line_count":1,"population_density":11616.5924,"poi_density":0.0,"poi_diversity":0.0,"gdp_density":3278.0209,"P":11616.5924,"I":0.0,"G":3278.0209},{"stationName":"北京八宝山(地铁站)","station_id":"北京八宝山(地铁站)_39.90620_116.22987","lineId":"北京地铁1号线","lat":39.90619866,"lon":116.22986889,"area_km2":2.8626,"D":0.2747,"C":0.9993,"T":0.0755,"U1":0.0727,"U2":0.0784,"couplingDegree":0.2747,"level":"中度失调","road_density":24.138,"walk_accessibility":0.5739,"metro_line_density":2.2868,"station_count":1,"line_count":1,"population_density":7965.7636,"poi_density":0.0,"poi_diversity":0.0,"gdp_density":0.0,"P":7965.7636,"I":0.0,"G":0.0},{"stationName":"北京八角游乐园(地铁站)","station_id":"北京八角游乐园(地铁站)_39.90620_116.20678","lineId":"北京地铁1号线","lat":39.906202304999994,"lon":116.20678491999999,"area_km2":2.7879,"D":0.4691,"C":0.6411,"T":0.3432,"U1":0.0798,"U2":0.6066,"couplingDegree":0.4691,"level":"勉强协调","road_density":23.1062,"walk_accessibility":0.559,"metro_line_density":3.3559,"station_count":1,"line_count":1,"population_density":8857.847,"poi_density":0.0,"poi_diversity":0.0,"gdp_density":3047.5048,"P":8857.847,"I":0.0,"G":3047.5048},{"stationName":"北京古城(地铁站)","station_id":"北京古城(地铁站)_39.90618_116.18421","lineId":"北京地铁1号线","lat":39.90617559,"lon":116.1842117,"area_km2":2.4431,"D":0.4529,"C":0.5352,"T":0.3832,"U1":0.0595,"U2":0.7069,"couplingDegree":0.4529,"level":"勉强协调","road_density":20.2471,"walk_accessibility":0.4898,"metro_line_density":2.6,"station_count":1,"line_count":1,"population_density":11618.1502,"poi_density":0.0,"poi_diversity":0.0,"gdp_density":3473.7815,"P":11618.1502,"I":0.0,"G":3473.7815},{"stationName":"北京苹果园(地铁站)","station_id":"北京苹果园(地铁站)_39.92449_116.17224","lineId":"北京地铁1号线","lat":39.92449224,"lon":116.17223959,"area_km2":2.3904,"D":0.2067,"C":0.9808,"T":0.0436,"U1":0.052,"U2":0.0351,"couplingDegree":0.2067,"level":"中度失调","road_density":26.17,"walk_accessibility":0.4793,"metro_line_density":0.9727,"station_count":1,"line_count":1,"population_density":3650.8254,"poi_density":0.0,"poi_diversity":0.0,"gdp_density":0.0,"P":3650.8254,"I":0.0,"G":0.0},{"stationName":"北京福寿岭(地铁站)","station_id":"北京福寿岭(地铁站)_39.93874_116.16497","lineId":"北京地铁1号线","lat":39.93873974,"lon":116.16497423,"area_km2":2.2947,"D":0.1557,"C":0.9324,"T":0.026,"U1":0.0354,"U2":0.0166,"couplingDegree":0.1557,"level":"极度失调","road_density":19.268,"walk_accessibility":0.4601,"metro_line_density":0.683,"station_count":1,"line_count":1,"population_density":1809.8078,"poi_density":0.0,"poi_diversity":0.0,"gdp_density":0.0,"P":1809.8078,"I":0.0,"G":0.0},{"stationName":"北京体育场南街(地铁站)","station_id":"北京体育场南街(地铁站)_39.89169_116.19704","lineId":"北京地铁1号线","lat":39.89168669,"lon":116.19703968,"area_km2":2.0885,"D":0.2893,"C":0.823,"T":0.1017,"U1":0.0439,"U2":0.1595,"couplingDegree":0.2893,"level":"中度失调","road_density":22.2167,"walk_accessibility":0.4187,"metro_line_density":1.5312,"station_count":1,"line_count":1,"population_density":16044.6976,"poi_density":0.0,"poi_diversity":0.0,"gdp_density":0.0,"P":16044.6976,"I":0.0,"G":0.0},{"stationName":"北京园博园西门(地铁站)","station_id":"北京园博园西门(地铁站)_39.86921_116.18661","lineId":"北京地铁1号线","lat":39.86920673,"lon":116.18661128,"area_km2":2.3562,"D":0.1288,"C":0.4966,"T":0.0334,"U1":0.0624,"U2":0.0044,"couplingDegree":0.1288,"level":"极度失调","road_density":25.0701,"walk_accessibility":0.4724,"metro_line_density":2.2814,"station_count":1,"line_count":1,"population_density":595.8739,"poi_density":0.0,"poi_diversity":0.0,"gdp_density":0.0,"P":595.8739,"I":0.0,"G":0.0},{"stationName":"北京张郭庄(地铁站)","station_id":"北京张郭庄(地铁站)_39.85682_116.18107","lineId":"北京地铁1号线","lat":39.85682242,"lon":116.181065005,"area_km2":1.6625,"D":0.1049,"C":0.3732,"T":0.0295,"U1":0.0568,"U2":0.0021,"couplingDegree":0.1049,"level":"极度失调","road_density":18.2609,"walk_accessibility":0.3333,"metro_line_density":4.4957,"station_count":1,"line_count":1,"population_density":368.7143,"poi_density":0.0,"poi_diversity":0.0,"gdp_density":0.0,"P":368.7143,"I":0.0,"G":0.0},{"stationName":"北京西二区(地铁站)","station_id":"北京西二区(地铁站)_39.84771_116.15500","lineId":"北京地铁1号线","lat":39.84771116,"lon":116.15500443,"area_km2":1.7649,"D":0.3682,"C":0.4924,"T":0.2754,"U1":0.0357,"U2":0.5151,"couplingDegree":0.3682,"level":"中度失调","road_density":16.0777,"walk_accessibility":0.3539,"metro_line_density":2.4971,"station_count":1,"line_count":1,"population_density":485.0111,"poi_density":0.0,"poi_diversity":0.0,"gdp_density":3003.6657,"P":485.0111,"I":0.0,"G":3003.6657},{"stationName":"北京后吕村(地铁站)","station_id":"北京后吕村(地铁站)_39.82696_116.16591","lineId":"北京地铁1号线","lat":39.82696008,"lon":116.16591237,"area_km2":1.3813,"D":0.0897,"C":0.3913,"T":0.0206,"U1":0.0016,"U2":0.0395,"couplingDegree":0.0897,"level":"极度失调","road_density":12.4527,"walk_accessibility":0.277,"metro_line_density":0.5772,"station_count":1,"line_count":1,"population_density":4088.1364,"poi_density":0.0,"poi_diversity":0.0,"gdp_density":0.0,"P":4088.1364,"I":0.0,"G":0.0},{"stationName":"北京云岗(地铁站)","station_id":"北京云岗(地铁站)_39.80876_116.15281","lineId":"北京地铁1号线","lat":39.80875963,"lon":116.15281228,"area_km2":2.7667,"D":0.4021,"C":0.5989,"T":0.2699,"U1":0.0538,"U2":0.486,"couplingDegree":0.4021,"level":"勉强协调","road_density":14.7173,"walk_accessibility":0.5547,"metro_line_density":2.1976,"station_count":1,"line_count":1,"population_density":11065.3979,"poi_density":0.0,"poi_diversity":0.0,"gdp_density":2210.0843,"P":11065.3979,"I":0.0,"G":2210.0843},{"stationName":"北京王佐(地铁站)","station_id":"北京王佐(地铁站)_39.80826_116.12665","lineId":"北京地铁1号线","lat":39.80826184,"lon":116.1266468,"area_km2":1.3109,"D":0.1304,"C":0.6234,"T":0.0273,"U1":0.0486,"U2":0.0059,"couplingDegree":0.1304,"level":"极度失调","road_density":16.4552,"walk_accessibility":0.2628,"metro_line_density":4.797,"station_count":1,"line_count":1,"population_density":749.0819,"poi_density":0.0,"poi_diversity":0.0,"gdp_density":0.0,"P":749.0819,"I":0.0,"G":0.0},{"stationName":"北京民族大学(地铁站)","station_id":"北京民族大学(地铁站)_39.80524_116.10527","lineId":"北京地铁1号线","lat":39.80523643,"lon":116.10527306,"area_km2":1.8957,"D":0.1003,"C":0.3302,"T":0.0305,"U1":0.0593,"U2":0.0017,"couplingDegree":0.1003,"level":"极度失调","road_density":22.9548,"walk_accessibility":0.3801,"metro_line_density":3.4053,"station_count":1,"line_count":1,"population_density":327.0516,"poi_density":0.0,"poi_diversity":0.0,"gdp_density":0.0,"P":327.0516,"I":0.0,"G":0.0},{"stationName":"北京青龙湖东(地铁站)","station_id":"北京青龙湖东(地铁站)_39.80529_116.08906","lineId":"北京地铁1号线","lat":39.80529198,"lon":116.08905708,"area_km2":1.4982,"D":0.1038,"C":0.6175,"T":0.0175,"U1":0.0312,"U2":0.0037,"couplingDegree":0.1038,"level":"极度失调","road_density":19.0694,"walk_accessibility":0.3004,"metro_line_density":2.165,"station_count":1,"line_count":1,"population_density":527.9596,"poi_density":0.0,"poi_diversity":0.0,"gdp_density":0.0,"P":527.9596,"I":0.0,"G":0.0},{"stationName":"北京积水潭(地铁站)","station_id":"北京积水潭(地铁站)_39.94656_116.36623","lineId":"北京地铁19号线 / 北京地铁2号线","lat":39.946563575,"lon":116.366230905,"area_km2":3.6303,"D":0.41,"C":0.9219,"T":0.1823,"U1":0.2529,"U2":0.1117,"couplingDegree":0.41,"level":"勉强协调","road_density":26.9792,"walk_accessibility":0.7279,"metro_line_density":4.8,"station_count":1,"line_count":2,"population_density":11283.2651,"poi_density":0.0,"poi_diversity":0.0,"gdp_density":0.0,"P":11283.2651,"I":0.0,"G":0.0},{"stationName":"北京鼓楼大街(地铁站)","station_id":"北京鼓楼大街(地铁站)_39.94686_116.38759","lineId":"北京地铁2号线 / 北京地铁8号线","lat":39.946858335,"lon":116.38759394499999,"area_km2":3.7252,"D":0.508,"C":0.9545,"T":0.2704,"U1":0.351,"U2":0.1898,"couplingDegree":0.508,"level":"勉强协调","road_density":21.8484,"walk_accessibility":0.7469,"metro_line_density":4.8215,"station_count":2,"line_count":2,"population_density":19062.4352,"poi_density":0.0,"poi_diversity":0.0,"gdp_density":0.0,"P":19062.4352,"I":0.0,"G":0.0},{"stationName":"北京安定门(地铁站)","station_id":"北京安定门(地铁站)_39.94768_116.40198","lineId":"北京地铁2号线","lat":39.94768258,"lon":116.4019787,"area_km2":3.6951,"D":0.5178,"C":0.7547,"T":0.3552,"U1":0.5883,"U2":0.1222,"couplingDegree":0.5178,"level":"勉强协调","road_density":24.7675,"walk_accessibility":0.7409,"metro_line_density":4.4294,"station_count":3,"line_count":3,"population_density":12328.1739,"poi_density":0.0,"poi_diversity":0.0,"gdp_density":0.0,"P":12328.1739,"I":0.0,"G":0.0},{"stationName":"北京雍和宫(地铁站)","station_id":"北京雍和宫(地铁站)_39.94768_116.41095","lineId":"北京地铁2号线 / 北京地铁5号线","lat":39.947683266666665,"lon":116.41094894666666,"area_km2":3.5745,"D":0.5021,"C":0.9387,"T":0.2686,"U1":0.3612,"U2":0.176,"couplingDegree":0.5021,"level":"勉强协调","road_density":25.18,"walk_accessibility":0.7167,"metro_line_density":5.6349,"station_count":2,"line_count":2,"population_density":17685.6749,"poi_density":0.0,"poi_diversity":0.0,"gdp_density":0.0,"P":17685.6749,"I":0.0,"G":0.0},{"stationName":"北京东直门(地铁站)","station_id":"北京东直门(地铁站)_39.94034_116.42887","lineId":"北京北京地铁13B号线(马连洼--东直门) / 北京北京首都机场线(3号航站楼--北新桥) / 北京北京首都机场线(北新桥--2号航站楼) / 北京地铁2号线","lat":39.9403378925,"lon":116.428868765,"area_km2":3.3235,"D":0.7897,"C":0.9996,"T":0.6238,"U1":0.6414,"U2":0.6062,"couplingDegree":0.7897,"level":"良好协调","road_density":27.5548,"walk_accessibility":0.6663,"metro_line_density":7.3245,"station_count":2,"line_count":4,"population_density":17006.9865,"poi_density":0.0,"poi_diversity":0.0,"gdp_density":2565.147,"P":17006.9865,"I":0.0,"G":2565.147},{"stationName":"北京东四十条(地铁站)","station_id":"北京东四十条(地铁站)_39.93237_116.42792","lineId":"北京地铁2号线","lat":39.932369255,"lon":116.427919215,"area_km2":3.7501,"D":0.787,"C":0.9886,"T":0.6264,"U1":0.7206,"U2":0.5322,"couplingDegree":0.787,"level":"良好协调","road_density":26.2386,"walk_accessibility":0.7519,"metro_line_density":4.0106,"station_count":3,"line_count":4,"population_density":14593.1335,"poi_density":0.0,"poi_diversity":0.0,"gdp_density":2273.3442,"P":14593.1335,"I":0.0,"G":2273.3442},{"stationName":"北京朝阳门(地铁站)","station_id":"北京朝阳门(地铁站)_39.92311_116.42829","lineId":"北京地铁2号线","lat":39.923105074999995,"lon":116.428294025,"area_km2":3.7714,"D":0.4024,"C":0.9649,"T":0.1679,"U1":0.212,"U2":0.1237,"couplingDegree":0.4024,"level":"勉强协调","road_density":25.5415,"walk_accessibility":0.7562,"metro_line_density":3.4459,"station_count":2,"line_count":1,"population_density":12484.8567,"poi_density":0.0,"poi_diversity":0.0,"gdp_density":0.0,"P":12484.8567,"I":0.0,"G":0.0},{"stationName":"北京北京站(地铁站)","station_id":"北京北京站(地铁站)_39.90359_116.42106","lineId":"北京地铁2号线","lat":39.90359251,"lon":116.42106293,"area_km2":2.9365,"D":0.8211,"C":0.9991,"T":0.6748,"U1":0.7033,"U2":0.6464,"couplingDegree":0.8211,"level":"优质协调","road_density":27.6918,"walk_accessibility":0.5888,"metro_line_density":6.7913,"station_count":4,"line_count":3,"population_density":15255.1242,"poi_density":0.0,"poi_diversity":0.0,"gdp_density":2904.3285,"P":15255.1242,"I":0.0,"G":2904.3285},{"stationName":"北京崇文门(地铁站)","station_id":"北京崇文门(地铁站)_39.89951_116.41151","lineId":"北京地铁2号线 / 北京地铁5号线","lat":39.89950931,"lon":116.411513985,"area_km2":3.9634,"D":0.6451,"C":0.7874,"T":0.5285,"U1":0.8543,"U2":0.2027,"couplingDegree":0.6451,"level":"良好协调","road_density":24.3115,"walk_accessibility":0.7947,"metro_line_density":6.797,"station_count":4,"line_count":4,"population_density":20351.0051,"poi_density":0.0,"poi_diversity":0.0,"gdp_density":0.0,"P":20351.0051,"I":0.0,"G":0.0},{"stationName":"北京前门(地铁站)","station_id":"北京前门(地铁站)_39.89818_116.39258","lineId":"北京地铁2号线 / 北京地铁8号线","lat":39.8981820075,"lon":116.3925803075,"area_km2":4.5298,"D":0.757,"C":0.9754,"T":0.5874,"U1":0.7168,"U2":0.458,"couplingDegree":0.757,"level":"良好协调","road_density":25.3332,"walk_accessibility":0.9082,"metro_line_density":4.8168,"station_count":4,"line_count":3,"population_density":13857.0681,"poi_density":0.0,"poi_diversity":0.0,"gdp_density":1881.1082,"P":13857.0681,"I":0.0,"G":1881.1082},{"stationName":"北京和平门(地铁站)","station_id":"北京和平门(地铁站)_39.89870_116.37797","lineId":"北京地铁2号线","lat":39.89870226,"lon":116.37797399,"area_km2":4.2017,"D":0.6311,"C":0.7183,"T":0.5545,"U1":0.9403,"U2":0.1687,"couplingDegree":0.6311,"level":"良好协调","road_density":24.835,"walk_accessibility":0.8424,"metro_line_density":4.3145,"station_count":5,"line_count":4,"population_density":16965.3932,"poi_density":0.0,"poi_diversity":0.0,"gdp_density":0.0,"P":16965.3932,"I":0.0,"G":0.0},{"stationName":"北京宣武门(地铁站)","station_id":"北京宣武门(地铁站)_39.89840_116.36813","lineId":"北京地铁2号线","lat":39.89839593,"lon":116.36813067,"area_km2":4.1688,"D":0.7757,"C":0.9838,"T":0.6116,"U1":0.7212,"U2":0.5019,"couplingDegree":0.7757,"level":"良好协调","road_density":26.6319,"walk_accessibility":0.8358,"metro_line_density":5.8839,"station_count":4,"line_count":3,"population_density":15470.4697,"poi_density":0.0,"poi_diversity":0.0,"gdp_density":2043.787,"P":15470.4697,"I":0.0,"G":2043.787},{"stationName":"北京长椿街(地铁站)","station_id":"北京长椿街(地铁站)_39.89806_116.35715","lineId":"北京地铁2号线","lat":39.89805898,"lon":116.35714731,"area_km2":4.0156,"D":0.53,"C":0.8711,"T":0.3224,"U1":0.4808,"U2":0.1641,"couplingDegree":0.53,"level":"勉强协调","road_density":25.4901,"walk_accessibility":0.8051,"metro_line_density":6.0873,"station_count":3,"line_count":2,"population_density":16505.7185,"poi_density":0.0,"poi_diversity":0.0,"gdp_density":0.0,"P":16505.7185,"I":0.0,"G":0.0},{"stationName":"北京阜成门(地铁站)","station_id":"北京阜成门(地铁站)_39.92231_116.35002","lineId":"北京地铁2号线","lat":39.92231433,"lon":116.35001838,"area_km2":3.4745,"D":0.4397,"C":0.8514,"T":0.2271,"U1":0.3461,"U2":0.108,"couplingDegree":0.4397,"level":"勉强协调","road_density":24.4268,"walk_accessibility":0.6966,"metro_line_density":4.4805,"station_count":2,"line_count":2,"population_density":10911.7356,"poi_density":0.0,"poi_diversity":0.0,"gdp_density":0.0,"P":10911.7356,"I":0.0,"G":0.0},{"stationName":"北京车公庄(地铁站)","station_id":"北京车公庄(地铁站)_39.93115_116.34843","lineId":"北京北京地铁13A号线(车公庄--天通苑东) / 北京地铁2号线","lat":39.931151185,"lon":116.34842879,"area_km2":3.4683,"D":0.5618,"C":0.827,"T":0.3816,"U1":0.5962,"U2":0.1671,"couplingDegree":0.5618,"level":"勉强协调","road_density":28.7058,"walk_accessibility":0.6954,"metro_line_density":5.0896,"station_count":3,"line_count":3,"population_density":16798.9028,"poi_density":0.0,"poi_diversity":0.0,"gdp_density":0.0,"P":16798.9028,"I":0.0,"G":0.0},{"stationName":"北京西直门(地铁站)","station_id":"北京西直门(地铁站)_39.93987_116.34739","lineId":"北京北京地铁13A号线(车公庄--天通苑东) / 北京地铁13号线 / 北京地铁2号线","lat":39.93986700333333,"lon":116.34738996,"area_km2":3.6222,"D":0.5346,"C":0.8604,"T":0.3321,"U1":0.5014,"U2":0.1629,"couplingDegree":0.5346,"level":"勉强协调","road_density":29.6218,"walk_accessibility":0.7262,"metro_line_density":5.527,"station_count":2,"line_count":3,"population_density":16383.5442,"poi_density":0.0,"poi_diversity":0.0,"gdp_density":0.0,"P":16383.5442,"I":0.0,"G":0.0},{"stationName":"北京霍营(地铁站)","station_id":"北京霍营(地铁站)_40.06962_116.35440","lineId":"北京北京地铁13B号线(马连洼--东直门) / 北京地铁13号线 / 北京地铁8号线","lat":40.06962005333333,"lon":116.35440401333334,"area_km2":2.3604,"D":0.1773,"C":0.1722,"T":0.1825,"U1":0.3624,"U2":0.0027,"couplingDegree":0.1773,"level":"极度失调","road_density":34.5637,"walk_accessibility":0.4733,"metro_line_density":4.1566,"station_count":1,"line_count":3,"population_density":428.3174,"poi_density":0.0,"poi_diversity":0.0,"gdp_density":0.0,"P":428.3174,"I":0.0,"G":0.0},{"stationName":"北京知春路(地铁站)","station_id":"北京知春路(地铁站)_39.97514_116.33426","lineId":"北京北京地铁13A号线(车公庄--天通苑东) / 北京地铁10号线 / 北京地铁13号线","lat":39.975138136666665,"lon":116.33425766333333,"area_km2":3.2917,"D":0.4493,"C":0.8256,"T":0.2445,"U1":0.3825,"U2":0.1065,"couplingDegree":0.4493,"level":"勉强协调","road_density":30.731,"walk_accessibility":0.66,"metro_line_density":4.6442,"station_count":1,"line_count":3,"population_density":10768.2649,"poi_density":0.0,"poi_diversity":0.0,"gdp_density":0.0,"P":10768.2649,"I":0.0,"G":0.0},{"stationName":"北京五道口(地铁站)","station_id":"北京五道口(地铁站)_39.99156_116.33157","lineId":"北京北京地铁13A号线(车公庄--天通苑东) / 北京地铁13号线","lat":39.99156226333333,"lon":116.33157444666666,"area_km2":4.2726,"D":0.5968,"C":0.9582,"T":0.3717,"U1":0.2654,"U2":0.4781,"couplingDegree":0.5968,"level":"勉强协调","road_density":35.0944,"walk_accessibility":0.8566,"metro_line_density":3.1782,"station_count":1,"line_count":2,"population_density":13977.2358,"poi_density":0.0,"poi_diversity":0.0,"gdp_density":1991.5796,"P":13977.2358,"I":0.0,"G":1991.5796}]}