{"cityCode":"440300","year":2010,"stations":[{"stationName":"深圳机场东(地铁站)","station_id":"深圳机场东(地铁站)_22.65001_113.81745","lineId":"深圳地铁12号线 / 深圳地铁1号线 / 深圳地铁20号线","lat":22.65000622333333,"lon":113.81745417333333,"area_km2":1.8094,"D":0.4921,"C":0.9582,"T":0.2527,"U1":0.325,"U2":0.1804,"couplingDegree":0.4921,"level":"勉强协调","road_density":23.3038,"walk_accessibility":0.3628,"metro_line_density":6.5442,"station_count":1,"line_count":3,"population_density":1519.8321,"poi_density":0.0,"poi_diversity":0.0,"gdp_density":18475.448,"P":1519.8321,"I":0.0,"G":18475.448},{"stationName":"深圳后瑞(地铁站)","station_id":"深圳后瑞(地铁站)_22.63180_113.83045","lineId":"深圳地铁1号线","lat":22.6318011,"lon":113.83045122,"area_km2":2.1041,"D":0.3547,"C":0.9999,"T":0.1258,"U1":0.1277,"U2":0.124,"couplingDegree":0.3547,"level":"中度失调","road_density":27.7809,"walk_accessibility":0.4219,"metro_line_density":5.241,"station_count":1,"line_count":1,"population_density":2779.3333,"poi_density":0.0,"poi_diversity":0.0,"gdp_density":11348.2859,"P":2779.3333,"I":0.0,"G":11348.2859},{"stationName":"深圳固戍(地铁站)","station_id":"深圳固戍(地铁站)_22.60435_113.84182","lineId":"深圳地铁1号线","lat":22.60435465,"lon":113.84182451,"area_km2":2.5354,"D":0.3486,"C":0.942,"T":0.129,"U1":0.0857,"U2":0.1723,"couplingDegree":0.3486,"level":"中度失调","road_density":26.6834,"walk_accessibility":0.5083,"metro_line_density":2.1077,"station_count":1,"line_count":1,"population_density":1876.9995,"poi_density":0.0,"poi_diversity":0.0,"gdp_density":17315.4808,"P":1876.9995,"I":0.0,"G":17315.4808},{"stationName":"深圳西乡(地铁站)","station_id":"深圳西乡(地铁站)_22.57817_113.85812","lineId":"深圳地铁1号线","lat":22.57817025,"lon":113.85812138,"area_km2":2.6809,"D":0.4063,"C":0.908,"T":0.1818,"U1":0.2579,"U2":0.1056,"couplingDegree":0.4063,"level":"勉强协调","road_density":28.7036,"walk_accessibility":0.5375,"metro_line_density":3.7063,"station_count":2,"line_count":2,"population_density":3714.3934,"poi_density":0.0,"poi_diversity":0.0,"gdp_density":8615.5891,"P":3714.3934,"I":0.0,"G":8615.5891},{"stationName":"深圳坪洲(地铁站)","station_id":"深圳坪洲(地铁站)_22.57195_113.86578","lineId":"深圳地铁15号线 / 深圳地铁1号线","lat":22.571946635,"lon":113.865775895,"area_km2":2.9608,"D":0.4342,"C":0.9221,"T":0.2045,"U1":0.2836,"U2":0.1254,"couplingDegree":0.4342,"level":"勉强协调","road_density":30.6237,"walk_accessibility":0.5936,"metro_line_density":4.5866,"station_count":2,"line_count":2,"population_density":11195.7554,"poi_density":0.0,"poi_diversity":0.0,"gdp_density":4935.534,"P":11195.7554,"I":0.0,"G":4935.534},{"stationName":"深圳宝体(地铁站)","station_id":"深圳宝体(地铁站)_22.56378_113.87575","lineId":"深圳地铁1号线","lat":22.5637833,"lon":113.87574882,"area_km2":3.1156,"D":0.4849,"C":0.9782,"T":0.2404,"U1":0.2903,"U2":0.1905,"couplingDegree":0.4849,"level":"勉强协调","road_density":41.7022,"walk_accessibility":0.6247,"metro_line_density":2.8603,"station_count":2,"line_count":2,"population_density":20626.3362,"poi_density":0.0,"poi_diversity":0.0,"gdp_density":4679.1872,"P":20626.3362,"I":0.0,"G":4679.1872},{"stationName":"深圳宝安中心(地铁站)","station_id":"深圳宝安中心(地铁站)_22.55762_113.88236","lineId":"深圳地铁1号线 / 深圳地铁5号线","lat":22.55761773,"lon":113.882356145,"area_km2":3.4136,"D":0.4306,"C":0.8305,"T":0.2233,"U1":0.3477,"U2":0.0989,"couplingDegree":0.4306,"level":"勉强协调","road_density":41.0074,"walk_accessibility":0.6844,"metro_line_density":3.6275,"station_count":3,"line_count":2,"population_density":2910.6852,"poi_density":0.0,"poi_diversity":0.0,"gdp_density":8511.7517,"P":2910.6852,"I":0.0,"G":8511.7517},{"stationName":"深圳新安(地铁站)","station_id":"深圳新安(地铁站)_22.55052_113.88975","lineId":"深圳地铁1号线","lat":22.5505208,"lon":113.88975332,"area_km2":3.0257,"D":0.3825,"C":0.7249,"T":0.2018,"U1":0.3409,"U2":0.0628,"couplingDegree":0.3825,"level":"中度失调","road_density":40.2879,"walk_accessibility":0.6066,"metro_line_density":3.9059,"station_count":3,"line_count":2,"population_density":2331.7226,"poi_density":0.0,"poi_diversity":0.0,"gdp_density":5026.8169,"P":2331.7226,"I":0.0,"G":5026.8169},{"stationName":"深圳前海湾(地铁站)","station_id":"深圳前海湾(地铁站)_22.54039_113.89306","lineId":"深圳地铁1号线","lat":22.5403881,"lon":113.89306479999999,"area_km2":2.3465,"D":0.1701,"C":0.2214,"T":0.1308,"U1":0.2583,"U2":0.0032,"couplingDegree":0.1701,"level":"极度失调","road_density":43.4533,"walk_accessibility":0.4705,"metro_line_density":5.366,"station_count":3,"line_count":1,"population_density":453.4352,"poi_density":0.0,"poi_diversity":0.0,"gdp_density":0.0,"P":453.4352,"I":0.0,"G":0.0},{"stationName":"深圳鲤鱼门(地铁站)","station_id":"深圳鲤鱼门(地铁站)_22.53506_113.89822","lineId":"深圳地铁1号线","lat":22.53505852,"lon":113.89821563,"area_km2":2.5907,"D":0.2555,"C":0.5009,"T":0.1304,"U1":0.2432,"U2":0.0175,"couplingDegree":0.2555,"level":"中度失调","road_density":40.3698,"walk_accessibility":0.5194,"metro_line_density":4.5708,"station_count":3,"line_count":1,"population_density":2450.7052,"poi_density":0.0,"poi_diversity":0.0,"gdp_density":0.0,"P":2450.7052,"I":0.0,"G":0.0},{"stationName":"深圳大新(地铁站)","station_id":"深圳大新(地铁站)_22.53528_113.91021","lineId":"深圳地铁1号线","lat":22.53528155,"lon":113.91021352,"area_km2":2.7798,"D":0.5877,"C":0.985,"T":0.3506,"U1":0.2902,"U2":0.4111,"couplingDegree":0.5877,"level":"勉强协调","road_density":30.3518,"walk_accessibility":0.5574,"metro_line_density":2.7702,"station_count":3,"line_count":2,"population_density":50422.9665,"poi_density":0.0,"poi_diversity":0.0,"gdp_density":5492.0351,"P":50422.9665,"I":0.0,"G":5492.0351},{"stationName":"深圳桃园(地铁站)","station_id":"深圳桃园(地铁站)_22.53497_113.91996","lineId":"深圳地铁12号线 / 深圳地铁1号线","lat":22.534973825,"lon":113.91995836000001,"area_km2":2.9509,"D":0.59,"C":0.9876,"T":0.3524,"U1":0.2972,"U2":0.4077,"couplingDegree":0.59,"level":"勉强协调","road_density":35.1938,"walk_accessibility":0.5916,"metro_line_density":4.6739,"station_count":2,"line_count":2,"population_density":43714.5068,"poi_density":0.0,"poi_diversity":0.0,"gdp_density":10349.5019,"P":43714.5068,"I":0.0,"G":10349.5019},{"stationName":"深圳深大(地铁站)","station_id":"深圳深大(地铁站)_22.54225_113.93968","lineId":"深圳地铁1号线 / 深圳地铁20号线","lat":22.542249435000002,"lon":113.93968090499999,"area_km2":3.0953,"D":0.496,"C":0.971,"T":0.2533,"U1":0.3139,"U2":0.1927,"couplingDegree":0.496,"level":"勉强协调","road_density":38.5053,"walk_accessibility":0.6206,"metro_line_density":4.9497,"station_count":2,"line_count":2,"population_density":14283.0893,"poi_density":0.0,"poi_diversity":0.0,"gdp_density":9869.5943,"P":14283.0893,"I":0.0,"G":9869.5943},{"stationName":"深圳高新园(地铁站)","station_id":"深圳高新园(地铁站)_22.54323_113.94895","lineId":"深圳地铁1号线","lat":22.54323071,"lon":113.94894998,"area_km2":3.0293,"D":0.4422,"C":0.9103,"T":0.2148,"U1":0.3037,"U2":0.1259,"couplingDegree":0.4422,"level":"勉强协调","road_density":40.1298,"walk_accessibility":0.6074,"metro_line_density":4.1185,"station_count":2,"line_count":2,"population_density":4664.5178,"poi_density":0.0,"poi_diversity":0.0,"gdp_density":10080.0387,"P":4664.5178,"I":0.0,"G":10080.0387},{"stationName":"深圳白石洲(地铁站)","station_id":"深圳白石洲(地铁站)_22.54236_113.96268","lineId":"深圳地铁1号线 / 深圳地铁29号线","lat":22.54235794,"lon":113.9626828,"area_km2":2.3067,"D":0.5324,"C":1.0,"T":0.2835,"U1":0.285,"U2":0.2819,"couplingDegree":0.5324,"level":"勉强协调","road_density":30.435,"walk_accessibility":0.4625,"metro_line_density":5.6996,"station_count":2,"line_count":2,"population_density":17108.4188,"poi_density":0.0,"poi_diversity":0.0,"gdp_density":17385.3676,"P":17108.4188,"I":0.0,"G":17385.3676},{"stationName":"深圳世界之窗(地铁站)","station_id":"深圳世界之窗(地铁站)_22.53984_113.96928","lineId":"深圳地铁1号线","lat":22.539844119999998,"lon":113.96928457,"area_km2":2.2183,"D":0.5163,"C":0.9858,"T":0.2704,"U1":0.3158,"U2":0.225,"couplingDegree":0.5163,"level":"勉强协调","road_density":27.1948,"walk_accessibility":0.4448,"metro_line_density":5.7958,"station_count":3,"line_count":2,"population_density":11557.0605,"poi_density":0.0,"poi_diversity":0.0,"gdp_density":15513.4261,"P":11557.0605,"I":0.0,"G":15513.4261},{"stationName":"深圳华侨城(地铁站)","station_id":"深圳华侨城(地铁站)_22.53640_113.98041","lineId":"深圳地铁1号线","lat":22.53640038,"lon":113.98041078,"area_km2":1.9388,"D":0.4579,"C":0.935,"T":0.2242,"U1":0.3037,"U2":0.1447,"couplingDegree":0.4579,"level":"勉强协调","road_density":27.7476,"walk_accessibility":0.3887,"metro_line_density":2.8013,"station_count":4,"line_count":2,"population_density":7636.0189,"poi_density":0.0,"poi_diversity":0.0,"gdp_density":9819.7292,"P":7636.0189,"I":0.0,"G":9819.7292},{"stationName":"深圳侨城东(地铁站)","station_id":"深圳侨城东(地铁站)_22.53528_113.99167","lineId":"深圳地铁1号线","lat":22.53528443,"lon":113.991665165,"area_km2":2.6443,"D":0.3417,"C":0.9228,"T":0.1265,"U1":0.1752,"U2":0.0778,"couplingDegree":0.3417,"level":"中度失调","road_density":32.6023,"walk_accessibility":0.5302,"metro_line_density":4.0618,"station_count":2,"line_count":1,"population_density":6279.2423,"poi_density":0.0,"poi_diversity":0.0,"gdp_density":3579.1409,"P":6279.2423,"I":0.0,"G":3579.1409},{"stationName":"深圳竹子林(地铁站)","station_id":"深圳竹子林(地铁站)_22.53618_114.00889","lineId":"深圳地铁1号线","lat":22.53618372,"lon":114.00888869,"area_km2":2.636,"D":0.417,"C":0.9999,"T":0.1739,"U1":0.1717,"U2":0.176,"couplingDegree":0.417,"level":"勉强协调","road_density":36.8073,"walk_accessibility":0.5285,"metro_line_density":5.6801,"station_count":1,"line_count":1,"population_density":20349.7278,"poi_density":0.0,"poi_diversity":0.0,"gdp_density":3317.0325,"P":20349.7278,"I":0.0,"G":3317.0325},{"stationName":"深圳车公庙(地铁站)","station_id":"深圳车公庙(地铁站)_22.53872_114.02221","lineId":"深圳地铁1号线 / 深圳地铁7号线","lat":22.53871917,"lon":114.02220625,"area_km2":2.4824,"D":0.5844,"C":0.9977,"T":0.3423,"U1":0.3656,"U2":0.3189,"couplingDegree":0.5844,"level":"勉强协调","road_density":40.5783,"walk_accessibility":0.4977,"metro_line_density":8.8111,"station_count":2,"line_count":2,"population_density":21003.4899,"poi_density":0.0,"poi_diversity":0.0,"gdp_density":18382.9328,"P":21003.4899,"I":0.0,"G":18382.9328},{"stationName":"深圳香蜜湖(地铁站)","station_id":"深圳香蜜湖(地铁站)_22.54164_114.03355","lineId":"深圳地铁1号线","lat":22.54164462,"lon":114.03355214,"area_km2":1.6897,"D":0.5473,"C":0.9978,"T":0.3002,"U1":0.32,"U2":0.2804,"couplingDegree":0.5473,"level":"勉强协调","road_density":32.3984,"walk_accessibility":0.3388,"metro_line_density":8.5232,"station_count":2,"line_count":2,"population_density":16109.7315,"poi_density":0.0,"poi_diversity":0.0,"gdp_density":18000.0712,"P":16109.7315,"I":0.0,"G":18000.0712},{"stationName":"深圳购物公园(地铁站)","station_id":"深圳购物公园(地铁站)_22.53683_114.04872","lineId":"深圳地铁1号线 / 深圳地铁3号线","lat":22.536828185,"lon":114.04872448500001,"area_km2":2.9494,"D":0.6763,"C":0.9194,"T":0.4974,"U1":0.6931,"U2":0.3017,"couplingDegree":0.6763,"level":"良好协调","road_density":39.2579,"walk_accessibility":0.5913,"metro_line_density":5.3532,"station_count":4,"line_count":5,"population_density":22356.6612,"poi_density":0.0,"poi_diversity":0.0,"gdp_density":15454.3521,"P":22356.6612,"I":0.0,"G":15454.3521},{"stationName":"深圳会展中心(地铁站)","station_id":"深圳会展中心(地铁站)_22.53748_114.05598","lineId":"深圳地铁1号线","lat":22.537482,"lon":114.05598438,"area_km2":2.8183,"D":0.7324,"C":0.8861,"T":0.6054,"U1":0.8859,"U2":0.3248,"couplingDegree":0.7324,"level":"良好协调","road_density":39.9326,"walk_accessibility":0.5651,"metro_line_density":6.3594,"station_count":6,"line_count":6,"population_density":24672.053,"poi_density":0.0,"poi_diversity":0.0,"gdp_density":16164.3595,"P":24672.053,"I":0.0,"G":16164.3595},{"stationName":"深圳岗厦(地铁站)","station_id":"深圳岗厦(地铁站)_22.53720_114.06300","lineId":"深圳地铁10号线 / 深圳地铁1号线","lat":22.53719936,"lon":114.06300142,"area_km2":3.0179,"D":0.7387,"C":0.9071,"T":0.6015,"U1":0.8546,"U2":0.3483,"couplingDegree":0.7387,"level":"良好协调","road_density":39.3513,"walk_accessibility":0.6051,"metro_line_density":6.7213,"station_count":5,"line_count":6,"population_density":35784.7786,"poi_density":0.0,"poi_diversity":0.0,"gdp_density":10060.7176,"P":35784.7786,"I":0.0,"G":10060.7176},{"stationName":"深圳华强路(地铁站)","station_id":"深圳华强路(地铁站)_22.54314_114.08000","lineId":"深圳地铁1号线","lat":22.54314425,"lon":114.08000402,"area_km2":3.0295,"D":0.7406,"C":0.9939,"T":0.5519,"U1":0.6126,"U2":0.4911,"couplingDegree":0.7406,"level":"良好协调","road_density":29.8098,"walk_accessibility":0.6074,"metro_line_density":7.9828,"station_count":4,"line_count":4,"population_density":55800.8119,"poi_density":0.0,"poi_diversity":0.0,"gdp_density":10019.6356,"P":55800.8119,"I":0.0,"G":10019.6356},{"stationName":"深圳科学馆(地铁站)","station_id":"深圳科学馆(地铁站)_22.54281_114.09065","lineId":"深圳地铁1号线 / 深圳地铁6号线","lat":22.542808015,"lon":114.09064715,"area_km2":2.5726,"D":0.7714,"C":0.9999,"T":0.5951,"U1":0.6053,"U2":0.5849,"couplingDegree":0.7714,"level":"良好协调","road_density":32.2578,"walk_accessibility":0.5158,"metro_line_density":7.7812,"station_count":4,"line_count":4,"population_density":66635.4826,"poi_density":0.0,"poi_diversity":0.0,"gdp_density":11793.3924,"P":66635.4826,"I":0.0,"G":11793.3924},{"stationName":"深圳大剧院(地铁站)","station_id":"深圳大剧院(地铁站)_22.54405_114.10295","lineId":"深圳地铁1号线 / 深圳地铁2号线 / 深圳地铁5号线","lat":22.54404932,"lon":114.1029459975,"area_km2":2.8679,"D":0.8023,"C":0.995,"T":0.6469,"U1":0.7113,"U2":0.5825,"couplingDegree":0.8023,"level":"优质协调","road_density":37.1631,"walk_accessibility":0.575,"metro_line_density":9.55,"station_count":3,"line_count":5,"population_density":67868.5357,"poi_density":0.0,"poi_diversity":0.0,"gdp_density":10573.0744,"P":67868.5357,"I":0.0,"G":10573.0744},{"stationName":"深圳老街(地铁站)","station_id":"深圳老街(地铁站)_22.54744_114.11095","lineId":"深圳地铁17号线 / 深圳地铁1号线 / 深圳地铁3号线","lat":22.547437164999998,"lon":114.1109457625,"area_km2":3.0672,"D":0.8977,"C":0.9956,"T":0.8094,"U1":0.7331,"U2":0.8857,"couplingDegree":0.8977,"level":"优质协调","road_density":34.5057,"walk_accessibility":0.615,"metro_line_density":8.5457,"station_count":4,"line_count":5,"population_density":107423.2197,"poi_density":0.0,"poi_diversity":0.0,"gdp_density":12770.7327,"P":107423.2197,"I":0.0,"G":12770.7327},{"stationName":"深圳国贸(地铁站)","station_id":"深圳国贸(地铁站)_22.54236_114.11373","lineId":"深圳地铁1号线","lat":22.54236105,"lon":114.11372756,"area_km2":2.898,"D":0.7983,"C":0.981,"T":0.6496,"U1":0.7756,"U2":0.5237,"couplingDegree":0.7983,"level":"良好协调","road_density":34.7328,"walk_accessibility":0.581,"metro_line_density":8.9086,"station_count":5,"line_count":5,"population_density":69290.334,"poi_density":0.0,"poi_diversity":0.0,"gdp_density":3047.6589,"P":69290.334,"I":0.0,"G":3047.6589},{"stationName":"深圳罗湖(地铁站)","station_id":"深圳罗湖(地铁站)_22.53455_114.11352","lineId":"深圳地铁1号线","lat":22.53455081,"lon":114.11352383,"area_km2":1.9686,"D":0.4917,"C":0.9702,"T":0.2492,"U1":0.1888,"U2":0.3096,"couplingDegree":0.4917,"level":"勉强协调","road_density":36.1087,"walk_accessibility":0.3947,"metro_line_density":5.3452,"station_count":2,"line_count":1,"population_density":43272.4441,"poi_density":0.0,"poi_diversity":0.0,"gdp_density":0.0,"P":43272.4441,"I":0.0,"G":0.0},{"stationName":"深圳湾厦(地铁站)","station_id":"深圳湾厦(地铁站)_22.49638_113.93374","lineId":"深圳地铁2号线","lat":22.496378425,"lon":113.93373575,"area_km2":2.5806,"D":0.3823,"C":0.8025,"T":0.1821,"U1":0.2907,"U2":0.0734,"couplingDegree":0.3823,"level":"中度失调","road_density":37.4045,"walk_accessibility":0.5174,"metro_line_density":1.8848,"station_count":3,"line_count":2,"population_density":2715.6624,"poi_density":0.0,"poi_diversity":0.0,"gdp_density":5886.5854,"P":2715.6624,"I":0.0,"G":5886.5854},{"stationName":"深圳后海(地铁站)","station_id":"深圳后海(地铁站)_22.52078_113.93700","lineId":"深圳地铁11号线 / 深圳地铁2号线","lat":22.52077919,"lon":113.93700366,"area_km2":3.2515,"D":0.2399,"C":0.3222,"T":0.1787,"U1":0.3479,"U2":0.0095,"couplingDegree":0.2399,"level":"中度失调","road_density":43.4973,"walk_accessibility":0.6519,"metro_line_density":3.4545,"station_count":3,"line_count":2,"population_density":1332.0074,"poi_density":0.0,"poi_diversity":0.0,"gdp_density":0.0,"P":1332.0074,"I":0.0,"G":0.0},{"stationName":"深圳景田(地铁站)","station_id":"深圳景田(地铁站)_22.55616_114.03825","lineId":"深圳地铁2号线","lat":22.55616499,"lon":114.038249175,"area_km2":2.589,"D":0.4287,"C":0.9955,"T":0.1846,"U1":0.2021,"U2":0.1671,"couplingDegree":0.4287,"level":"勉强协调","road_density":25.6758,"walk_accessibility":0.5191,"metro_line_density":4.5008,"station_count":3,"line_count":1,"population_density":8278.4424,"poi_density":0.0,"poi_diversity":0.0,"gdp_density":11760.3304,"P":8278.4424,"I":0.0,"G":11760.3304},{"stationName":"深圳福田(地铁站)","station_id":"深圳福田(地铁站)_22.54272_114.04896","lineId":"深圳地铁11号线 / 深圳地铁2号线 / 深圳地铁3号线","lat":22.542715333333334,"lon":114.04896284666667,"area_km2":3.1711,"D":0.6554,"C":0.8334,"T":0.5155,"U1":0.8004,"U2":0.2306,"couplingDegree":0.6554,"level":"良好协调","road_density":38.949,"walk_accessibility":0.6358,"metro_line_density":6.7918,"station_count":6,"line_count":5,"population_density":13791.7283,"poi_density":0.0,"poi_diversity":0.0,"gdp_density":14376.692,"P":13791.7283,"I":0.0,"G":14376.692},{"stationName":"深圳岗厦北(地铁站)","station_id":"深圳岗厦北(地铁站)_22.54251_114.06310","lineId":"深圳地铁10号线 / 深圳地铁11号线 / 深圳地铁2号线","lat":22.54250847333333,"lon":114.06310459666668,"area_km2":3.0388,"D":0.7046,"C":0.8613,"T":0.5764,"U1":0.8693,"U2":0.2835,"couplingDegree":0.7046,"level":"良好协调","road_density":36.2552,"walk_accessibility":0.6093,"metro_line_density":8.1579,"station_count":5,"line_count":6,"population_density":20397.7213,"poi_density":0.0,"poi_diversity":0.0,"gdp_density":14992.8725,"P":20397.7213,"I":0.0,"G":14992.8725},{"stationName":"深圳黄贝岭(地铁站)","station_id":"深圳黄贝岭(地铁站)_22.54881_114.13127","lineId":"深圳地铁2号线","lat":22.54880508,"lon":114.13126658499999,"area_km2":2.2937,"D":0.5318,"C":0.7777,"T":0.3636,"U1":0.135,"U2":0.5922,"couplingDegree":0.5318,"level":"勉强协调","road_density":30.6119,"walk_accessibility":0.4599,"metro_line_density":4.9341,"station_count":1,"line_count":1,"population_density":74366.5201,"poi_density":0.0,"poi_diversity":0.0,"gdp_density":6559.4929,"P":74366.5201,"I":0.0,"G":6559.4929},{"stationName":"深圳莲塘(地铁站)","station_id":"深圳莲塘(地铁站)_22.56689_114.16932","lineId":"深圳地铁2号线","lat":22.56689319,"lon":114.16932174,"area_km2":1.6003,"D":0.3332,"C":0.9691,"T":0.1145,"U1":0.1428,"U2":0.0863,"couplingDegree":0.3332,"level":"中度失调","road_density":25.0486,"walk_accessibility":0.3208,"metro_line_density":2.3281,"station_count":3,"line_count":1,"population_density":3488.1797,"poi_density":0.0,"poi_diversity":0.0,"gdp_density":6686.195,"P":3488.1797,"I":0.0,"G":6686.195},{"stationName":"深圳海山(地铁站)","station_id":"深圳海山(地铁站)_22.55840_114.23288","lineId":"深圳地铁2号线","lat":22.55839839,"lon":114.23287589,"area_km2":2.4557,"D":0.3485,"C":0.9997,"T":0.1215,"U1":0.1185,"U2":0.1245,"couplingDegree":0.3485,"level":"中度失调","road_density":24.8881,"walk_accessibility":0.4924,"metro_line_density":2.0681,"station_count":2,"line_count":1,"population_density":2185.8982,"poi_density":0.0,"poi_diversity":0.0,"gdp_density":11864.735,"P":2185.8982,"I":0.0,"G":11864.735},{"stationName":"深圳大梅沙(地铁站)","station_id":"深圳大梅沙(地铁站)_22.59690_114.30297","lineId":"深圳地铁2号线","lat":22.59689826,"lon":114.30297058,"area_km2":1.0853,"D":0.0001,"C":0.0,"T":0.0519,"U1":0.1037,"U2":0.0,"couplingDegree":0.0001,"level":"极度失调","road_density":30.5991,"walk_accessibility":0.2176,"metro_line_density":4.7695,"station_count":1,"line_count":1,"population_density":0.0,"poi_density":0.0,"poi_diversity":0.0,"gdp_density":0.0,"P":0.0,"I":0.0,"G":0.0},{"stationName":"深圳赤湾(地铁站)","station_id":"深圳赤湾(地铁站)_22.48228_113.89266","lineId":"深圳地铁2号线","lat":22.48228075,"lon":113.8926602,"area_km2":1.6622,"D":0.196,"C":0.9954,"T":0.0386,"U1":0.0423,"U2":0.0349,"couplingDegree":0.196,"level":"极度失调","road_density":24.4097,"walk_accessibility":0.3333,"metro_line_density":1.0588,"station_count":1,"line_count":1,"population_density":4878.5523,"poi_density":0.0,"poi_diversity":0.0,"gdp_density":0.0,"P":4878.5523,"I":0.0,"G":0.0},{"stationName":"深圳蛇口港(地铁站)","station_id":"深圳蛇口港(地铁站)_22.47968_113.90747","lineId":"深圳地铁2号线","lat":22.47967754,"lon":113.90747461,"area_km2":2.1905,"D":0.428,"C":0.9691,"T":0.189,"U1":0.2356,"U2":0.1424,"couplingDegree":0.428,"level":"勉强协调","road_density":27.7748,"walk_accessibility":0.4392,"metro_line_density":3.1902,"station_count":2,"line_count":2,"population_density":11008.763,"poi_density":0.0,"poi_diversity":0.0,"gdp_density":6939.2148,"P":11008.763,"I":0.0,"G":6939.2148},{"stationName":"深圳海上世界(地铁站)","station_id":"深圳海上世界(地铁站)_22.48836_113.90973","lineId":"深圳地铁12号线 / 深圳地铁2号线","lat":22.488362535,"lon":113.90973415,"area_km2":2.6632,"D":0.5284,"C":0.9999,"T":0.2792,"U1":0.2753,"U2":0.2831,"couplingDegree":0.5284,"level":"勉强协调","road_density":25.9258,"walk_accessibility":0.534,"metro_line_density":2.7669,"station_count":3,"line_count":2,"population_density":24925.1238,"poi_density":0.0,"poi_diversity":0.0,"gdp_density":11419.1727,"P":24925.1238,"I":0.0,"G":11419.1727},{"stationName":"深圳水湾(地铁站)","station_id":"深圳水湾(地铁站)_22.49144_113.91483","lineId":"深圳地铁2号线","lat":22.49143653,"lon":113.91482918,"area_km2":2.9719,"D":0.6217,"C":0.9995,"T":0.3868,"U1":0.3744,"U2":0.3991,"couplingDegree":0.6217,"level":"良好协调","road_density":26.5,"walk_accessibility":0.5959,"metro_line_density":2.2666,"station_count":3,"line_count":3,"population_density":49226.867,"poi_density":0.0,"poi_diversity":0.0,"gdp_density":5118.1946,"P":49226.867,"I":0.0,"G":5118.1946},{"stationName":"深圳东角头(地铁站)","station_id":"深圳东角头(地铁站)_22.48908_113.92671","lineId":"深圳地铁13号线 / 深圳地铁2号线","lat":22.489081140000003,"lon":113.92670812,"area_km2":2.7311,"D":0.5279,"C":0.9999,"T":0.2787,"U1":0.2756,"U2":0.2818,"couplingDegree":0.5279,"level":"勉强协调","road_density":30.3926,"walk_accessibility":0.5476,"metro_line_density":1.9106,"station_count":3,"line_count":2,"population_density":32257.347,"poi_density":0.0,"poi_diversity":0.0,"gdp_density":5566.7896,"P":32257.347,"I":0.0,"G":5566.7896},{"stationName":"深圳海月(地铁站)","station_id":"深圳海月(地铁站)_22.50343_113.93285","lineId":"深圳地铁2号线","lat":22.50343499,"lon":113.9328472,"area_km2":3.0329,"D":0.3959,"C":0.9472,"T":0.1655,"U1":0.2185,"U2":0.1124,"couplingDegree":0.3959,"level":"中度失调","road_density":39.746,"walk_accessibility":0.6081,"metro_line_density":2.4359,"station_count":3,"line_count":1,"population_density":2854.691,"poi_density":0.0,"poi_diversity":0.0,"gdp_density":10026.7972,"P":2854.691,"I":0.0,"G":10026.7972},{"stationName":"深圳登良(地铁站)","station_id":"深圳登良(地铁站)_22.51217_113.93273","lineId":"深圳地铁2号线","lat":22.51217143,"lon":113.93273309,"area_km2":3.0466,"D":0.3668,"C":0.7038,"T":0.1912,"U1":0.3269,"U2":0.0554,"couplingDegree":0.3668,"level":"中度失调","road_density":39.3234,"walk_accessibility":0.6108,"metro_line_density":3.1542,"station_count":3,"line_count":2,"population_density":1326.7059,"poi_density":0.0,"poi_diversity":0.0,"gdp_density":4998.8289,"P":1326.7059,"I":0.0,"G":4998.8289},{"stationName":"深圳科苑(地铁站)","station_id":"深圳科苑(地铁站)_22.53003_113.94132","lineId":"深圳地铁2号线","lat":22.53002996,"lon":113.94131533,"area_km2":3.1318,"D":0.3793,"C":0.7978,"T":0.1803,"U1":0.289,"U2":0.0716,"couplingDegree":0.3793,"level":"中度失调","road_density":38.2572,"walk_accessibility":0.6279,"metro_line_density":3.3521,"station_count":2,"line_count":2,"population_density":2807.3661,"poi_density":0.0,"poi_diversity":0.0,"gdp_density":5615.1884,"P":2807.3661,"I":0.0,"G":5615.1884},{"stationName":"深圳红树湾(地铁站)","station_id":"深圳红树湾(地铁站)_22.52810_113.96351","lineId":"深圳地铁2号线","lat":22.52810144,"lon":113.96351323,"area_km2":1.7324,"D":0.3882,"C":0.9996,"T":0.1508,"U1":0.1552,"U2":0.1463,"couplingDegree":0.3882,"level":"中度失调","road_density":30.1136,"walk_accessibility":0.3473,"metro_line_density":7.1564,"station_count":1,"line_count":1,"population_density":13361.0031,"poi_density":0.0,"poi_diversity":0.0,"gdp_density":5531.7182,"P":13361.0031,"I":0.0,"G":5531.7182},{"stationName":"深圳侨城北(地铁站)","station_id":"深圳侨城北(地铁站)_22.54689_113.98418","lineId":"深圳地铁2号线","lat":22.54689151,"lon":113.98418133,"area_km2":1.5372,"D":0.3862,"C":0.9293,"T":0.1605,"U1":0.2198,"U2":0.1012,"couplingDegree":0.3862,"level":"中度失调","road_density":25.163,"walk_accessibility":0.3082,"metro_line_density":1.0672,"station_count":3,"line_count":2,"population_density":1434.3922,"poi_density":0.0,"poi_diversity":0.0,"gdp_density":9913.1576,"P":1434.3922,"I":0.0,"G":9913.1576},{"stationName":"深圳深康(地铁站)","station_id":"深圳深康(地铁站)_22.54933_113.99385","lineId":"深圳地铁2号线","lat":22.54932677,"lon":113.99385475,"area_km2":1.2395,"D":0.4197,"C":0.9319,"T":0.189,"U1":0.2576,"U2":0.1204,"couplingDegree":0.4197,"level":"勉强协调","road_density":25.2256,"walk_accessibility":0.2485,"metro_line_density":3.9161,"station_count":3,"line_count":2,"population_density":1070.5783,"poi_density":0.0,"poi_diversity":0.0,"gdp_density":12292.2397,"P":1070.5783,"I":0.0,"G":12292.2397},{"stationName":"深圳安托山(地铁站)","station_id":"深圳安托山(地铁站)_22.55163_114.00123","lineId":"深圳地铁2号线 / 深圳地铁7号线","lat":22.55163211,"lon":114.00122526999999,"area_km2":1.5554,"D":0.4173,"C":0.9219,"T":0.1889,"U1":0.2621,"U2":0.1157,"couplingDegree":0.4173,"level":"勉强协调","road_density":23.9415,"walk_accessibility":0.3119,"metro_line_density":3.9431,"station_count":3,"line_count":2,"population_density":3597.7732,"poi_density":0.0,"poi_diversity":0.0,"gdp_density":9808.5804,"P":3597.7732,"I":0.0,"G":9808.5804},{"stationName":"深圳侨香(地铁站)","station_id":"深圳侨香(地铁站)_22.55261_114.00935","lineId":"深圳地铁2号线","lat":22.55260751,"lon":114.00934651,"area_km2":2.5758,"D":0.5291,"C":1.0,"T":0.28,"U1":0.2804,"U2":0.2795,"couplingDegree":0.5291,"level":"勉强协调","road_density":28.2515,"walk_accessibility":0.5164,"metro_line_density":2.8202,"station_count":3,"line_count":2,"population_density":8718.3881,"poi_density":0.0,"poi_diversity":0.0,"gdp_density":23665.0526,"P":8718.3881,"I":0.0,"G":23665.0526},{"stationName":"深圳香蜜(地铁站)","station_id":"深圳香蜜(地铁站)_22.55557_114.01880","lineId":"深圳地铁2号线","lat":22.55556774,"lon":114.01879815,"area_km2":2.0413,"D":0.3819,"C":0.9791,"T":0.149,"U1":0.1792,"U2":0.1187,"couplingDegree":0.3819,"level":"中度失调","road_density":31.6247,"walk_accessibility":0.4093,"metro_line_density":2.8435,"station_count":3,"line_count":1,"population_density":7013.2204,"poi_density":0.0,"poi_diversity":0.0,"gdp_density":7469.1228,"P":7013.2204,"I":0.0,"G":7469.1228},{"stationName":"深圳香梅北(地铁站)","station_id":"深圳香梅北(地铁站)_22.55663_114.02764","lineId":"深圳地铁2号线","lat":22.5566329,"lon":114.02764343,"area_km2":2.0293,"D":0.415,"C":0.9927,"T":0.1735,"U1":0.1944,"U2":0.1526,"couplingDegree":0.415,"level":"勉强协调","road_density":26.5372,"walk_accessibility":0.4069,"metro_line_density":4.7073,"station_count":3,"line_count":1,"population_density":11711.9921,"poi_density":0.0,"poi_diversity":0.0,"gdp_density":7504.2072,"P":11711.9921,"I":0.0,"G":7504.2072},{"stationName":"深圳莲花西(地铁站)","station_id":"深圳莲花西(地铁站)_22.54940_114.04493","lineId":"深圳地铁2号线","lat":22.54939978,"lon":114.04492966,"area_km2":2.8644,"D":0.5641,"C":0.8538,"T":0.3728,"U1":0.5669,"U2":0.1787,"couplingDegree":0.5641,"level":"勉强协调","road_density":31.2196,"walk_accessibility":0.5743,"metro_line_density":5.0734,"station_count":4,"line_count":4,"population_density":11352.2212,"poi_density":0.0,"poi_diversity":0.0,"gdp_density":10621.4795,"P":11352.2212,"I":0.0,"G":10621.4795},{"stationName":"深圳市民中心(地铁站)","station_id":"深圳市民中心(地铁站)_22.54396_114.05625","lineId":"深圳地铁2号线 / 深圳地铁4号线","lat":22.54396157,"lon":114.05624833499999,"area_km2":2.9712,"D":0.6078,"C":0.6727,"T":0.5492,"U1":0.9555,"U2":0.1428,"couplingDegree":0.6078,"level":"良好协调","road_density":39.3949,"walk_accessibility":0.5957,"metro_line_density":8.0965,"station_count":7,"line_count":6,"population_density":6847.4866,"poi_density":0.0,"poi_diversity":0.0,"gdp_density":10226.0065,"P":6847.4866,"I":0.0,"G":10226.0065},{"stationName":"深圳华强北(地铁站)","station_id":"深圳华强北(地铁站)_22.54662_114.08091","lineId":"深圳地铁2号线 / 深圳地铁7号线","lat":22.54661839,"lon":114.080908915,"area_km2":3.0984,"D":0.7439,"C":0.9956,"T":0.5558,"U1":0.6078,"U2":0.5037,"couplingDegree":0.7439,"level":"良好协调","road_density":28.9543,"walk_accessibility":0.6212,"metro_line_density":7.7189,"station_count":4,"line_count":4,"population_density":57844.7625,"poi_density":0.0,"poi_diversity":0.0,"gdp_density":9796.5254,"P":57844.7625,"I":0.0,"G":9796.5254},{"stationName":"深圳燕南(地铁站)","station_id":"深圳燕南(地铁站)_22.54722_114.08743","lineId":"深圳地铁2号线","lat":22.54722282,"lon":114.08743455,"area_km2":2.7574,"D":0.8077,"C":0.9938,"T":0.6564,"U1":0.5836,"U2":0.7293,"couplingDegree":0.8077,"level":"优质协调","road_density":27.3696,"walk_accessibility":0.5529,"metro_line_density":6.9653,"station_count":4,"line_count":4,"population_density":87828.123,"poi_density":0.0,"poi_diversity":0.0,"gdp_density":11002.9791,"P":87828.123,"I":0.0,"G":11002.9791},{"stationName":"深圳湖贝(地铁站)","station_id":"深圳湖贝(地铁站)_22.54674_114.11873","lineId":"深圳地铁2号线 / 深圳地铁5号线","lat":22.546738225,"lon":114.11872700500001,"area_km2":2.9587,"D":0.8473,"C":0.9982,"T":0.7192,"U1":0.6764,"U2":0.762,"couplingDegree":0.8473,"level":"优质协调","road_density":30.0435,"walk_accessibility":0.5932,"metro_line_density":8.4269,"station_count":3,"line_count":5,"population_density":89587.097,"poi_density":0.0,"poi_diversity":0.0,"gdp_density":13201.9931,"P":89587.097,"I":0.0,"G":13201.9931},{"stationName":"深圳新秀(地铁站)","station_id":"深圳新秀(地铁站)_22.55046_114.14411","lineId":"深圳地铁2号线","lat":22.55045888,"lon":114.14411389,"area_km2":1.9422,"D":0.4341,"C":0.9555,"T":0.1972,"U1":0.1391,"U2":0.2554,"couplingDegree":0.4341,"level":"勉强协调","road_density":30.7061,"walk_accessibility":0.3894,"metro_line_density":3.1497,"station_count":2,"line_count":1,"population_density":29325.1865,"poi_density":0.0,"poi_diversity":0.0,"gdp_density":4973.2327,"P":29325.1865,"I":0.0,"G":4973.2327},{"stationName":"深圳莲塘口岸(地铁站)","station_id":"深圳莲塘口岸(地铁站)_22.55609_114.15032","lineId":"深圳地铁2号线","lat":22.55608627,"lon":114.15032224,"area_km2":2.0784,"D":0.323,"C":0.976,"T":0.1069,"U1":0.1302,"U2":0.0836,"couplingDegree":0.323,"level":"中度失调","road_density":33.0081,"walk_accessibility":0.4167,"metro_line_density":1.9813,"station_count":2,"line_count":1,"population_density":5726.0532,"poi_density":0.0,"poi_diversity":0.0,"gdp_density":4647.393,"P":5726.0532,"I":0.0,"G":4647.393},{"stationName":"深圳仙湖路(地铁站)","station_id":"深圳仙湖路(地铁站)_22.56667_114.16124","lineId":"深圳地铁2号线","lat":22.56666831,"lon":114.16123801,"area_km2":1.9267,"D":0.3449,"C":0.9974,"T":0.1192,"U1":0.1107,"U2":0.1278,"couplingDegree":0.3449,"level":"中度失调","road_density":27.1013,"walk_accessibility":0.3863,"metro_line_density":1.9887,"station_count":2,"line_count":1,"population_density":3613.9003,"poi_density":0.0,"poi_diversity":0.0,"gdp_density":11114.1193,"P":3613.9003,"I":0.0,"G":11114.1193},{"stationName":"深圳梧桐山南(地铁站)","station_id":"深圳梧桐山南(地铁站)_22.56064_114.17826","lineId":"深圳地铁2号线","lat":22.56064201,"lon":114.17826102,"area_km2":1.3061,"D":0.2118,"C":0.8086,"T":0.0555,"U1":0.0881,"U2":0.0228,"couplingDegree":0.2118,"level":"中度失调","road_density":23.2101,"walk_accessibility":0.2619,"metro_line_density":2.1647,"station_count":2,"line_count":1,"population_density":3191.1877,"poi_density":0.0,"poi_diversity":0.0,"gdp_density":0.0,"P":3191.1877,"I":0.0,"G":0.0},{"stationName":"深圳沙头角(地铁站)","station_id":"深圳沙头角(地铁站)_22.55720_114.21831","lineId":"深圳地铁2号线","lat":22.55719981,"lon":114.21830687,"area_km2":1.5197,"D":0.3349,"C":0.9094,"T":0.1233,"U1":0.072,"U2":0.1746,"couplingDegree":0.3349,"level":"中度失调","road_density":24.8487,"walk_accessibility":0.3047,"metro_line_density":3.0911,"station_count":1,"line_count":1,"population_density":0.0,"poi_density":0.0,"poi_diversity":0.0,"gdp_density":19031.7895,"P":0.0,"I":0.0,"G":19031.7895},{"stationName":"深圳盐田港西(地铁站)","station_id":"深圳盐田港西(地铁站)_22.56540_114.24207","lineId":"深圳地铁2号线","lat":22.56539901,"lon":114.24207222,"area_km2":1.4895,"D":0.3409,"C":0.9799,"T":0.1186,"U1":0.0949,"U2":0.1423,"couplingDegree":0.3409,"level":"中度失调","road_density":22.3874,"walk_accessibility":0.2986,"metro_line_density":2.4665,"station_count":2,"line_count":1,"population_density":7207.3169,"poi_density":0.0,"poi_diversity":0.0,"gdp_density":9888.6183,"P":7207.3169,"I":0.0,"G":9888.6183},{"stationName":"深圳深外高中(地铁站)","station_id":"深圳深外高中(地铁站)_22.58664_114.23968","lineId":"深圳地铁2号线","lat":22.58664442,"lon":114.23968018,"area_km2":1.6115,"D":0.3252,"C":0.7862,"T":0.1345,"U1":0.0514,"U2":0.2176,"couplingDegree":0.3252,"level":"中度失调","road_density":23.7764,"walk_accessibility":0.3231,"metro_line_density":1.8225,"station_count":1,"line_count":1,"population_density":199.8144,"poi_density":0.0,"poi_diversity":0.0,"gdp_density":23562.5866,"P":199.8144,"I":0.0,"G":23562.5866},{"stationName":"深圳盐田路(地铁站)","station_id":"深圳盐田路(地铁站)_22.59182_114.25083","lineId":"深圳地铁2号线","lat":22.59181889,"lon":114.25082746,"area_km2":1.7512,"D":0.4577,"C":0.9426,"T":0.2222,"U1":0.1481,"U2":0.2964,"couplingDegree":0.4577,"level":"勉强协调","road_density":30.7785,"walk_accessibility":0.3511,"metro_line_density":3.9998,"station_count":2,"line_count":1,"population_density":9077.1485,"poi_density":0.0,"poi_diversity":0.0,"gdp_density":25228.7712,"P":9077.1485,"I":0.0,"G":25228.7712},{"stationName":"深圳鸿安围(地铁站)","station_id":"深圳鸿安围(地铁站)_22.59340_114.25940","lineId":"深圳地铁2号线","lat":22.59340146,"lon":114.25940312,"area_km2":1.7925,"D":0.4613,"C":0.9298,"T":0.2289,"U1":0.3131,"U2":0.1446,"couplingDegree":0.4613,"level":"勉强协调","road_density":30.6346,"walk_accessibility":0.3594,"metro_line_density":5.6757,"station_count":3,"line_count":2,"population_density":9726.0176,"poi_density":0.0,"poi_diversity":0.0,"gdp_density":8179.2611,"P":9726.0176,"I":0.0,"G":8179.2611},{"stationName":"深圳盐田墟(地铁站)","station_id":"深圳盐田墟(地铁站)_22.59019_114.27115","lineId":"深圳地铁2号线 / 深圳地铁8号线","lat":22.590188695000002,"lon":114.271147555,"area_km2":1.5697,"D":0.2372,"C":0.4112,"T":0.1368,"U1":0.2614,"U2":0.0121,"couplingDegree":0.2372,"level":"中度失调","road_density":33.1172,"walk_accessibility":0.3147,"metro_line_density":4.8488,"station_count":2,"line_count":2,"population_density":1691.4407,"poi_density":0.0,"poi_diversity":0.0,"gdp_density":0.0,"P":1691.4407,"I":0.0,"G":0.0},{"stationName":"深圳小梅沙(地铁站)","station_id":"深圳小梅沙(地铁站)_22.60485_114.32147","lineId":"深圳地铁2号线 / 深圳地铁8号线","lat":22.60484711,"lon":114.321470845,"area_km2":0.7163,"D":0.0002,"C":0.0,"T":0.0752,"U1":0.1503,"U2":0.0,"couplingDegree":0.0002,"level":"极度失调","road_density":24.9031,"walk_accessibility":0.1436,"metro_line_density":3.0414,"station_count":1,"line_count":2,"population_density":0.0,"poi_density":0.0,"poi_diversity":0.0,"gdp_density":0.0,"P":0.0,"I":0.0,"G":0.0},{"stationName":"深圳少年宫(地铁站)","station_id":"深圳少年宫(地铁站)_22.55074_114.05541","lineId":"深圳地铁3号线 / 深圳地铁4号线","lat":22.550741715,"lon":114.05541320500001,"area_km2":2.5826,"D":0.5858,"C":0.7799,"T":0.4399,"U1":0.7153,"U2":0.1646,"couplingDegree":0.5858,"level":"勉强协调","road_density":32.3047,"walk_accessibility":0.5178,"metro_line_density":5.965,"station_count":5,"line_count":5,"population_density":7906.3292,"poi_density":0.0,"poi_diversity":0.0,"gdp_density":11773.3155,"P":7906.3292,"I":0.0,"G":11773.3155},{"stationName":"深圳牛湖(地铁站)","station_id":"深圳牛湖(地铁站)_22.72726_114.08411","lineId":"深圳地铁4号线","lat":22.72725802,"lon":114.08411467,"area_km2":1.56,"D":0.2369,"C":0.8311,"T":0.0675,"U1":0.03,"U2":0.1051,"couplingDegree":0.2369,"level":"中度失调","road_density":17.1147,"walk_accessibility":0.3128,"metro_line_density":1.6907,"station_count":1,"line_count":1,"population_density":7273.9474,"poi_density":0.0,"poi_diversity":0.0,"gdp_density":5778.6253,"P":7273.9474,"I":0.0,"G":5778.6253},{"stationName":"深圳观澜湖(地铁站)","station_id":"深圳观澜湖(地铁站)_22.72428_114.07113","lineId":"深圳地铁4号线","lat":22.72427559,"lon":114.07113091,"area_km2":1.2936,"D":0.3789,"C":0.9448,"T":0.1519,"U1":0.2017,"U2":0.1022,"couplingDegree":0.3789,"level":"中度失调","road_density":20.3123,"walk_accessibility":0.2594,"metro_line_density":3.6799,"station_count":2,"line_count":2,"population_density":0.0,"poi_density":0.0,"poi_diversity":0.0,"gdp_density":11135.5648,"P":0.0,"I":0.0,"G":11135.5648},{"stationName":"深圳松元厦(地铁站)","station_id":"深圳松元厦(地铁站)_22.72377_114.05923","lineId":"深圳地铁22号线 / 深圳地铁4号线","lat":22.723765653333334,"lon":114.05923284333333,"area_km2":1.3535,"D":0.5063,"C":0.9961,"T":0.2573,"U1":0.28,"U2":0.2347,"couplingDegree":0.5063,"level":"勉强协调","road_density":20.3143,"walk_accessibility":0.2714,"metro_line_density":6.0172,"station_count":3,"line_count":2,"population_density":5497.6986,"poi_density":0.0,"poi_diversity":0.0,"gdp_density":21290.7996,"P":5497.6986,"I":0.0,"G":21290.7996},{"stationName":"深圳观澜(地铁站)","station_id":"深圳观澜(地铁站)_22.71786_114.04965","lineId":"深圳地铁4号线","lat":22.71786435,"lon":114.04964981,"area_km2":1.3761,"D":0.4189,"C":0.9313,"T":0.1884,"U1":0.257,"U2":0.1198,"couplingDegree":0.4189,"level":"勉强协调","road_density":21.9361,"walk_accessibility":0.2759,"metro_line_density":4.2415,"station_count":3,"line_count":2,"population_density":3314.3852,"poi_density":0.0,"poi_diversity":0.0,"gdp_density":10472.8873,"P":3314.3852,"I":0.0,"G":10472.8873},{"stationName":"深圳长湖(地铁站)","station_id":"深圳长湖(地铁站)_22.71348_114.03969","lineId":"深圳地铁4号线","lat":22.71347934,"lon":114.039689,"area_km2":1.6049,"D":0.3891,"C":0.9628,"T":0.1573,"U1":0.1148,"U2":0.1997,"couplingDegree":0.3891,"level":"中度失调","road_density":23.6311,"walk_accessibility":0.3218,"metro_line_density":3.3393,"station_count":2,"line_count":1,"population_density":9543.2322,"poi_density":0.0,"poi_diversity":0.0,"gdp_density":14325.7962,"P":9543.2322,"I":0.0,"G":14325.7962},{"stationName":"深圳茜坑(地铁站)","station_id":"深圳茜坑(地铁站)_22.69998_114.03599","lineId":"深圳地铁4号线","lat":22.69998229,"lon":114.03598751,"area_km2":1.3555,"D":0.413,"C":0.9669,"T":0.1764,"U1":0.1314,"U2":0.2214,"couplingDegree":0.413,"level":"勉强协调","road_density":28.1287,"walk_accessibility":0.2718,"metro_line_density":3.9953,"station_count":2,"line_count":1,"population_density":3535.8639,"poi_density":0.0,"poi_diversity":0.0,"gdp_density":21368.6874,"P":3535.8639,"I":0.0,"G":21368.6874},{"stationName":"深圳竹村(地铁站)","station_id":"深圳竹村(地铁站)_22.68946_114.03521","lineId":"深圳地铁4号线","lat":22.68945995,"lon":114.03521228,"area_km2":1.8471,"D":0.3558,"C":0.9977,"T":0.1269,"U1":0.1183,"U2":0.1354,"couplingDegree":0.3558,"level":"中度失调","road_density":29.4765,"walk_accessibility":0.3703,"metro_line_density":2.187,"station_count":2,"line_count":1,"population_density":2233.7849,"poi_density":0.0,"poi_diversity":0.0,"gdp_density":13011.1402,"P":2233.7849,"I":0.0,"G":13011.1402},{"stationName":"深圳清湖北(地铁站)","station_id":"深圳清湖北(地铁站)_22.67482_114.03532","lineId":"深圳地铁4号线","lat":22.67482194,"lon":114.03532095,"area_km2":1.4442,"D":0.3841,"C":0.9475,"T":0.1557,"U1":0.1059,"U2":0.2055,"couplingDegree":0.3841,"level":"中度失调","road_density":29.6778,"walk_accessibility":0.2896,"metro_line_density":1.972,"station_count":2,"line_count":1,"population_density":7251.7336,"poi_density":0.0,"poi_diversity":0.0,"gdp_density":16746.2283,"P":7251.7336,"I":0.0,"G":16746.2283},{"stationName":"深圳清湖(地铁站)","station_id":"深圳清湖(地铁站)_22.66683_114.03145","lineId":"深圳地铁4号线","lat":22.66683012,"lon":114.03144992,"area_km2":1.6315,"D":0.4054,"C":0.9497,"T":0.1731,"U1":0.1189,"U2":0.2273,"couplingDegree":0.4054,"level":"勉强协调","road_density":26.2105,"walk_accessibility":0.3271,"metro_line_density":3.1148,"station_count":2,"line_count":1,"population_density":1323.9732,"poi_density":0.0,"poi_diversity":0.0,"gdp_density":23736.4036,"P":1323.9732,"I":0.0,"G":23736.4036},{"stationName":"深圳龙华(地铁站)","station_id":"深圳龙华(地铁站)_22.65486_114.01800","lineId":"深圳地铁25号线 / 深圳地铁4号线","lat":22.6548649375,"lon":114.01800384500001,"area_km2":2.2203,"D":0.4267,"C":0.9839,"T":0.185,"U1":0.218,"U2":0.152,"couplingDegree":0.4267,"level":"勉强协调","road_density":27.6286,"walk_accessibility":0.4452,"metro_line_density":4.6058,"station_count":1,"line_count":2,"population_density":4453.3868,"poi_density":0.0,"poi_diversity":0.0,"gdp_density":13092.1956,"P":4453.3868,"I":0.0,"G":13092.1956},{"stationName":"深圳龙胜(地铁站)","station_id":"深圳龙胜(地铁站)_22.64756_114.00698","lineId":"深圳地铁4号线","lat":22.64755658,"lon":114.00697831,"area_km2":1.8676,"D":0.4085,"C":0.9999,"T":0.1669,"U1":0.1641,"U2":0.1696,"couplingDegree":0.4085,"level":"勉强协调","road_density":36.3661,"walk_accessibility":0.3744,"metro_line_density":3.8783,"station_count":2,"line_count":1,"population_density":3764.2068,"poi_density":0.0,"poi_diversity":0.0,"gdp_density":15552.148,"P":3764.2068,"I":0.0,"G":15552.148},{"stationName":"深圳上塘(地铁站)","station_id":"深圳上塘(地铁站)_22.63987_114.00781","lineId":"深圳地铁4号线","lat":22.63987266,"lon":114.00780504,"area_km2":2.0275,"D":0.4053,"C":0.9997,"T":0.1644,"U1":0.1685,"U2":0.1602,"couplingDegree":0.4053,"level":"勉强协调","road_density":37.1397,"walk_accessibility":0.4065,"metro_line_density":3.7796,"station_count":2,"line_count":1,"population_density":4043.8869,"poi_density":0.0,"poi_diversity":0.0,"gdp_density":14310.9663,"P":4043.8869,"I":0.0,"G":14310.9663},{"stationName":"深圳红山(地铁站)","station_id":"深圳红山(地铁站)_22.62453_114.01841","lineId":"深圳地铁4号线 / 深圳地铁6号线","lat":22.624534505,"lon":114.01840748000001,"area_km2":2.3317,"D":0.3869,"C":0.8879,"T":0.1686,"U1":0.2462,"U2":0.0911,"couplingDegree":0.3869,"level":"中度失调","road_density":41.1422,"walk_accessibility":0.4675,"metro_line_density":3.8896,"station_count":1,"line_count":2,"population_density":146.2453,"poi_density":0.0,"poi_diversity":0.0,"gdp_density":9810.7431,"P":146.2453,"I":0.0,"G":9810.7431},{"stationName":"深圳深圳北站(地铁站)","station_id":"深圳深圳北站(地铁站)_22.61326_114.02550","lineId":"深圳地铁4号线 / 深圳地铁5号线 / 深圳地铁6号线","lat":22.61325544,"lon":114.02550389333332,"area_km2":2.298,"D":0.3854,"C":0.7062,"T":0.2103,"U1":0.3592,"U2":0.0614,"couplingDegree":0.3854,"level":"中度失调","road_density":36.038,"walk_accessibility":0.4607,"metro_line_density":5.7792,"station_count":1,"line_count":3,"population_density":511.7486,"poi_density":0.0,"poi_diversity":0.0,"gdp_density":6291.8458,"P":511.7486,"I":0.0,"G":6291.8458},{"stationName":"深圳白石龙(地铁站)","station_id":"深圳白石龙(地铁站)_22.60450_114.03695","lineId":"深圳地铁27号线 / 深圳地铁4号线","lat":22.604503125,"lon":114.03694687999999,"area_km2":2.332,"D":0.4772,"C":0.8569,"T":0.2658,"U1":0.4028,"U2":0.1288,"couplingDegree":0.4772,"level":"勉强协调","road_density":34.2758,"walk_accessibility":0.4676,"metro_line_density":6.2547,"station_count":2,"line_count":3,"population_density":10059.1073,"poi_density":0.0,"poi_diversity":0.0,"gdp_density":6190.3916,"P":10059.1073,"I":0.0,"G":6190.3916},{"stationName":"深圳民乐(地铁站)","station_id":"深圳民乐(地铁站)_22.59706_114.04402","lineId":"深圳地铁22号线 / 深圳地铁4号线","lat":22.597057956666664,"lon":114.04402448,"area_km2":2.339,"D":0.4264,"C":0.7527,"T":0.2416,"U1":0.4006,"U2":0.0825,"couplingDegree":0.4264,"level":"勉强协调","road_density":39.3544,"walk_accessibility":0.469,"metro_line_density":5.2272,"station_count":2,"line_count":3,"population_density":6916.6387,"poi_density":0.0,"poi_diversity":0.0,"gdp_density":3602.2379,"P":6916.6387,"I":0.0,"G":3602.2379},{"stationName":"深圳上梅林(地铁站)","station_id":"深圳上梅林(地铁站)_22.57216_114.05480","lineId":"深圳地铁4号线 / 深圳地铁9号线","lat":22.57216071,"lon":114.05480460999999,"area_km2":2.56,"D":0.4863,"C":0.9632,"T":0.2455,"U1":0.3115,"U2":0.1795,"couplingDegree":0.4863,"level":"勉强协调","road_density":33.5153,"walk_accessibility":0.5133,"metro_line_density":6.4707,"station_count":2,"line_count":2,"population_density":9827.3104,"poi_density":0.0,"poi_diversity":0.0,"gdp_density":11900.5867,"P":9827.3104,"I":0.0,"G":11900.5867},{"stationName":"深圳莲花北(地铁站)","station_id":"深圳莲花北(地铁站)_22.56325_114.05429","lineId":"深圳地铁4号线","lat":22.56325145,"lon":114.0542851,"area_km2":2.4581,"D":0.5163,"C":0.9966,"T":0.2675,"U1":0.2896,"U2":0.2453,"couplingDegree":0.5163,"level":"勉强协调","road_density":35.1172,"walk_accessibility":0.4929,"metro_line_density":4.9534,"station_count":2,"line_count":2,"population_density":18401.242,"poi_density":0.0,"poi_diversity":0.0,"gdp_density":12391.7424,"P":18401.242,"I":0.0,"G":12391.7424},{"stationName":"深圳福民(地铁站)","station_id":"深圳福民(地铁站)_22.52669_114.06120","lineId":"深圳地铁10号线 / 深圳地铁4号线 / 深圳地铁7号线","lat":22.526694579999997,"lon":114.06120384333333,"area_km2":2.5736,"D":0.6131,"C":0.9491,"T":0.396,"U1":0.5208,"U2":0.2713,"couplingDegree":0.6131,"level":"良好协调","road_density":34.2155,"walk_accessibility":0.516,"metro_line_density":4.6172,"station_count":3,"line_count":4,"population_density":22807.5212,"poi_density":0.0,"poi_diversity":0.0,"gdp_density":11780.7106,"P":22807.5212,"I":0.0,"G":11780.7106},{"stationName":"深圳福田口岸(地铁站)","station_id":"深圳福田口岸(地铁站)_22.51815_114.06337","lineId":"深圳地铁10号线 / 深圳地铁4号线","lat":22.518145609999998,"lon":114.06336773000001,"area_km2":2.0825,"D":0.5041,"C":0.9561,"T":0.2658,"U1":0.3436,"U2":0.1879,"couplingDegree":0.5041,"level":"勉强协调","road_density":31.4197,"walk_accessibility":0.4175,"metro_line_density":3.3594,"station_count":2,"line_count":3,"population_density":4753.319,"poi_density":0.0,"poi_diversity":0.0,"gdp_density":16770.8689,"P":4753.319,"I":0.0,"G":16770.8689}]}