{"cityCode":"330100","year":2021,"stations":[{"stationName":"杭州萧山国际机场(地铁站)","station_id":"杭州萧山国际机场(地铁站)_30.23786_120.42857","lineId":"杭州地铁1号线","lat":30.23785809,"lon":120.42856623,"area_km2":1.2985,"D":0.3356,"C":0.9908,"T":0.1137,"U1":0.0983,"U2":0.1291,"couplingDegree":0.3356,"level":"中度失调","road_density":45.7704,"walk_accessibility":0.2603,"metro_line_density":3.4465,"station_count":1,"line_count":1,"population_density":2797.1584,"poi_density":5.391,"poi_diversity":0.7963,"gdp_density":29424.0732,"P":2797.1584,"I":5.391,"G":29424.0732},{"stationName":"杭州向阳路(地铁站)","station_id":"杭州向阳路(地铁站)_30.26245_120.43797","lineId":"杭州地铁1号线","lat":30.26244584,"lon":120.43796926,"area_km2":2.3331,"D":0.2183,"C":0.7768,"T":0.0614,"U1":0.1,"U2":0.0227,"couplingDegree":0.2183,"level":"中度失调","road_density":17.1097,"walk_accessibility":0.4678,"metro_line_density":2.0531,"station_count":2,"line_count":1,"population_density":2229.6587,"poi_density":0.0,"poi_diversity":0.0,"gdp_density":30386.7079,"P":2229.6587,"I":0.0,"G":30386.7079},{"stationName":"杭州南阳(地铁站)","station_id":"杭州南阳(地铁站)_30.27240_120.43174","lineId":"杭州地铁1号线","lat":30.27239921,"lon":120.43174277,"area_km2":2.1864,"D":0.2333,"C":0.6037,"T":0.0902,"U1":0.162,"U2":0.0183,"couplingDegree":0.2333,"level":"中度失调","road_density":17.1427,"walk_accessibility":0.4384,"metro_line_density":2.5637,"station_count":3,"line_count":1,"population_density":1409.6166,"poi_density":0.0,"poi_diversity":0.0,"gdp_density":30282.5156,"P":1409.6166,"I":0.0,"G":30282.5156},{"stationName":"杭州港城大道(地铁站)","station_id":"杭州港城大道(地铁站)_30.27295_120.42153","lineId":"杭州地铁1号线","lat":30.27295481,"lon":120.42152534,"area_km2":1.0764,"D":0.1816,"C":0.591,"T":0.0558,"U1":0.1008,"U2":0.0108,"couplingDegree":0.1816,"level":"极度失调","road_density":21.1717,"walk_accessibility":0.2158,"metro_line_density":2.651,"station_count":2,"line_count":1,"population_density":703.2452,"poi_density":0.0,"poi_diversity":0.0,"gdp_density":19823.7122,"P":703.2452,"I":0.0,"G":19823.7122},{"stationName":"杭州杭州大会展中心(地铁站)","station_id":"杭州杭州大会展中心(地铁站)_30.27345_120.40738","lineId":"杭州地铁1号线","lat":30.27345364,"lon":120.40738152,"area_km2":1.0461,"D":0.1405,"C":0.8786,"T":0.0225,"U1":0.0332,"U2":0.0117,"couplingDegree":0.1405,"level":"极度失调","road_density":20.645,"walk_accessibility":0.2097,"metro_line_density":1.6683,"station_count":1,"line_count":1,"population_density":2185.3613,"poi_density":0.0,"poi_diversity":0.0,"gdp_density":0.0,"P":2185.3613,"I":0.0,"G":0.0},{"stationName":"杭州下沙江滨(地铁站)","station_id":"杭州下沙江滨(地铁站)_30.28904_120.37713","lineId":"杭州地铁1号线","lat":30.28904049,"lon":120.37713069,"area_km2":1.4274,"D":0.2523,"C":0.9825,"T":0.0648,"U1":0.0527,"U2":0.0769,"couplingDegree":0.2523,"level":"中度失调","road_density":23.5801,"walk_accessibility":0.2862,"metro_line_density":3.2493,"station_count":1,"line_count":1,"population_density":5260.4655,"poi_density":4.2033,"poi_diversity":0.0,"gdp_density":90409.3907,"P":5260.4655,"I":4.2033,"G":90409.3907},{"stationName":"杭州云水(地铁站)","station_id":"杭州云水(地铁站)_30.30516_120.37719","lineId":"杭州地铁1号线","lat":30.3051638,"lon":120.37719261,"area_km2":2.1961,"D":0.4024,"C":0.9452,"T":0.1713,"U1":0.1154,"U2":0.2273,"couplingDegree":0.4024,"level":"勉强协调","road_density":21.9152,"walk_accessibility":0.4403,"metro_line_density":3.1098,"station_count":2,"line_count":1,"population_density":3421.0426,"poi_density":10.0177,"poi_diversity":1.5124,"gdp_density":36634.2523,"P":3421.0426,"I":10.0177,"G":36634.2523},{"stationName":"杭州文海南路(地铁站)","station_id":"杭州文海南路(地铁站)_30.31326_120.37046","lineId":"杭州地铁1号线","lat":30.31325974,"lon":120.37045962,"area_km2":2.4379,"D":0.4187,"C":0.9397,"T":0.1865,"U1":0.1228,"U2":0.2503,"couplingDegree":0.4187,"level":"勉强协调","road_density":23.0587,"walk_accessibility":0.4888,"metro_line_density":3.5564,"station_count":2,"line_count":1,"population_density":2820.4995,"poi_density":6.1529,"poi_diversity":1.8943,"gdp_density":42405.5292,"P":2820.4995,"I":6.1529,"G":42405.5292},{"stationName":"杭州文泽路(地铁站)","station_id":"杭州文泽路(地铁站)_30.31237_120.34549","lineId":"杭州地铁1号线","lat":30.31237274,"lon":120.34548817,"area_km2":2.8452,"D":0.3878,"C":0.6391,"T":0.2354,"U1":0.0543,"U2":0.4164,"couplingDegree":0.3878,"level":"中度失调","road_density":22.3655,"walk_accessibility":0.5705,"metro_line_density":1.8846,"station_count":1,"line_count":1,"population_density":10145.4522,"poi_density":26.36,"poi_diversity":2.4302,"gdp_density":18138.5193,"P":10145.4522,"I":26.36,"G":18138.5193},{"stationName":"杭州高沙路(地铁站)","station_id":"杭州高沙路(地铁站)_30.31176_120.33086","lineId":"杭州地铁1号线","lat":30.31175969,"lon":120.33086275,"area_km2":2.5378,"D":0.4427,"C":0.8824,"T":0.2221,"U1":0.1176,"U2":0.3266,"couplingDegree":0.4427,"level":"勉强协调","road_density":23.901,"walk_accessibility":0.5088,"metro_line_density":2.3385,"station_count":2,"line_count":1,"population_density":6328.6729,"poi_density":20.096,"poi_diversity":1.9428,"gdp_density":34637.2787,"P":6328.6729,"I":20.096,"G":34637.2787},{"stationName":"杭州金沙湖(地铁站)","station_id":"杭州金沙湖(地铁站)_30.31160_120.32119","lineId":"杭州地铁1号线","lat":30.31160477,"lon":120.32118959,"area_km2":2.1984,"D":0.3964,"C":0.9565,"T":0.1643,"U1":0.1164,"U2":0.2122,"couplingDegree":0.3964,"level":"中度失调","road_density":23.8566,"walk_accessibility":0.4408,"metro_line_density":2.6358,"station_count":2,"line_count":1,"population_density":2277.13,"poi_density":7.733,"poi_diversity":1.4761,"gdp_density":47533.6093,"P":2277.13,"I":7.733,"G":47533.6093},{"stationName":"杭州下沙西(地铁站)","station_id":"杭州下沙西(地铁站)_30.31230_120.30802","lineId":"杭州地铁1号线","lat":30.31230148,"lon":120.30802344,"area_km2":1.888,"D":0.1683,"C":0.8593,"T":0.033,"U1":0.0498,"U2":0.0161,"couplingDegree":0.1683,"level":"极度失调","road_density":20.921,"walk_accessibility":0.3785,"metro_line_density":2.9934,"station_count":1,"line_count":1,"population_density":991.5089,"poi_density":1.0593,"poi_diversity":0.0,"gdp_density":18609.8591,"P":991.5089,"I":1.0593,"G":18609.8591},{"stationName":"杭州客运中心(地铁站)","station_id":"杭州客运中心(地铁站)_30.31358_120.27436","lineId":"杭州地铁1号线","lat":30.31357863,"lon":120.27436154,"area_km2":2.6232,"D":0.4691,"C":0.8879,"T":0.2479,"U1":0.1338,"U2":0.3619,"couplingDegree":0.4691,"level":"勉强协调","road_density":27.8044,"walk_accessibility":0.5259,"metro_line_density":3.5044,"station_count":2,"line_count":1,"population_density":4340.4791,"poi_density":19.0606,"poi_diversity":2.2769,"gdp_density":78560.1562,"P":4340.4791,"I":19.0606,"G":78560.1562},{"stationName":"杭州九堡(地铁站)","station_id":"杭州九堡(地铁站)_30.31018_120.26196","lineId":"杭州地铁1号线","lat":30.31017948,"lon":120.26195949,"area_km2":2.3989,"D":0.419,"C":0.954,"T":0.184,"U1":0.1289,"U2":0.2392,"couplingDegree":0.419,"level":"勉强协调","road_density":26.6407,"walk_accessibility":0.481,"metro_line_density":3.4181,"station_count":2,"line_count":1,"population_density":3947.6731,"poi_density":11.2552,"poi_diversity":1.2238,"gdp_density":132553.8591,"P":3947.6731,"I":11.2552,"G":132553.8591},{"stationName":"杭州九和路(地铁站)","station_id":"杭州九和路(地铁站)_30.30825_120.24831","lineId":"杭州地铁1号线","lat":30.30824777,"lon":120.24830781,"area_km2":2.5291,"D":0.2685,"C":0.9831,"T":0.0733,"U1":0.0599,"U2":0.0867,"couplingDegree":0.2685,"level":"中度失调","road_density":24.9341,"walk_accessibility":0.5071,"metro_line_density":2.3756,"station_count":1,"line_count":1,"population_density":7790.2091,"poi_density":1.977,"poi_diversity":0.0,"gdp_density":104842.0111,"P":7790.2091,"I":1.977,"G":104842.0111},{"stationName":"杭州七堡(地铁站)","station_id":"杭州七堡(地铁站)_30.30245_120.23658","lineId":"杭州地铁1号线","lat":30.30245082,"lon":120.23657975,"area_km2":2.0016,"D":0.3668,"C":0.8125,"T":0.1656,"U1":0.0691,"U2":0.2621,"couplingDegree":0.3668,"level":"中度失调","road_density":31.0887,"walk_accessibility":0.4013,"metro_line_density":2.5834,"station_count":1,"line_count":1,"population_density":7512.0946,"poi_density":2.498,"poi_diversity":1.6094,"gdp_density":128582.9191,"P":7512.0946,"I":2.498,"G":128582.9191},{"stationName":"杭州彭埠(地铁站)","station_id":"杭州彭埠(地铁站)_30.29650_120.21915","lineId":"杭州地铁1号线","lat":30.29650394,"lon":120.2191499,"area_km2":2.4491,"D":0.5532,"C":0.8148,"T":0.3757,"U1":0.5935,"U2":0.1579,"couplingDegree":0.5532,"level":"勉强协调","road_density":26.6482,"walk_accessibility":0.491,"metro_line_density":4.1785,"station_count":5,"line_count":3,"population_density":9069.3655,"poi_density":2.8582,"poi_diversity":0.4101,"gdp_density":156738.4963,"P":9069.3655,"I":2.8582,"G":156738.4963},{"stationName":"杭州火车东站(地铁站)","station_id":"杭州火车东站(地铁站)_30.29389_120.20870","lineId":"杭州地铁1号线","lat":30.29388571,"lon":120.20869609,"area_km2":2.0074,"D":0.5841,"C":0.8558,"T":0.3987,"U1":0.6049,"U2":0.1925,"couplingDegree":0.5841,"level":"勉强协调","road_density":27.6533,"walk_accessibility":0.4025,"metro_line_density":6.2694,"station_count":5,"line_count":3,"population_density":7125.4657,"poi_density":4.4833,"poi_diversity":0.6837,"gdp_density":185887.2793,"P":7125.4657,"I":4.4833,"G":185887.2793},{"stationName":"杭州闸弄口(地铁站)","station_id":"杭州闸弄口(地铁站)_30.28685_120.18776","lineId":"杭州地铁18号线 / 杭州地铁1号线","lat":30.28685303,"lon":120.18775916000001,"area_km2":3.0218,"D":0.5077,"C":0.9876,"T":0.261,"U1":0.22,"U2":0.3021,"couplingDegree":0.5077,"level":"勉强协调","road_density":28.0981,"walk_accessibility":0.6059,"metro_line_density":3.8683,"station_count":1,"line_count":2,"population_density":25616.5795,"poi_density":9.266,"poi_diversity":0.8816,"gdp_density":103801.6178,"P":25616.5795,"I":9.266,"G":103801.6178},{"stationName":"杭州打铁关(地铁站)","station_id":"杭州打铁关(地铁站)_30.28896_120.17305","lineId":"杭州地铁15号线 / 杭州地铁1号线","lat":30.288960553333336,"lon":120.17305302,"area_km2":2.468,"D":0.6203,"C":0.9955,"T":0.3865,"U1":0.423,"U2":0.35,"couplingDegree":0.6203,"level":"良好协调","road_density":27.1836,"walk_accessibility":0.4948,"metro_line_density":5.4688,"station_count":2,"line_count":3,"population_density":17665.2494,"poi_density":15.8022,"poi_diversity":1.6435,"gdp_density":64296.7591,"P":17665.2494,"I":15.8022,"G":64296.7591},{"stationName":"杭州西湖文化广场(地铁站)","station_id":"杭州西湖文化广场(地铁站)_30.28193_120.16097","lineId":"杭州地铁1号线 / 杭州地铁3号线","lat":30.281932545,"lon":120.16097468999999,"area_km2":3.4531,"D":0.6487,"C":0.9373,"T":0.4489,"U1":0.2925,"U2":0.6054,"couplingDegree":0.6487,"level":"良好协调","road_density":35.0141,"walk_accessibility":0.6923,"metro_line_density":2.9979,"station_count":2,"line_count":2,"population_density":33325.3365,"poi_density":29.5386,"poi_diversity":2.7523,"gdp_density":70798.8195,"P":33325.3365,"I":29.5386,"G":70798.8195},{"stationName":"杭州武林广场(地铁站)","station_id":"杭州武林广场(地铁站)_30.27471_120.15966","lineId":"杭州地铁1号线","lat":30.27471313,"lon":120.15965744,"area_km2":3.3783,"D":0.78,"C":0.9997,"T":0.6085,"U1":0.6222,"U2":0.5949,"couplingDegree":0.78,"level":"良好协调","road_density":36.1011,"walk_accessibility":0.6773,"metro_line_density":4.3348,"station_count":5,"line_count":3,"population_density":23523.8198,"poi_density":47.0648,"poi_diversity":2.5601,"gdp_density":50039.0669,"P":23523.8198,"I":47.0648,"G":50039.0669},{"stationName":"杭州凤起路(地铁站)","station_id":"杭州凤起路(地铁站)_30.26504_120.15865","lineId":"杭州地铁1号线 / 杭州地铁2号线","lat":30.265042825000002,"lon":120.158646565,"area_km2":3.5945,"D":0.8057,"C":0.9986,"T":0.6501,"U1":0.6158,"U2":0.6843,"couplingDegree":0.8057,"level":"优质协调","road_density":34.1633,"walk_accessibility":0.7207,"metro_line_density":3.6498,"station_count":5,"line_count":3,"population_density":16815.6759,"poi_density":76.5057,"poi_diversity":2.6505,"gdp_density":48895.2136,"P":16815.6759,"I":76.5057,"G":48895.2136},{"stationName":"杭州龙翔桥(地铁站)","station_id":"杭州龙翔桥(地铁站)_30.25699_120.15939","lineId":"杭州地铁1号线","lat":30.25698972,"lon":120.15938543,"area_km2":3.1923,"D":0.7132,"C":0.9299,"T":0.547,"U1":0.3458,"U2":0.7482,"couplingDegree":0.7132,"level":"良好协调","road_density":35.0936,"walk_accessibility":0.64,"metro_line_density":2.2941,"station_count":3,"line_count":2,"population_density":20922.6772,"poi_density":87.3984,"poi_diversity":2.5754,"gdp_density":67385.7374,"P":20922.6772,"I":87.3984,"G":67385.7374},{"stationName":"杭州定安路(地铁站)","station_id":"杭州定安路(地铁站)_30.24831_120.16310","lineId":"杭州地铁1号线","lat":30.24830914,"lon":120.16309677,"area_km2":3.4626,"D":0.6924,"C":0.9414,"T":0.5092,"U1":0.3375,"U2":0.681,"couplingDegree":0.6924,"level":"良好协调","road_density":29.6591,"walk_accessibility":0.6942,"metro_line_density":2.3571,"station_count":3,"line_count":2,"population_density":21198.7466,"poi_density":65.8472,"poi_diversity":2.6742,"gdp_density":85284.2194,"P":21198.7466,"I":65.8472,"G":85284.2194},{"stationName":"杭州城站(地铁站)","station_id":"杭州城站(地铁站)_30.24710_120.17615","lineId":"杭州地铁1号线","lat":30.24709515,"lon":120.17615188,"area_km2":2.5416,"D":0.7351,"C":0.9743,"T":0.5547,"U1":0.6795,"U2":0.4298,"couplingDegree":0.7351,"level":"良好协调","road_density":29.7229,"walk_accessibility":0.5096,"metro_line_density":4.0659,"station_count":4,"line_count":4,"population_density":20262.5488,"poi_density":26.361,"poi_diversity":1.7649,"gdp_density":96855.7701,"P":20262.5488,"I":26.361,"G":96855.7701},{"stationName":"杭州婺江路(地铁站)","station_id":"杭州婺江路(地铁站)_30.23922_120.18652","lineId":"杭州地铁1号线","lat":30.23921775,"lon":120.18651644,"area_km2":3.2307,"D":0.6496,"C":0.8091,"T":0.5216,"U1":0.828,"U2":0.2151,"couplingDegree":0.6496,"level":"良好协调","road_density":31.3103,"walk_accessibility":0.6477,"metro_line_density":3.9774,"station_count":4,"line_count":5,"population_density":9211.083,"poi_density":14.5481,"poi_diversity":0.5101,"gdp_density":156342.3317,"P":9211.083,"I":14.5481,"G":156342.3317},{"stationName":"杭州近江(地铁站)","station_id":"杭州近江(地铁站)_30.23331_120.19315","lineId":"杭州地铁1号线 / 杭州地铁4号线","lat":30.233312393333335,"lon":120.19315349666665,"area_km2":3.4208,"D":0.5367,"C":0.8765,"T":0.3286,"U1":0.4867,"U2":0.1704,"couplingDegree":0.5367,"level":"勉强协调","road_density":31.8972,"walk_accessibility":0.6859,"metro_line_density":3.2016,"station_count":3,"line_count":3,"population_density":6392.6397,"poi_density":15.7857,"poi_diversity":0.4575,"gdp_density":74398.4812,"P":6392.6397,"I":15.7857,"G":74398.4812},{"stationName":"杭州江陵路(地铁站)","station_id":"杭州江陵路(地铁站)_30.21154_120.21208","lineId":"杭州地铁1号线","lat":30.211540225,"lon":120.21207512,"area_km2":2.7841,"D":0.61,"C":0.994,"T":0.3744,"U1":0.3334,"U2":0.4154,"couplingDegree":0.61,"level":"良好协调","road_density":25.8157,"walk_accessibility":0.5582,"metro_line_density":3.8979,"station_count":3,"line_count":2,"population_density":3179.7937,"poi_density":15.4446,"poi_diversity":2.0523,"gdp_density":353351.4811,"P":3179.7937,"I":15.4446,"G":353351.4811},{"stationName":"杭州滨和路(地铁站)","station_id":"杭州滨和路(地铁站)_30.20199_120.21304","lineId":"杭州地铁1号线","lat":30.20198911,"lon":120.21303558,"area_km2":2.4804,"D":0.4707,"C":0.8557,"T":0.2589,"U1":0.1249,"U2":0.3929,"couplingDegree":0.4707,"level":"勉强协调","road_density":25.4023,"walk_accessibility":0.4973,"metro_line_density":3.0847,"station_count":2,"line_count":1,"population_density":4889.5255,"poi_density":12.498,"poi_diversity":1.7566,"gdp_density":383107.7073,"P":4889.5255,"I":12.498,"G":383107.7073},{"stationName":"杭州西兴(地铁站)","station_id":"杭州西兴(地铁站)_30.18974_120.21592","lineId":"杭州地铁1号线","lat":30.18973805,"lon":120.21592015,"area_km2":1.8502,"D":0.5782,"C":0.9513,"T":0.3515,"U1":0.4599,"U2":0.2431,"couplingDegree":0.5782,"level":"勉强协调","road_density":20.3508,"walk_accessibility":0.371,"metro_line_density":4.9201,"station_count":3,"line_count":3,"population_density":6122.1094,"poi_density":8.6478,"poi_diversity":1.124,"gdp_density":168980.3793,"P":6122.1094,"I":8.6478,"G":168980.3793},{"stationName":"杭州滨康路(地铁站)","station_id":"杭州滨康路(地铁站)_30.18570_120.22653","lineId":"杭州地铁1号线 / 杭州地铁5号线","lat":30.185701225000003,"lon":120.22653018,"area_km2":2.3357,"D":0.4659,"C":0.971,"T":0.2236,"U1":0.277,"U2":0.1701,"couplingDegree":0.4659,"level":"勉强协调","road_density":26.7326,"walk_accessibility":0.4683,"metro_line_density":4.8127,"station_count":2,"line_count":2,"population_density":6600.5443,"poi_density":4.7095,"poi_diversity":0.6002,"gdp_density":152613.5577,"P":6600.5443,"I":4.7095,"G":152613.5577},{"stationName":"杭州湘湖(地铁站)","station_id":"杭州湘湖(地铁站)_30.17004_120.22991","lineId":"杭州地铁1号线","lat":30.17004115,"lon":120.22990754,"area_km2":2.0762,"D":0.1961,"C":0.9305,"T":0.0413,"U1":0.0565,"U2":0.0262,"couplingDegree":0.1961,"level":"极度失调","road_density":28.6651,"walk_accessibility":0.4163,"metro_line_density":1.2829,"station_count":1,"line_count":1,"population_density":1426.1484,"poi_density":2.8899,"poi_diversity":0.0,"gdp_density":20049.4019,"P":1426.1484,"I":2.8899,"G":20049.4019},{"stationName":"杭州奥体中心(地铁站)","station_id":"杭州奥体中心(地铁站)_30.11475_120.45331","lineId":"杭州地铁6号线 / 杭州杭州轨道交通1号线(姑娘桥--芳泉) / 杭州杭州轨道交通1号线(芳泉--姑娘桥)","lat":30.114751,"lon":120.45330590666667,"area_km2":0.9181,"D":0.0,"C":0.0,"T":0.1489,"U1":0.2977,"U2":0.0,"couplingDegree":0.0,"level":"极度失调","road_density":19.2348,"walk_accessibility":0.1841,"metro_line_density":0.0,"station_count":1,"line_count":3,"population_density":0.0,"poi_density":0.0,"poi_diversity":0.0,"gdp_density":0.0,"P":0.0,"I":0.0,"G":0.0},{"stationName":"杭州朝阳(地铁站)","station_id":"杭州朝阳(地铁站)_30.12467_120.26377","lineId":"杭州地铁2号线","lat":30.12467279,"lon":120.26377174,"area_km2":0.9865,"D":0.1858,"C":0.9667,"T":0.0357,"U1":0.0449,"U2":0.0266,"couplingDegree":0.1858,"level":"极度失调","road_density":22.8572,"walk_accessibility":0.1978,"metro_line_density":2.8688,"station_count":1,"line_count":1,"population_density":809.9655,"poi_density":2.0274,"poi_diversity":0.0,"gdp_density":40117.1166,"P":809.9655,"I":2.0274,"G":40117.1166},{"stationName":"杭州曹家桥(地铁站)","station_id":"杭州曹家桥(地铁站)_30.13698_120.26341","lineId":"杭州地铁2号线","lat":30.1369786,"lon":120.26340903,"area_km2":1.2198,"D":0.2131,"C":0.9968,"T":0.0455,"U1":0.0492,"U2":0.0419,"couplingDegree":0.2131,"level":"中度失调","road_density":18.4568,"walk_accessibility":0.2446,"metro_line_density":4.6232,"station_count":1,"line_count":1,"population_density":678.8098,"poi_density":6.5585,"poi_diversity":0.0,"gdp_density":34827.5321,"P":678.8098,"I":6.5585,"G":34827.5321},{"stationName":"杭州潘水(地铁站)","station_id":"杭州潘水(地铁站)_30.15064_120.26318","lineId":"杭州地铁2号线","lat":30.150641125,"lon":120.263184695,"area_km2":1.5718,"D":0.3006,"C":0.9953,"T":0.0908,"U1":0.0996,"U2":0.082,"couplingDegree":0.3006,"level":"中度失调","road_density":15.3175,"walk_accessibility":0.3151,"metro_line_density":3.637,"station_count":2,"line_count":1,"population_density":9298.4735,"poi_density":5.7261,"poi_diversity":0.0,"gdp_density":26669.4088,"P":9298.4735,"I":5.7261,"G":26669.4088},{"stationName":"杭州人民路(地铁站)","station_id":"杭州人民路(地铁站)_30.16163_120.26304","lineId":"杭州地铁2号线","lat":30.16163086,"lon":120.26304197,"area_km2":2.2459,"D":0.3974,"C":0.9262,"T":0.1705,"U1":0.1062,"U2":0.2348,"couplingDegree":0.3974,"level":"中度失调","road_density":19.0237,"walk_accessibility":0.4503,"metro_line_density":2.5344,"station_count":2,"line_count":1,"population_density":10901.1922,"poi_density":10.2409,"poi_diversity":1.1465,"gdp_density":48810.2517,"P":10901.1922,"I":10.2409,"G":48810.2517},{"stationName":"杭州杭发厂(地铁站)","station_id":"杭州杭发厂(地铁站)_30.17307_120.26274","lineId":"杭州地铁2号线","lat":30.17307319,"lon":120.26274469,"area_km2":2.1919,"D":0.4069,"C":0.9421,"T":0.1757,"U1":0.1168,"U2":0.2347,"couplingDegree":0.4069,"level":"勉强协调","road_density":23.7379,"walk_accessibility":0.4395,"metro_line_density":2.7531,"station_count":2,"line_count":1,"population_density":8229.262,"poi_density":8.2119,"poi_diversity":1.4256,"gdp_density":30065.2287,"P":8229.262,"I":8.2119,"G":30065.2287},{"stationName":"杭州人民广场(地铁站)","station_id":"杭州人民广场(地铁站)_30.18354_120.26234","lineId":"杭州地铁2号线","lat":30.18354013,"lon":120.26234068,"area_km2":2.1182,"D":0.5196,"C":0.984,"T":0.2743,"U1":0.3231,"U2":0.2255,"couplingDegree":0.5196,"level":"勉强协调","road_density":20.3037,"walk_accessibility":0.4247,"metro_line_density":5.0089,"station_count":3,"line_count":2,"population_density":3515.6874,"poi_density":8.9698,"poi_diversity":1.5843,"gdp_density":20733.444,"P":3515.6874,"I":8.9698,"G":20733.444},{"stationName":"杭州建设一路(地铁站)","station_id":"杭州建设一路(地铁站)_30.19650_120.26208","lineId":"杭州地铁2号线","lat":30.19649828,"lon":120.26207531,"area_km2":1.7588,"D":0.4228,"C":0.9479,"T":0.1886,"U1":0.2487,"U2":0.1285,"couplingDegree":0.4228,"level":"勉强协调","road_density":20.2801,"walk_accessibility":0.3526,"metro_line_density":3.2643,"station_count":2,"line_count":2,"population_density":6817.7284,"poi_density":5.1171,"poi_diversity":0.5297,"gdp_density":47859.4184,"P":6817.7284,"I":5.1171,"G":47859.4184},{"stationName":"杭州建设三路(地铁站)","station_id":"杭州建设三路(地铁站)_30.20697_120.26334","lineId":"杭州地铁2号线 / 杭州地铁7号线","lat":30.206968545000002,"lon":120.26334304,"area_km2":1.9555,"D":0.4855,"C":0.9957,"T":0.2367,"U1":0.2586,"U2":0.2148,"couplingDegree":0.4855,"level":"勉强协调","road_density":16.8965,"walk_accessibility":0.3921,"metro_line_density":5.6256,"station_count":2,"line_count":2,"population_density":6577.9657,"poi_density":3.5797,"poi_diversity":1.4751,"gdp_density":36385.6673,"P":6577.9657,"I":3.5797,"G":36385.6673},{"stationName":"杭州振宁路(地铁站)","station_id":"杭州振宁路(地铁站)_30.22015_120.26475","lineId":"杭州地铁2号线","lat":30.22014519,"lon":120.264750295,"area_km2":2.223,"D":0.1899,"C":0.9197,"T":0.0392,"U1":0.0546,"U2":0.0238,"couplingDegree":0.1899,"level":"极度失调","road_density":23.3572,"walk_accessibility":0.4457,"metro_line_density":2.4828,"station_count":1,"line_count":1,"population_density":2785.3683,"poi_density":0.0,"poi_diversity":0.0,"gdp_density":25015.6844,"P":2785.3683,"I":0.0,"G":25015.6844},{"stationName":"杭州飞虹路(地铁站)","station_id":"杭州飞虹路(地铁站)_30.23341_120.25886","lineId":"杭州地铁2号线","lat":30.23340835,"lon":120.25886154,"area_km2":2.091,"D":0.2767,"C":0.5444,"T":0.1407,"U1":0.2587,"U2":0.0227,"couplingDegree":0.2767,"level":"中度失调","road_density":25.0834,"walk_accessibility":0.4192,"metro_line_density":2.8148,"station_count":2,"line_count":2,"population_density":1310.8827,"poi_density":0.4782,"poi_diversity":0.0,"gdp_density":38837.2305,"P":1310.8827,"I":0.4782,"G":38837.2305},{"stationName":"杭州盈丰路(地铁站)","station_id":"杭州盈丰路(地铁站)_30.23941_120.24791","lineId":"杭州地铁15号线 / 杭州地铁2号线","lat":30.239406465000002,"lon":120.24791195,"area_km2":2.7403,"D":0.4859,"C":0.7996,"T":0.2953,"U1":0.4726,"U2":0.118,"couplingDegree":0.4859,"level":"勉强协调","road_density":25.1488,"walk_accessibility":0.5494,"metro_line_density":4.1143,"station_count":3,"line_count":3,"population_density":1020.6887,"poi_density":1.8246,"poi_diversity":0.9503,"gdp_density":19870.4043,"P":1020.6887,"I":1.8246,"G":19870.4043},{"stationName":"杭州钱江世纪城(地铁站)","station_id":"杭州钱江世纪城(地铁站)_30.24246_120.23896","lineId":"杭州地铁2号线 / 杭州地铁6号线","lat":30.242461976666664,"lon":120.23896272333333,"area_km2":2.8749,"D":0.567,"C":0.929,"T":0.3461,"U1":0.4741,"U2":0.218,"couplingDegree":0.567,"level":"勉强协调","road_density":24.6906,"walk_accessibility":0.5764,"metro_line_density":4.3095,"station_count":3,"line_count":3,"population_density":1064.7343,"poi_density":3.4784,"poi_diversity":1.8344,"gdp_density":25074.9983,"P":1064.7343,"I":3.4784,"G":25074.9983},{"stationName":"杭州钱江路(地铁站)","station_id":"杭州钱江路(地铁站)_30.25777_120.20885","lineId":"杭州地铁2号线 / 杭州地铁9号线","lat":30.257770715,"lon":120.20885049,"area_km2":2.7424,"D":0.6195,"C":0.9728,"T":0.3946,"U1":0.486,"U2":0.3031,"couplingDegree":0.6195,"level":"良好协调","road_density":25.152,"walk_accessibility":0.5498,"metro_line_density":6.2032,"station_count":3,"line_count":3,"population_density":9938.8667,"poi_density":14.586,"poi_diversity":1.4415,"gdp_density":121673.4469,"P":9938.8667,"I":14.586,"G":121673.4469},{"stationName":"杭州庆春广场(地铁站)","station_id":"杭州庆春广场(地铁站)_30.26002_120.20020","lineId":"杭州地铁2号线","lat":30.26002003,"lon":120.20019788,"area_km2":2.8173,"D":0.6989,"C":0.8506,"T":0.5743,"U1":0.8763,"U2":0.2724,"couplingDegree":0.6989,"level":"良好协调","road_density":25.6469,"walk_accessibility":0.5649,"metro_line_density":4.5388,"station_count":5,"line_count":5,"population_density":11681.1841,"poi_density":14.5531,"poi_diversity":0.8655,"gdp_density":176847.7106,"P":11681.1841,"I":14.5531,"G":176847.7106},{"stationName":"杭州庆菱路(地铁站)","station_id":"杭州庆菱路(地铁站)_30.26001_120.18850","lineId":"杭州地铁2号线","lat":30.26001405,"lon":120.18849608,"area_km2":2.4099,"D":0.4695,"C":0.8906,"T":0.2476,"U1":0.135,"U2":0.3601,"couplingDegree":0.4695,"level":"勉强协调","road_density":26.5462,"walk_accessibility":0.4832,"metro_line_density":4.3878,"station_count":2,"line_count":1,"population_density":34144.6203,"poi_density":14.5234,"poi_diversity":0.7257,"gdp_density":125304.1379,"P":34144.6203,"I":14.5234,"G":125304.1379},{"stationName":"杭州建国北路(地铁站)","station_id":"杭州建国北路(地铁站)_30.26693_120.17614","lineId":"杭州地铁2号线","lat":30.26692888,"lon":120.17614384,"area_km2":3.0773,"D":0.6288,"C":0.9867,"T":0.4008,"U1":0.3356,"U2":0.4659,"couplingDegree":0.6288,"level":"良好协调","road_density":24.7611,"walk_accessibility":0.617,"metro_line_density":4.1742,"station_count":3,"line_count":2,"population_density":31254.9663,"poi_density":27.6216,"poi_diversity":1.6546,"gdp_density":50300.215,"P":31254.9663,"I":27.6216,"G":50300.215},{"stationName":"杭州中河北路(地铁站)","station_id":"杭州中河北路(地铁站)_30.26696_120.16779","lineId":"杭州地铁2号线","lat":30.26695872,"lon":120.16779352,"area_km2":3.4999,"D":0.7879,"C":0.9996,"T":0.621,"U1":0.6031,"U2":0.6389,"couplingDegree":0.7879,"level":"良好协调","road_density":30.592,"walk_accessibility":0.7017,"metro_line_density":2.9346,"station_count":5,"line_count":3,"population_density":30287.2964,"poi_density":50.8593,"poi_diversity":2.4212,"gdp_density":69938.708,"P":30287.2964,"I":50.8593,"G":69938.708},{"stationName":"杭州武林门(地铁站)","station_id":"杭州武林门(地铁站)_30.27217_120.14999","lineId":"杭州地铁2号线 / 杭州地铁3号线","lat":30.272165475,"lon":120.14999282,"area_km2":3.1864,"D":0.7578,"C":0.9989,"T":0.575,"U1":0.548,"U2":0.602,"couplingDegree":0.7578,"level":"良好协调","road_density":31.0101,"walk_accessibility":0.6389,"metro_line_density":4.0079,"station_count":4,"line_count":3,"population_density":30021.2001,"poi_density":38.2875,"poi_diversity":2.5066,"gdp_density":85296.4874,"P":30021.2001,"I":38.2875,"G":85296.4874},{"stationName":"杭州沈塘桥(地铁站)","station_id":"杭州沈塘桥(地铁站)_30.28247_120.14551","lineId":"杭州地铁2号线","lat":30.2824652,"lon":120.14551496,"area_km2":2.8119,"D":0.6534,"C":0.9663,"T":0.4418,"U1":0.3281,"U2":0.5556,"couplingDegree":0.6534,"level":"良好协调","road_density":28.6537,"walk_accessibility":0.5638,"metro_line_density":2.121,"station_count":3,"line_count":2,"population_density":36249.6586,"poi_density":25.6051,"poi_diversity":2.3195,"gdp_density":56210.5844,"P":36249.6586,"I":25.6051,"G":56210.5844},{"stationName":"杭州下宁桥(地铁站)","station_id":"杭州下宁桥(地铁站)_30.28563_120.13539","lineId":"杭州地铁2号线","lat":30.28562784,"lon":120.13539222,"area_km2":2.0684,"D":0.5455,"C":0.8827,"T":0.337,"U1":0.1787,"U2":0.4954,"couplingDegree":0.5455,"level":"勉强协调","road_density":24.8743,"walk_accessibility":0.4147,"metro_line_density":2.8555,"station_count":3,"line_count":1,"population_density":26473.1531,"poi_density":24.6568,"poi_diversity":2.0392,"gdp_density":126962.5482,"P":26473.1531,"I":24.6568,"G":126962.5482},{"stationName":"杭州学院路(地铁站)","station_id":"杭州学院路(地铁站)_30.28503_120.12482","lineId":"杭州地铁2号线","lat":30.28503343,"lon":120.12481550999999,"area_km2":2.4918,"D":0.5472,"C":0.8898,"T":0.3366,"U1":0.183,"U2":0.4902,"couplingDegree":0.5472,"level":"勉强协调","road_density":23.1623,"walk_accessibility":0.4996,"metro_line_density":3.4771,"station_count":3,"line_count":1,"population_density":18964.18,"poi_density":30.902,"poi_diversity":2.2051,"gdp_density":107766.4188,"P":18964.18,"I":30.902,"G":107766.4188},{"stationName":"杭州古翠路(地铁站)","station_id":"杭州古翠路(地铁站)_30.28447_120.11313","lineId":"杭州地铁2号线","lat":30.28446844,"lon":120.11313286,"area_km2":2.2159,"D":0.5319,"C":0.8909,"T":0.3176,"U1":0.1733,"U2":0.4618,"couplingDegree":0.5319,"level":"勉强协调","road_density":22.1612,"walk_accessibility":0.4443,"metro_line_density":2.6764,"station_count":3,"line_count":1,"population_density":9132.6206,"poi_density":35.2001,"poi_diversity":2.0663,"gdp_density":169262.8362,"P":9132.6206,"I":35.2001,"G":169262.8362},{"stationName":"杭州丰潭路(地铁站)","station_id":"杭州丰潭路(地铁站)_30.28418_120.10483","lineId":"杭州地铁2号线","lat":30.28418285,"lon":120.10483039,"area_km2":2.5372,"D":0.4692,"C":0.8281,"T":0.2658,"U1":0.1168,"U2":0.4148,"couplingDegree":0.4692,"level":"勉强协调","road_density":23.833,"walk_accessibility":0.5087,"metro_line_density":2.2381,"station_count":2,"line_count":1,"population_density":7913.4268,"poi_density":28.7718,"poi_diversity":2.0039,"gdp_density":145039.0263,"P":7913.4268,"I":28.7718,"G":145039.0263},{"stationName":"杭州文新(地铁站)","station_id":"杭州文新(地铁站)_30.29152_120.09338","lineId":"杭州地铁2号线","lat":30.29151897,"lon":120.09338059,"area_km2":2.1563,"D":0.4619,"C":0.8757,"T":0.2436,"U1":0.126,"U2":0.3612,"couplingDegree":0.4619,"level":"勉强协调","road_density":28.2284,"walk_accessibility":0.4323,"metro_line_density":2.7988,"station_count":2,"line_count":1,"population_density":13394.1193,"poi_density":17.6226,"poi_diversity":1.8367,"gdp_density":83922.6301,"P":13394.1193,"I":17.6226,"G":83922.6301},{"stationName":"杭州三坝(地铁站)","station_id":"杭州三坝(地铁站)_30.30229_120.09309","lineId":"杭州地铁2号线","lat":30.30228651,"lon":120.09308724,"area_km2":2.1658,"D":0.5513,"C":0.9233,"T":0.3292,"U1":0.2028,"U2":0.4557,"couplingDegree":0.5513,"level":"勉强协调","road_density":31.336,"walk_accessibility":0.4342,"metro_line_density":4.4153,"station_count":3,"line_count":1,"population_density":3973.0914,"poi_density":46.6336,"poi_diversity":2.2898,"gdp_density":37045.0948,"P":3973.0914,"I":46.6336,"G":37045.0948},{"stationName":"杭州虾龙圩(地铁站)","station_id":"杭州虾龙圩(地铁站)_30.31185_120.09157","lineId":"杭州地铁2号线","lat":30.3118532,"lon":120.0915676,"area_km2":2.5253,"D":0.5416,"C":0.9145,"T":0.3207,"U1":0.1909,"U2":0.4505,"couplingDegree":0.5416,"level":"勉强协调","road_density":29.1927,"walk_accessibility":0.5063,"metro_line_density":2.745,"station_count":3,"line_count":1,"population_density":2801.2943,"poi_density":38.0159,"poi_diversity":2.3891,"gdp_density":107480.7609,"P":2801.2943,"I":38.0159,"G":107480.7609},{"stationName":"杭州三墩(地铁站)","station_id":"杭州三墩(地铁站)_30.32230_120.08820","lineId":"杭州地铁2号线","lat":30.3222983,"lon":120.08819512,"area_km2":2.3075,"D":0.3577,"C":0.9932,"T":0.1289,"U1":0.1138,"U2":0.1439,"couplingDegree":0.3577,"level":"中度失调","road_density":22.6667,"walk_accessibility":0.4626,"metro_line_density":2.4709,"station_count":2,"line_count":1,"population_density":10221.5767,"poi_density":11.7011,"poi_diversity":0.1584,"gdp_density":74378.8068,"P":10221.5767,"I":11.7011,"G":74378.8068},{"stationName":"杭州墩祥街(地铁站)","station_id":"杭州墩祥街(地铁站)_30.33393_120.08279","lineId":"杭州地铁2号线","lat":30.33393246,"lon":120.08279181,"area_km2":1.9602,"D":0.3169,"C":0.995,"T":0.1009,"U1":0.111,"U2":0.0908,"couplingDegree":0.3169,"level":"中度失调","road_density":18.4023,"walk_accessibility":0.393,"metro_line_density":3.8878,"station_count":2,"line_count":1,"population_density":4908.2469,"poi_density":9.1829,"poi_diversity":0.0,"gdp_density":79411.9753,"P":4908.2469,"I":9.1829,"G":79411.9753},{"stationName":"杭州金家渡(地铁站)","station_id":"杭州金家渡(地铁站)_30.34137_120.07911","lineId":"杭州地铁2号线","lat":30.3413688,"lon":120.07911247,"area_km2":1.6572,"D":0.3384,"C":0.9944,"T":0.1151,"U1":0.1274,"U2":0.1029,"couplingDegree":0.3384,"level":"中度失调","road_density":18.1342,"walk_accessibility":0.3323,"metro_line_density":6.9571,"station_count":2,"line_count":1,"population_density":1970.2356,"poi_density":4.2241,"poi_diversity":0.4101,"gdp_density":93932.2643,"P":1970.2356,"I":4.2241,"G":93932.2643},{"stationName":"杭州白洋(地铁站)","station_id":"杭州白洋(地铁站)_30.35343_120.06808","lineId":"杭州地铁2号线","lat":30.3534291,"lon":120.06808279,"area_km2":1.7425,"D":0.1764,"C":0.9125,"T":0.0341,"U1":0.0481,"U2":0.0202,"couplingDegree":0.1764,"level":"极度失调","road_density":19.7062,"walk_accessibility":0.3494,"metro_line_density":3.3151,"station_count":1,"line_count":1,"population_density":1361.2742,"poi_density":0.0,"poi_diversity":0.0,"gdp_density":36320.5414,"P":1361.2742,"I":0.0,"G":36320.5414},{"stationName":"杭州杜甫村(地铁站)","station_id":"杭州杜甫村(地铁站)_30.36133_120.05174","lineId":"杭州地铁2号线","lat":30.36132988,"lon":120.05173795,"area_km2":2.1657,"D":0.2065,"C":0.9521,"T":0.0448,"U1":0.0585,"U2":0.0311,"couplingDegree":0.2065,"level":"中度失调","road_density":25.3523,"walk_accessibility":0.4342,"metro_line_density":2.5311,"station_count":1,"line_count":1,"population_density":2192.3269,"poi_density":0.0,"poi_diversity":0.0,"gdp_density":54588.3862,"P":2192.3269,"I":0.0,"G":54588.3862},{"stationName":"杭州良渚(地铁站)","station_id":"杭州良渚(地铁站)_30.36132_120.03687","lineId":"杭州地铁2号线","lat":30.3613205,"lon":120.0368653,"area_km2":1.6165,"D":0.186,"C":0.9717,"T":0.0356,"U1":0.044,"U2":0.0272,"couplingDegree":0.186,"level":"极度失调","road_density":23.1601,"walk_accessibility":0.3241,"metro_line_density":1.7537,"station_count":1,"line_count":1,"population_density":1364.6347,"poi_density":0.0,"poi_diversity":0.0,"gdp_density":56158.4916,"P":1364.6347,"I":0.0,"G":56158.4916},{"stationName":"杭州善贤(地铁站)","station_id":"杭州善贤(地铁站)_30.31918_120.15527","lineId":"杭州地铁3号线 / 杭州地铁5号线","lat":30.31918082,"lon":120.15526764666667,"area_km2":2.9185,"D":0.4355,"C":0.8507,"T":0.223,"U1":0.3402,"U2":0.1058,"couplingDegree":0.4355,"level":"勉强协调","road_density":26.3355,"walk_accessibility":0.5852,"metro_line_density":4.6074,"station_count":3,"line_count":2,"population_density":9300.5476,"poi_density":5.8248,"poi_diversity":0.2237,"gdp_density":27317.4461,"P":9300.5476,"I":5.8248,"G":27317.4461},{"stationName":"杭州池华街(地铁站)","station_id":"杭州池华街(地铁站)_30.32991_120.06369","lineId":"杭州地铁4号线","lat":30.32990953,"lon":120.06368804,"area_km2":2.1259,"D":0.2399,"C":0.9984,"T":0.0576,"U1":0.0544,"U2":0.0609,"couplingDegree":0.2399,"level":"中度失调","road_density":23.3905,"walk_accessibility":0.4262,"metro_line_density":2.5794,"station_count":1,"line_count":1,"population_density":1383.8749,"poi_density":6.5854,"poi_diversity":0.0,"gdp_density":77361.5241,"P":1383.8749,"I":6.5854,"G":77361.5241},{"stationName":"杭州好运街(地铁站)","station_id":"杭州好运街(地铁站)_30.35246_120.09523","lineId":"杭州地铁4号线","lat":30.35245784,"lon":120.095232,"area_km2":1.4647,"D":0.2012,"C":0.9956,"T":0.0407,"U1":0.0445,"U2":0.0368,"couplingDegree":0.2012,"level":"中度失调","road_density":20.9587,"walk_accessibility":0.2937,"metro_line_density":2.7414,"station_count":1,"line_count":1,"population_density":2322.7198,"poi_density":0.6828,"poi_diversity":0.0,"gdp_density":61240.7405,"P":2322.7198,"I":0.6828,"G":61240.7405},{"stationName":"杭州杭行路(地铁站)","station_id":"杭州杭行路(地铁站)_30.35580_120.10966","lineId":"杭州地铁4号线","lat":30.35580122,"lon":120.10965855,"area_km2":1.9287,"D":0.1922,"C":0.8857,"T":0.0417,"U1":0.0611,"U2":0.0224,"couplingDegree":0.1922,"level":"极度失调","road_density":22.8069,"walk_accessibility":0.3867,"metro_line_density":4.0953,"station_count":1,"line_count":1,"population_density":1144.837,"poi_density":0.0,"poi_diversity":0.0,"gdp_density":45809.5549,"P":1144.837,"I":0.0,"G":45809.5549},{"stationName":"杭州储运路(地铁站)","station_id":"杭州储运路(地铁站)_30.35616_120.12348","lineId":"杭州地铁4号线","lat":30.3561561,"lon":120.12347712,"area_km2":1.3019,"D":0.1857,"C":0.9193,"T":0.0375,"U1":0.0523,"U2":0.0228,"couplingDegree":0.1857,"level":"极度失调","road_density":25.3765,"walk_accessibility":0.261,"metro_line_density":2.7783,"station_count":1,"line_count":1,"population_density":659.8095,"poi_density":0.0,"poi_diversity":0.0,"gdp_density":54300.2511,"P":659.8095,"I":0.0,"G":54300.2511},{"stationName":"杭州平安桥(地铁站)","station_id":"杭州平安桥(地铁站)_30.35949_120.14007","lineId":"杭州地铁15号线 / 杭州地铁4号线","lat":30.359492996666663,"lon":120.14006827666667,"area_km2":1.8821,"D":0.3161,"C":0.8035,"T":0.1244,"U1":0.1984,"U2":0.0503,"couplingDegree":0.3161,"level":"中度失调","road_density":19.9255,"walk_accessibility":0.3774,"metro_line_density":4.7235,"station_count":1,"line_count":2,"population_density":8591.0546,"poi_density":1.0627,"poi_diversity":0.0,"gdp_density":0.0,"P":8591.0546,"I":1.0627,"G":0.0},{"stationName":"杭州独城生态公园(地铁站)","station_id":"杭州独城生态公园(地铁站)_30.35944_120.15671","lineId":"杭州地铁4号线","lat":30.35943944,"lon":120.15670524,"area_km2":1.5381,"D":0.267,"C":0.9607,"T":0.0742,"U1":0.0948,"U2":0.0536,"couplingDegree":0.267,"level":"中度失调","road_density":19.229,"walk_accessibility":0.3084,"metro_line_density":1.6828,"station_count":2,"line_count":1,"population_density":7595.2984,"poi_density":0.6502,"poi_diversity":0.0,"gdp_density":28955.3686,"P":7595.2984,"I":0.6502,"G":28955.3686},{"stationName":"杭州吴家角港(地铁站)","station_id":"杭州吴家角港(地铁站)_30.35343_120.16465","lineId":"杭州地铁4号线","lat":30.35343167,"lon":120.16464673,"area_km2":2.3618,"D":0.2825,"C":0.9433,"T":0.0846,"U1":0.1127,"U2":0.0565,"couplingDegree":0.2825,"level":"中度失调","road_density":24.3069,"walk_accessibility":0.4735,"metro_line_density":1.6956,"station_count":2,"line_count":1,"population_density":6882.6078,"poi_density":0.4234,"poi_diversity":0.0,"gdp_density":50605.2681,"P":6882.6078,"I":0.4234,"G":50605.2681},{"stationName":"杭州桃源街(地铁站)","station_id":"杭州桃源街(地铁站)_30.34385_120.17391","lineId":"杭州地铁4号线","lat":30.34385317,"lon":120.17391497,"area_km2":1.8899,"D":0.2328,"C":0.9974,"T":0.0543,"U1":0.0582,"U2":0.0504,"couplingDegree":0.2328,"level":"中度失调","road_density":25.3913,"walk_accessibility":0.3789,"metro_line_density":2.8718,"station_count":1,"line_count":1,"population_density":4156.2722,"poi_density":2.6456,"poi_diversity":0.0,"gdp_density":49845.6351,"P":4156.2722,"I":2.6456,"G":49845.6351},{"stationName":"杭州皋亭坝(地铁站)","station_id":"杭州皋亭坝(地铁站)_30.33276_120.16755","lineId":"杭州地铁4号线","lat":30.3327604,"lon":120.16754842,"area_km2":1.8967,"D":0.2651,"C":0.9744,"T":0.0721,"U1":0.0559,"U2":0.0884,"couplingDegree":0.2651,"level":"中度失调","road_density":25.1736,"walk_accessibility":0.3803,"metro_line_density":2.5718,"station_count":1,"line_count":1,"population_density":6437.6154,"poi_density":11.0721,"poi_diversity":0.0,"gdp_density":28215.3143,"P":6437.6154,"I":11.0721,"G":28215.3143},{"stationName":"杭州华中南路(地铁站)","station_id":"杭州华中南路(地铁站)_30.32638_120.19550","lineId":"杭州地铁4号线","lat":30.32638212,"lon":120.19549568,"area_km2":2.2311,"D":0.2516,"C":0.9963,"T":0.0635,"U1":0.0581,"U2":0.069,"couplingDegree":0.2516,"level":"中度失调","road_density":24.4904,"walk_accessibility":0.4473,"metro_line_density":2.6603,"station_count":1,"line_count":1,"population_density":4423.3079,"poi_density":4.9302,"poi_diversity":0.0,"gdp_density":72626.6906,"P":4423.3079,"I":4.9302,"G":72626.6906},{"stationName":"杭州笕桥老街(地铁站)","station_id":"杭州笕桥老街(地铁站)_30.32544_120.21513","lineId":"杭州地铁4号线","lat":30.32543982,"lon":120.21513027,"area_km2":1.7999,"D":0.4341,"C":0.9649,"T":0.1953,"U1":0.2466,"U2":0.144,"couplingDegree":0.4341,"level":"勉强协调","road_density":18.0977,"walk_accessibility":0.3609,"metro_line_density":3.5706,"station_count":2,"line_count":2,"population_density":11908.073,"poi_density":2.2224,"poi_diversity":0.5623,"gdp_density":37055.4252,"P":11908.073,"I":2.2224,"G":37055.4252},{"stationName":"杭州黎明(地铁站)","station_id":"杭州黎明(地铁站)_30.31782_120.21910","lineId":"杭州地铁18号线 / 杭州地铁4号线","lat":30.31782302666667,"lon":120.21909589666666,"area_km2":1.5757,"D":0.4686,"C":0.9846,"T":0.223,"U1":0.262,"U2":0.184,"couplingDegree":0.4686,"level":"勉强协调","road_density":21.4922,"walk_accessibility":0.3159,"metro_line_density":5.2221,"station_count":2,"line_count":2,"population_density":12984.5287,"poi_density":4.4424,"poi_diversity":0.4101,"gdp_density":153496.041,"P":12984.5287,"I":4.4424,"G":153496.041},{"stationName":"杭州明石路(地铁站)","station_id":"杭州明石路(地铁站)_30.30601_120.22291","lineId":"杭州地铁4号线","lat":30.30601373,"lon":120.22291315,"area_km2":2.377,"D":0.3744,"C":0.829,"T":0.1691,"U1":0.2636,"U2":0.0745,"couplingDegree":0.3744,"level":"中度失调","road_density":26.5962,"walk_accessibility":0.4766,"metro_line_density":2.6973,"station_count":2,"line_count":2,"population_density":5345.0453,"poi_density":2.1035,"poi_diversity":0.0,"gdp_density":105953.9018,"P":5345.0453,"I":2.1035,"G":105953.9018},{"stationName":"杭州新风(地铁站)","station_id":"杭州新风(地铁站)_30.28966_120.20353","lineId":"杭州地铁4号线","lat":30.289664605,"lon":120.20353487,"area_km2":1.848,"D":0.5892,"C":0.8777,"T":0.3956,"U1":0.5852,"U2":0.206,"couplingDegree":0.5892,"level":"勉强协调","road_density":27.8338,"walk_accessibility":0.3705,"metro_line_density":3.3519,"station_count":5,"line_count":3,"population_density":12322.0019,"poi_density":4.329,"poi_diversity":0.7356,"gdp_density":131862.3574,"P":12322.0019,"I":4.329,"G":131862.3574},{"stationName":"杭州新塘(地铁站)","station_id":"杭州新塘(地铁站)_30.27843_120.20284","lineId":"杭州地铁4号线","lat":30.27843243,"lon":120.20284221,"area_km2":2.3503,"D":0.4983,"C":0.9699,"T":0.2561,"U1":0.3184,"U2":0.1937,"couplingDegree":0.4983,"level":"勉强协调","road_density":25.9719,"walk_accessibility":0.4712,"metro_line_density":2.1254,"station_count":3,"line_count":2,"population_density":19277.1955,"poi_density":8.9349,"poi_diversity":0.0,"gdp_density":154956.1803,"P":19277.1955,"I":8.9349,"G":154956.1803},{"stationName":"杭州景芳(地铁站)","station_id":"杭州景芳(地铁站)_30.26855_120.20304","lineId":"杭州地铁15号线 / 杭州地铁4号线","lat":30.26854752,"lon":120.20304365999999,"area_km2":2.874,"D":0.5606,"C":0.9242,"T":0.3401,"U1":0.4699,"U2":0.2102,"couplingDegree":0.5606,"level":"勉强协调","road_density":23.6126,"walk_accessibility":0.5762,"metro_line_density":4.0022,"station_count":3,"line_count":3,"population_density":11897.7447,"poi_density":14.9618,"poi_diversity":0.5466,"gdp_density":86562.234,"P":11897.7447,"I":14.9618,"G":86562.234},{"stationName":"杭州江锦路(地铁站)","station_id":"杭州江锦路(地铁站)_30.25216_120.21104","lineId":"杭州地铁4号线","lat":30.25216005,"lon":120.21104425,"area_km2":2.3769,"D":0.6773,"C":0.9501,"T":0.4828,"U1":0.6333,"U2":0.3322,"couplingDegree":0.6773,"level":"良好协调","road_density":29.7694,"walk_accessibility":0.4766,"metro_line_density":6.4462,"station_count":3,"line_count":4,"population_density":5654.7473,"poi_density":10.097,"poi_diversity":2.0511,"gdp_density":140966.4846,"P":5654.7473,"I":10.097,"G":140966.4846},{"stationName":"杭州市民中心(地铁站)","station_id":"杭州市民中心(地铁站)_30.24611_120.20690","lineId":"杭州地铁4号线 / 杭州地铁7号线","lat":30.246111465,"lon":120.206901085,"area_km2":2.0242,"D":0.5683,"C":0.9752,"T":0.3312,"U1":0.4046,"U2":0.2579,"couplingDegree":0.5683,"level":"勉强协调","road_density":27.9629,"walk_accessibility":0.4058,"metro_line_density":6.0369,"station_count":4,"line_count":2,"population_density":4826.1512,"poi_density":12.8447,"poi_diversity":1.5396,"gdp_density":62170.8466,"P":4826.1512,"I":12.8447,"G":62170.8466},{"stationName":"杭州城星路(地铁站)","station_id":"杭州城星路(地铁站)_30.24207_120.20241","lineId":"杭州地铁4号线","lat":30.24206668,"lon":120.20240952,"area_km2":2.5768,"D":0.5506,"C":0.9915,"T":0.3057,"U1":0.3454,"U2":0.266,"couplingDegree":0.5506,"level":"勉强协调","road_density":31.43,"walk_accessibility":0.5166,"metro_line_density":4.2763,"station_count":3,"line_count":2,"population_density":9394.9036,"poi_density":15.523,"poi_diversity":0.9863,"gdp_density":147440.1066,"P":9394.9036,"I":15.523,"G":147440.1066},{"stationName":"杭州甬江路(地铁站)","station_id":"杭州甬江路(地铁站)_30.22611_120.18488","lineId":"杭州地铁18号线 / 杭州地铁4号线","lat":30.22610557,"lon":120.184881355,"area_km2":2.7306,"D":0.5222,"C":0.9159,"T":0.2978,"U1":0.4173,"U2":0.1783,"couplingDegree":0.5222,"level":"勉强协调","road_density":28.7483,"walk_accessibility":0.5475,"metro_line_density":3.7056,"station_count":2,"line_count":3,"population_density":8256.6879,"poi_density":14.2824,"poi_diversity":0.5893,"gdp_density":46655.0841,"P":8256.6879,"I":14.2824,"G":46655.0841},{"stationName":"杭州南星桥(地铁站)","station_id":"杭州南星桥(地铁站)_30.21967_120.17276","lineId":"杭州地铁4号线","lat":30.2196694,"lon":120.17275973,"area_km2":2.6041,"D":0.4833,"C":0.9821,"T":0.2378,"U1":0.2827,"U2":0.193,"couplingDegree":0.4833,"level":"勉强协调","road_density":32.6186,"walk_accessibility":0.5221,"metro_line_density":3.4307,"station_count":2,"line_count":2,"population_density":7653.3042,"poi_density":16.8964,"poi_diversity":0.5054,"gdp_density":92747.8321,"P":7653.3042,"I":16.8964,"G":92747.8321},{"stationName":"杭州复兴路(地铁站)","station_id":"杭州复兴路(地铁站)_30.21264_120.15874","lineId":"杭州地铁4号线","lat":30.21263661,"lon":120.15874272,"area_km2":2.2126,"D":0.3201,"C":0.8678,"T":0.1181,"U1":0.0594,"U2":0.1768,"couplingDegree":0.3201,"level":"中度失调","road_density":25.7567,"walk_accessibility":0.4436,"metro_line_density":2.4831,"station_count":1,"line_count":1,"population_density":6863.5598,"poi_density":13.107,"poi_diversity":0.5924,"gdp_density":75758.1344,"P":6863.5598,"I":13.107,"G":75758.1344},{"stationName":"杭州水澄桥(地铁站)","station_id":"杭州水澄桥(地铁站)_30.20640_120.14725","lineId":"杭州地铁4号线","lat":30.20640436,"lon":120.14724775,"area_km2":2.0833,"D":0.2798,"C":0.9428,"T":0.083,"U1":0.0553,"U2":0.1107,"couplingDegree":0.2798,"level":"中度失调","road_density":25.8743,"walk_accessibility":0.4177,"metro_line_density":1.9946,"station_count":1,"line_count":1,"population_density":4430.0491,"poi_density":8.6403,"poi_diversity":0.4258,"gdp_density":24603.5968,"P":4430.0491,"I":8.6403,"G":24603.5968},{"stationName":"杭州联庄(地铁站)","station_id":"杭州联庄(地铁站)_30.18898_120.14733","lineId":"杭州地铁4号线","lat":30.18897759,"lon":120.14732728,"area_km2":2.5077,"D":0.4977,"C":0.9928,"T":0.2495,"U1":0.2794,"U2":0.2197,"couplingDegree":0.4977,"level":"勉强协调","road_density":30.9048,"walk_accessibility":0.5028,"metro_line_density":3.6012,"station_count":2,"line_count":2,"population_density":3481.6892,"poi_density":6.7791,"poi_diversity":1.2816,"gdp_density":117717.8623,"P":3481.6892,"I":6.7791,"G":117717.8623},{"stationName":"杭州中医药大学(地铁站)","station_id":"杭州中医药大学(地铁站)_30.17812_120.14172","lineId":"杭州地铁4号线","lat":30.17812238,"lon":120.14172061,"area_km2":2.7584,"D":0.5529,"C":0.9942,"T":0.3075,"U1":0.3404,"U2":0.2745,"couplingDegree":0.5529,"level":"勉强协调","road_density":29.4005,"walk_accessibility":0.5531,"metro_line_density":3.8923,"station_count":3,"line_count":2,"population_density":3839.1369,"poi_density":5.0753,"poi_diversity":1.4508,"gdp_density":236925.5015,"P":3839.1369,"I":5.0753,"G":236925.5015},{"stationName":"杭州杨家墩(地铁站)","station_id":"杭州杨家墩(地铁站)_30.17014_120.14416","lineId":"杭州地铁4号线","lat":30.17014403,"lon":120.14415686,"area_km2":2.1052,"D":0.6246,"C":1.0,"T":0.3901,"U1":0.3863,"U2":0.3939,"couplingDegree":0.6246,"level":"良好协调","road_density":24.3525,"walk_accessibility":0.4221,"metro_line_density":4.2298,"station_count":4,"line_count":2,"population_density":15333.3331,"poi_density":4.7501,"poi_diversity":1.3592,"gdp_density":430328.4724,"P":15333.3331,"I":4.7501,"G":430328.4724},{"stationName":"杭州浦沿(地铁站)","station_id":"杭州浦沿(地铁站)_30.16099_120.14926","lineId":"杭州地铁4号线","lat":30.16098993,"lon":120.14926225,"area_km2":1.8913,"D":0.411,"C":0.9998,"T":0.169,"U1":0.1657,"U2":0.1722,"couplingDegree":0.411,"level":"勉强协调","road_density":18.7548,"walk_accessibility":0.3792,"metro_line_density":3.0438,"station_count":3,"line_count":1,"population_density":9312.2982,"poi_density":2.115,"poi_diversity":0.5623,"gdp_density":157457.7861,"P":9312.2982,"I":2.115,"G":157457.7861},{"stationName":"杭州闻堰(地铁站)","station_id":"杭州闻堰(地铁站)_30.13207_120.17525","lineId":"杭州地铁18号线 / 杭州地铁4号线","lat":30.132066045000002,"lon":120.17524809,"area_km2":1.7435,"D":0.2746,"C":0.5191,"T":0.1452,"U1":0.2694,"U2":0.0211,"couplingDegree":0.2746,"level":"中度失调","road_density":25.2501,"walk_accessibility":0.3496,"metro_line_density":4.9257,"station_count":2,"line_count":2,"population_density":2973.835,"poi_density":0.0,"poi_diversity":0.0,"gdp_density":14513.0031,"P":2973.835,"I":0.0,"G":14513.0031},{"stationName":"杭州万达中路(地铁站)","station_id":"杭州万达中路(地铁站)_30.13293_120.16526","lineId":"杭州地铁4号线","lat":30.13292835,"lon":120.16525533000001,"area_km2":1.6426,"D":0.2978,"C":0.6348,"T":0.1397,"U1":0.2477,"U2":0.0318,"couplingDegree":0.2978,"level":"中度失调","road_density":18.0241,"walk_accessibility":0.3293,"metro_line_density":3.9986,"station_count":2,"line_count":2,"population_density":4911.075,"poi_density":0.0,"poi_diversity":0.0,"gdp_density":15254.3457,"P":4911.075,"I":0.0,"G":15254.3457},{"stationName":"杭州万达北路(地铁站)","station_id":"杭州万达北路(地铁站)_30.14234_120.15381","lineId":"杭州地铁4号线","lat":30.142342825,"lon":120.153805125,"area_km2":1.2964,"D":0.2205,"C":0.7829,"T":0.0621,"U1":0.1008,"U2":0.0235,"couplingDegree":0.2205,"level":"中度失调","road_density":15.2418,"walk_accessibility":0.2599,"metro_line_density":4.2339,"station_count":2,"line_count":1,"population_density":3444.8311,"poi_density":0.0,"poi_diversity":0.0,"gdp_density":14081.692,"P":3444.8311,"I":0.0,"G":14081.692},{"stationName":"杭州浦炬街(地铁站)","station_id":"杭州浦炬街(地铁站)_30.15028_120.15081","lineId":"杭州地铁4号线","lat":30.15028088,"lon":120.15081279,"area_km2":1.861,"D":0.4369,"C":0.9874,"T":0.1933,"U1":0.1627,"U2":0.2238,"couplingDegree":0.4369,"level":"勉强协调","road_density":17.5088,"walk_accessibility":0.3731,"metro_line_density":3.0147,"station_count":3,"line_count":1,"population_density":20334.586,"poi_density":0.5374,"poi_diversity":0.0,"gdp_density":318062.5439,"P":20334.586,"I":0.5374,"G":318062.5439},{"stationName":"杭州云谷(地铁站)","station_id":"杭州云谷(地铁站)_30.32138_120.02843","lineId":"杭州地铁4号线","lat":30.32138185,"lon":120.02843362,"area_km2":1.6537,"D":0.2219,"C":0.8536,"T":0.0577,"U1":0.0877,"U2":0.0276,"couplingDegree":0.2219,"level":"中度失调","road_density":16.8853,"walk_accessibility":0.3316,"metro_line_density":1.1605,"station_count":2,"line_count":1,"population_density":1001.9894,"poi_density":0.0,"poi_diversity":0.0,"gdp_density":62868.9417,"P":1001.9894,"I":0.0,"G":62868.9417},{"stationName":"杭州西湖大学(地铁站)","station_id":"杭州西湖大学(地铁站)_30.32970_120.03260","lineId":"杭州地铁4号线","lat":30.32970287,"lon":120.03260402,"area_km2":2.2854,"D":0.2641,"C":0.7048,"T":0.099,"U1":0.1692,"U2":0.0288,"couplingDegree":0.2641,"level":"中度失调","road_density":21.3553,"walk_accessibility":0.4582,"metro_line_density":2.1971,"station_count":3,"line_count":1,"population_density":2541.8017,"poi_density":0.0,"poi_diversity":0.0,"gdp_density":42739.8109,"P":2541.8017,"I":0.0,"G":42739.8109},{"stationName":"杭州西湖大学东(地铁站)","station_id":"杭州西湖大学东(地铁站)_30.33153_120.04286","lineId":"杭州地铁4号线","lat":30.33152938,"lon":120.04285845,"area_km2":2.0437,"D":0.2705,"C":0.743,"T":0.0985,"U1":0.1644,"U2":0.0326,"couplingDegree":0.2705,"level":"中度失调","road_density":20.1535,"walk_accessibility":0.4098,"metro_line_density":2.1679,"station_count":3,"line_count":1,"population_density":2744.5232,"poi_density":0.0,"poi_diversity":0.0,"gdp_density":50369.2676,"P":2744.5232,"I":0.0,"G":50369.2676},{"stationName":"杭州莲池路(地铁站)","station_id":"杭州莲池路(地铁站)_30.32667_120.04989","lineId":"杭州地铁4号线","lat":30.326674814999997,"lon":120.0498884,"area_km2":1.3807,"D":0.2256,"C":0.8032,"T":0.0633,"U1":0.1011,"U2":0.0256,"couplingDegree":0.2256,"level":"中度失调","road_density":22.6746,"walk_accessibility":0.2768,"metro_line_density":1.7815,"station_count":2,"line_count":1,"population_density":2160.4538,"poi_density":0.0,"poi_diversity":0.0,"gdp_density":39599.3879,"P":2160.4538,"I":0.0,"G":39599.3879},{"stationName":"杭州南湖东(地铁站)","station_id":"杭州南湖东(地铁站)_30.26262_119.94243","lineId":"杭州地铁5号线","lat":30.26262339,"lon":119.94242651,"area_km2":3.2731,"D":0.3756,"C":0.7181,"T":0.1965,"U1":0.0597,"U2":0.3333,"couplingDegree":0.3756,"level":"中度失调","road_density":23.8299,"walk_accessibility":0.6562,"metro_line_density":1.6576,"station_count":1,"line_count":1,"population_density":5028.913,"poi_density":9.4712,"poi_diversity":2.4242,"gdp_density":51391.1522,"P":5028.913,"I":9.4712,"G":51391.1522},{"stationName":"杭州金星(地铁站)","station_id":"杭州金星(地铁站)_30.26759_119.96194","lineId":"杭州地铁5号线","lat":30.26759473,"lon":119.96193506333334,"area_km2":1.7863,"D":0.2908,"C":0.5788,"T":0.1461,"U1":0.2653,"U2":0.027,"couplingDegree":0.2908,"level":"中度失调","road_density":28.7282,"walk_accessibility":0.3581,"metro_line_density":3.1153,"station_count":2,"line_count":2,"population_density":1738.7872,"poi_density":0.5598,"poi_diversity":0.0,"gdp_density":43574.3665,"P":1738.7872,"I":0.5598,"G":43574.3665},{"stationName":"杭州葛巷(地铁站)","station_id":"杭州葛巷(地铁站)_30.27281_119.99414","lineId":"杭州地铁5号线","lat":30.272814945,"lon":119.99414020500001,"area_km2":2.2642,"D":0.215,"C":0.6879,"T":0.0672,"U1":0.1159,"U2":0.0184,"couplingDegree":0.215,"level":"中度失调","road_density":25.7116,"walk_accessibility":0.454,"metro_line_density":1.8811,"station_count":2,"line_count":1,"population_density":333.8968,"poi_density":0.0,"poi_diversity":0.0,"gdp_density":46978.7447,"P":333.8968,"I":0.0,"G":46978.7447},{"stationName":"杭州创景路(地铁站)","station_id":"杭州创景路(地铁站)_30.28057_119.99336","lineId":"杭州地铁5号线","lat":30.28057432,"lon":119.99335506,"area_km2":2.1284,"D":0.4367,"C":0.999,"T":0.1909,"U1":0.1821,"U2":0.1996,"couplingDegree":0.4367,"level":"勉强协调","road_density":29.7422,"walk_accessibility":0.4267,"metro_line_density":1.7549,"station_count":3,"line_count":1,"population_density":2544.1638,"poi_density":2.3492,"poi_diversity":1.6094,"gdp_density":29090.857,"P":2544.1638,"I":2.3492,"G":29090.857},{"stationName":"杭州良睦路(地铁站)","station_id":"杭州良睦路(地铁站)_30.28812_120.00265","lineId":"杭州地铁5号线","lat":30.28811521,"lon":120.00265361,"area_km2":3.1533,"D":0.5319,"C":0.9899,"T":0.2858,"U1":0.3262,"U2":0.2453,"couplingDegree":0.5319,"level":"勉强协调","road_density":27.1542,"walk_accessibility":0.6322,"metro_line_density":1.8338,"station_count":3,"line_count":2,"population_density":2568.7032,"poi_density":6.3425,"poi_diversity":1.8726,"gdp_density":36219.9833,"P":2568.7032,"I":6.3425,"G":36219.9833},{"stationName":"杭州杭师大仓前(地铁站)","station_id":"杭州杭师大仓前(地铁站)_30.29117_120.01242","lineId":"杭州地铁12号线 / 杭州地铁5号线","lat":30.29117375,"lon":120.0124174,"area_km2":3.4192,"D":0.4861,"C":0.9446,"T":0.2501,"U1":0.3322,"U2":0.1681,"couplingDegree":0.4861,"level":"勉强协调","road_density":24.494,"walk_accessibility":0.6855,"metro_line_density":3.2487,"station_count":3,"line_count":2,"population_density":1380.423,"poi_density":3.2171,"poi_diversity":1.2945,"gdp_density":39820.8163,"P":1380.423,"I":3.2171,"G":39820.8163},{"stationName":"杭州永福(地铁站)","station_id":"杭州永福(地铁站)_30.29395_120.02231","lineId":"杭州地铁5号线","lat":30.29395247,"lon":120.02230504,"area_km2":2.5051,"D":0.4521,"C":0.9743,"T":0.2098,"U1":0.257,"U2":0.1626,"couplingDegree":0.4521,"level":"勉强协调","road_density":22.824,"walk_accessibility":0.5023,"metro_line_density":2.6915,"station_count":2,"line_count":2,"population_density":1121.7029,"poi_density":4.391,"poi_diversity":1.1596,"gdp_density":54515.1585,"P":1121.7029,"I":4.391,"G":54515.1585},{"stationName":"杭州五常(地铁站)","station_id":"杭州五常(地铁站)_30.29861_120.04010","lineId":"杭州地铁5号线","lat":30.29860949,"lon":120.04010125,"area_km2":1.4717,"D":0.3129,"C":0.8324,"T":0.1176,"U1":0.0524,"U2":0.1828,"couplingDegree":0.3129,"level":"中度失调","road_density":21.265,"walk_accessibility":0.2951,"metro_line_density":3.8778,"station_count":1,"line_count":1,"population_density":985.9548,"poi_density":2.718,"poi_diversity":1.3863,"gdp_density":66171.09,"P":985.9548,"I":2.718,"G":66171.09},{"stationName":"杭州蒋村(地铁站)","station_id":"杭州蒋村(地铁站)_30.29713_120.06254","lineId":"杭州地铁5号线","lat":30.29712903,"lon":120.0625376,"area_km2":1.8988,"D":0.4021,"C":0.9345,"T":0.173,"U1":0.1114,"U2":0.2346,"couplingDegree":0.4021,"level":"勉强协调","road_density":21.7341,"walk_accessibility":0.3807,"metro_line_density":2.9661,"station_count":2,"line_count":1,"population_density":2397.3073,"poi_density":4.2132,"poi_diversity":1.6675,"gdp_density":92377.4365,"P":2397.3073,"I":4.2132,"G":92377.4365},{"stationName":"杭州浙大紫金港(地铁站)","station_id":"杭州浙大紫金港(地铁站)_30.29644_120.07189","lineId":"杭州地铁5号线","lat":30.29644475,"lon":120.07189105500001,"area_km2":2.3056,"D":0.4071,"C":0.9393,"T":0.1764,"U1":0.1159,"U2":0.2369,"couplingDegree":0.4071,"level":"勉强协调","road_density":24.7662,"walk_accessibility":0.4623,"metro_line_density":2.1185,"station_count":2,"line_count":1,"population_density":2240.2421,"poi_density":6.0723,"poi_diversity":1.7721,"gdp_density":49991.8802,"P":2240.2421,"I":6.0723,"G":49991.8802},{"stationName":"杭州萍水街(地铁站)","station_id":"杭州萍水街(地铁站)_30.30508_120.10795","lineId":"杭州地铁5号线","lat":30.305078,"lon":120.10794959,"area_km2":2.2896,"D":0.5717,"C":0.9732,"T":0.3358,"U1":0.2586,"U2":0.4131,"couplingDegree":0.5717,"level":"勉强协调","road_density":24.9142,"walk_accessibility":0.4591,"metro_line_density":2.5821,"station_count":2,"line_count":2,"population_density":5127.9666,"poi_density":38.8714,"poi_diversity":2.0517,"gdp_density":55409.6418,"P":5127.9666,"I":38.8714,"G":55409.6418},{"stationName":"杭州和睦(地铁站)","station_id":"杭州和睦(地铁站)_30.31180_120.11448","lineId":"杭州地铁10号线 / 杭州地铁5号线","lat":30.31179739,"lon":120.11448343500001,"area_km2":2.447,"D":0.48,"C":0.9891,"T":0.2329,"U1":0.2673,"U2":0.1986,"couplingDegree":0.48,"level":"勉强协调","road_density":25.6998,"walk_accessibility":0.4906,"metro_line_density":3.4612,"station_count":2,"line_count":2,"population_density":8790.06,"poi_density":16.7554,"poi_diversity":0.5981,"gdp_density":65774.0381,"P":8790.06,"I":16.7554,"G":65774.0381},{"stationName":"杭州大运河(地铁站)","station_id":"杭州大运河(地铁站)_30.32157_120.12658","lineId":"杭州地铁5号线","lat":30.32156674,"lon":120.1265795,"area_km2":2.4634,"D":0.3445,"C":0.7663,"T":0.1549,"U1":0.0554,"U2":0.2544,"couplingDegree":0.3445,"level":"中度失调","road_density":24.0814,"walk_accessibility":0.4939,"metro_line_density":2.0381,"station_count":1,"line_count":1,"population_density":13012.6799,"poi_density":13.3959,"poi_diversity":1.0433,"gdp_density":66922.1797,"P":13012.6799,"I":13.3959,"G":66922.1797},{"stationName":"杭州拱宸桥东(地铁站)","station_id":"杭州拱宸桥东(地铁站)_30.31937_120.14326","lineId":"杭州地铁5号线","lat":30.31937238,"lon":120.14325878,"area_km2":3.4206,"D":0.5252,"C":0.9998,"T":0.2759,"U1":0.2818,"U2":0.2701,"couplingDegree":0.5252,"level":"勉强协调","road_density":30.8156,"walk_accessibility":0.6858,"metro_line_density":2.7161,"station_count":2,"line_count":2,"population_density":12656.5215,"poi_density":11.6938,"poi_diversity":1.3471,"gdp_density":46858.6273,"P":12656.5215,"I":11.6938,"G":46858.6273},{"stationName":"杭州西文街(地铁站)","station_id":"杭州西文街(地铁站)_30.31838_120.16528","lineId":"杭州地铁5号线","lat":30.31838057,"lon":120.16528078,"area_km2":3.2076,"D":0.4285,"C":0.8387,"T":0.219,"U1":0.3382,"U2":0.0997,"couplingDegree":0.4285,"level":"勉强协调","road_density":27.7215,"walk_accessibility":0.6431,"metro_line_density":3.4549,"station_count":3,"line_count":2,"population_density":9311.5104,"poi_density":8.7292,"poi_diversity":0.0,"gdp_density":42916.2489,"P":9311.5104,"I":8.7292,"G":42916.2489},{"stationName":"杭州东新园(地铁站)","station_id":"杭州东新园(地铁站)_30.31069_120.17121","lineId":"杭州地铁5号线","lat":30.31068808,"lon":120.17121267,"area_km2":3.202,"D":0.407,"C":0.9673,"T":0.1713,"U1":0.1279,"U2":0.2147,"couplingDegree":0.407,"level":"勉强协调","road_density":27.6876,"walk_accessibility":0.642,"metro_line_density":1.7907,"station_count":2,"line_count":1,"population_density":9346.4718,"poi_density":12.4924,"poi_diversity":0.8043,"gdp_density":90238.2537,"P":9346.4718,"I":12.4924,"G":90238.2537},{"stationName":"杭州杭氧(地铁站)","station_id":"杭州杭氧(地铁站)_30.29791_120.17429","lineId":"杭州地铁5号线","lat":30.29791063,"lon":120.17428755,"area_km2":1.9415,"D":0.5789,"C":0.9815,"T":0.3415,"U1":0.4069,"U2":0.2761,"couplingDegree":0.5789,"level":"勉强协调","road_density":23.5492,"walk_accessibility":0.3893,"metro_line_density":4.8706,"station_count":2,"line_count":3,"population_density":17091.5445,"poi_density":7.211,"poi_diversity":1.2266,"gdp_density":81866.6595,"P":17091.5445,"I":7.211,"G":81866.6595},{"stationName":"杭州宝善桥(地铁站)","station_id":"杭州宝善桥(地铁站)_30.27417_120.17525","lineId":"杭州地铁5号线","lat":30.27417443,"lon":120.17524655,"area_km2":2.8785,"D":0.6255,"C":0.991,"T":0.3948,"U1":0.3419,"U2":0.4478,"couplingDegree":0.6255,"level":"良好协调","road_density":29.0273,"walk_accessibility":0.5771,"metro_line_density":4.0728,"station_count":3,"line_count":2,"population_density":36837.1608,"poi_density":21.8866,"poi_diversity":1.3965,"gdp_density":53774.5772,"P":36837.1608,"I":21.8866,"G":53774.5772},{"stationName":"杭州万安桥(地铁站)","station_id":"杭州万安桥(地铁站)_30.25528_120.17580","lineId":"杭州地铁5号线","lat":30.25527816,"lon":120.17580035,"area_km2":3.4538,"D":0.7687,"C":0.9992,"T":0.5914,"U1":0.615,"U2":0.5678,"couplingDegree":0.7687,"level":"良好协调","road_density":29.4174,"walk_accessibility":0.6925,"metro_line_density":2.1668,"station_count":3,"line_count":4,"population_density":38241.7379,"poi_density":32.1383,"poi_diversity":2.0822,"gdp_density":56656.1423,"P":38241.7379,"I":32.1383,"G":56656.1423},{"stationName":"杭州江城路(地铁站)","station_id":"杭州江城路(地铁站)_30.24094_120.17358","lineId":"杭州地铁5号线","lat":30.24093575,"lon":120.17358134,"area_km2":2.8154,"D":0.7699,"C":0.9898,"T":0.5988,"U1":0.6842,"U2":0.5135,"couplingDegree":0.7699,"level":"良好协调","road_density":28.8172,"walk_accessibility":0.5645,"metro_line_density":4.7005,"station_count":4,"line_count":4,"population_density":12735.5672,"poi_density":36.9394,"poi_diversity":2.4324,"gdp_density":134176.6733,"P":12735.5672,"I":36.9394,"G":134176.6733},{"stationName":"杭州候潮门(地铁站)","station_id":"杭州候潮门(地铁站)_30.22843_120.16852","lineId":"杭州地铁5号线","lat":30.22842563,"lon":120.1685154,"area_km2":3.1007,"D":0.5711,"C":0.9866,"T":0.3306,"U1":0.2767,"U2":0.3846,"couplingDegree":0.5711,"level":"勉强协调","road_density":31.2689,"walk_accessibility":0.6217,"metro_line_density":2.2229,"station_count":2,"line_count":2,"population_density":17253.6246,"poi_density":15.158,"poi_diversity":1.8302,"gdp_density":120814.0731,"P":17253.6246,"I":15.158,"G":120814.0731},{"stationName":"杭州长河(地铁站)","station_id":"杭州长河(地铁站)_30.19965_120.18937","lineId":"杭州地铁5号线","lat":30.19965416,"lon":120.18936742,"area_km2":2.7779,"D":0.5668,"C":0.9585,"T":0.3352,"U1":0.4307,"U2":0.2397,"couplingDegree":0.5668,"level":"勉强协调","road_density":33.8985,"walk_accessibility":0.557,"metro_line_density":4.0952,"station_count":2,"line_count":3,"population_density":9030.2309,"poi_density":6.1197,"poi_diversity":0.2237,"gdp_density":406438.5087,"P":9030.2309,"I":6.1197,"G":406438.5087},{"stationName":"杭州聚才路(地铁站)","station_id":"杭州聚才路(地铁站)_30.18484_120.19424","lineId":"杭州地铁5号线","lat":30.18483971,"lon":120.19424372,"area_km2":1.8784,"D":0.4529,"C":0.9743,"T":0.2105,"U1":0.2579,"U2":0.1631,"couplingDegree":0.4529,"level":"勉强协调","road_density":26.6672,"walk_accessibility":0.3766,"metro_line_density":2.4817,"station_count":2,"line_count":2,"population_density":2598.4555,"poi_density":4.7913,"poi_diversity":0.6837,"gdp_density":168141.5222,"P":2598.4555,"I":4.7913,"G":168141.5222},{"stationName":"杭州江晖路(地铁站)","station_id":"杭州江晖路(地铁站)_30.18399_120.20720","lineId":"杭州地铁18号线 / 杭州地铁5号线","lat":30.183993585,"lon":120.207204225,"area_km2":2.1136,"D":0.5008,"C":0.8331,"T":0.3011,"U1":0.4676,"U2":0.1346,"couplingDegree":0.5008,"level":"勉强协调","road_density":22.0525,"walk_accessibility":0.4238,"metro_line_density":5.208,"station_count":3,"line_count":3,"population_density":5353.7793,"poi_density":4.258,"poi_diversity":0.3488,"gdp_density":149515.4992,"P":5353.7793,"I":4.258,"G":149515.4992},{"stationName":"杭州博奥路(地铁站)","station_id":"杭州博奥路(地铁站)_30.18480_120.23969","lineId":"杭州地铁5号线","lat":30.18479758,"lon":120.23969176,"area_km2":1.8478,"D":0.4897,"C":0.9959,"T":0.2408,"U1":0.2626,"U2":0.219,"couplingDegree":0.4897,"level":"勉强协调","road_density":22.832,"walk_accessibility":0.3705,"metro_line_density":4.4888,"station_count":2,"line_count":2,"population_density":5453.6193,"poi_density":9.7415,"poi_diversity":1.3031,"gdp_density":46471.3091,"P":5453.6193,"I":9.7415,"G":46471.3091},{"stationName":"杭州金鸡路(地铁站)","station_id":"杭州金鸡路(地铁站)_30.18435_120.24893","lineId":"杭州地铁15号线 / 杭州地铁5号线","lat":30.18434962666667,"lon":120.24892903333334,"area_km2":1.883,"D":0.5089,"C":1.0,"T":0.259,"U1":0.2609,"U2":0.2571,"couplingDegree":0.5089,"level":"勉强协调","road_density":19.3223,"walk_accessibility":0.3775,"metro_line_density":5.2966,"station_count":2,"line_count":2,"population_density":6033.8363,"poi_density":13.2764,"poi_diversity":1.5078,"gdp_density":46142.2259,"P":6033.8363,"I":13.2764,"G":46142.2259},{"stationName":"杭州育才北路(地铁站)","station_id":"杭州育才北路(地铁站)_30.18324_120.27145","lineId":"杭州地铁5号线","lat":30.18324256,"lon":120.2714468,"area_km2":1.9887,"D":0.5041,"C":0.9757,"T":0.2605,"U1":0.3175,"U2":0.2034,"couplingDegree":0.5041,"level":"勉强协调","road_density":21.6482,"walk_accessibility":0.3987,"metro_line_density":3.8784,"station_count":3,"line_count":2,"population_density":7028.7019,"poi_density":8.5483,"poi_diversity":1.2001,"gdp_density":22083.741,"P":7028.7019,"I":8.5483,"G":22083.741},{"stationName":"杭州通惠中路(地铁站)","station_id":"杭州通惠中路(地铁站)_30.18292_120.28071","lineId":"杭州地铁5号线","lat":30.182921295,"lon":120.28071487,"area_km2":1.6384,"D":0.3588,"C":0.998,"T":0.129,"U1":0.1209,"U2":0.1371,"couplingDegree":0.3588,"level":"中度失调","road_density":28.1147,"walk_accessibility":0.3285,"metro_line_density":2.7681,"station_count":2,"line_count":1,"population_density":1788.3611,"poi_density":5.4933,"poi_diversity":0.8487,"gdp_density":50858.4276,"P":1788.3611,"I":5.4933,"G":50858.4276},{"stationName":"杭州火车南站(地铁站)","station_id":"杭州火车南站(地铁站)_30.17509_120.29285","lineId":"杭州地铁5号线","lat":30.17508843,"lon":120.29285207,"area_km2":1.1714,"D":0.1879,"C":0.4995,"T":0.0707,"U1":0.1319,"U2":0.0094,"couplingDegree":0.1879,"level":"极度失调","road_density":35.9219,"walk_accessibility":0.2349,"metro_line_density":2.6505,"station_count":2,"line_count":1,"population_density":484.8772,"poi_density":0.0,"poi_diversity":0.0,"gdp_density":19345.5755,"P":484.8772,"I":0.0,"G":19345.5755},{"stationName":"杭州双桥(地铁站)","station_id":"杭州双桥(地铁站)_30.17554_120.30428","lineId":"杭州地铁5号线","lat":30.17553835,"lon":120.30427695,"area_km2":1.7665,"D":0.2621,"C":0.8694,"T":0.079,"U1":0.1181,"U2":0.04,"couplingDegree":0.2621,"level":"中度失调","road_density":28.4038,"walk_accessibility":0.3542,"metro_line_density":2.0585,"station_count":2,"line_count":1,"population_density":5267.9266,"poi_density":0.5661,"poi_diversity":0.0,"gdp_density":26749.4738,"P":5267.9266,"I":0.5661,"G":26749.4738},{"stationName":"杭州双浦(地铁站)","station_id":"杭州双浦(地铁站)_30.11825_120.07898","lineId":"杭州地铁6号线","lat":30.118252849999998,"lon":120.07897525499999,"area_km2":1.5652,"D":0.1985,"C":0.9996,"T":0.0394,"U1":0.0406,"U2":0.0383,"couplingDegree":0.1985,"level":"极度失调","road_density":16.1831,"walk_accessibility":0.3138,"metro_line_density":3.5197,"station_count":1,"line_count":1,"population_density":1109.0921,"poi_density":0.0,"poi_diversity":0.0,"gdp_density":91332.7088,"P":1109.0921,"I":0.0,"G":91332.7088},{"stationName":"杭州科海路(地铁站)","station_id":"杭州科海路(地铁站)_30.13182_120.08221","lineId":"杭州地铁6号线","lat":30.131824795,"lon":120.08221459,"area_km2":2.2053,"D":0.3213,"C":0.7731,"T":0.1336,"U1":0.0488,"U2":0.2183,"couplingDegree":0.3213,"level":"中度失调","road_density":20.6218,"walk_accessibility":0.4422,"metro_line_density":2.4882,"station_count":1,"line_count":1,"population_density":5436.4809,"poi_density":4.5346,"poi_diversity":1.4979,"gdp_density":46021.6769,"P":5436.4809,"I":4.5346,"G":46021.6769},{"stationName":"杭州霞鸣街(地铁站)","station_id":"杭州霞鸣街(地铁站)_30.14552_120.06837","lineId":"杭州地铁6号线","lat":30.14552059,"lon":120.06836923,"area_km2":1.9048,"D":0.2607,"C":0.9136,"T":0.0744,"U1":0.1046,"U2":0.0441,"couplingDegree":0.2607,"level":"中度失调","road_density":19.5242,"walk_accessibility":0.3819,"metro_line_density":2.6052,"station_count":2,"line_count":1,"population_density":1971.8605,"poi_density":3.6749,"poi_diversity":0.0,"gdp_density":53730.5735,"P":1971.8605,"I":3.6749,"G":53730.5735},{"stationName":"杭州美院象山(地铁站)","station_id":"杭州美院象山(地铁站)_30.15346_120.07652","lineId":"杭州地铁6号线","lat":30.15345508,"lon":120.07652028,"area_km2":2.2925,"D":0.4152,"C":0.9283,"T":0.1857,"U1":0.1166,"U2":0.2547,"couplingDegree":0.4152,"level":"勉强协调","road_density":20.9246,"walk_accessibility":0.4596,"metro_line_density":3.4869,"station_count":2,"line_count":1,"population_density":3461.2778,"poi_density":5.2344,"poi_diversity":1.7918,"gdp_density":85307.5205,"P":3461.2778,"I":5.2344,"G":85307.5205},{"stationName":"杭州枫桦西路(地铁站)","station_id":"杭州枫桦西路(地铁站)_30.15754_120.09416","lineId":"杭州地铁6号线","lat":30.15753802,"lon":120.09416402,"area_km2":1.6071,"D":0.2362,"C":0.782,"T":0.0714,"U1":0.1158,"U2":0.0269,"couplingDegree":0.2362,"level":"中度失调","road_density":20.0883,"walk_accessibility":0.3222,"metro_line_density":4.5958,"station_count":2,"line_count":1,"population_density":572.4581,"poi_density":3.1112,"poi_diversity":0.0,"gdp_density":32490.7329,"P":572.4581,"I":3.1112,"G":32490.7329},{"stationName":"杭州之江文化中心(地铁站)","station_id":"杭州之江文化中心(地铁站)_30.16024_120.10292","lineId":"杭州地铁6号线","lat":30.160244820000003,"lon":120.10291744,"area_km2":0.1649,"D":0.0,"C":0.0,"T":0.0457,"U1":0.0913,"U2":0.0,"couplingDegree":0.0,"level":"极度失调","road_density":13.5401,"walk_accessibility":0.0331,"metro_line_density":4.8968,"station_count":2,"line_count":1,"population_density":0.0,"poi_density":0.0,"poi_diversity":0.0,"gdp_density":0.0,"P":0.0,"I":0.0,"G":0.0},{"stationName":"杭州西浦路(地铁站)","station_id":"杭州西浦路(地铁站)_30.17102_120.13290","lineId":"杭州地铁6号线","lat":30.17101602,"lon":120.13289612,"area_km2":2.3801,"D":0.544,"C":0.9962,"T":0.2971,"U1":0.3229,"U2":0.2712,"couplingDegree":0.544,"level":"勉强协调","road_density":27.7258,"walk_accessibility":0.4772,"metro_line_density":2.2235,"station_count":3,"line_count":2,"population_density":10770.8934,"poi_density":2.5209,"poi_diversity":1.2425,"gdp_density":211935.2675,"P":10770.8934,"I":2.5209,"G":211935.2675},{"stationName":"杭州伟业路(地铁站)","station_id":"杭州伟业路(地铁站)_30.18471_120.15438","lineId":"杭州地铁6号线","lat":30.18470608,"lon":120.15437983,"area_km2":2.4476,"D":0.4458,"C":0.8815,"T":0.2254,"U1":0.3319,"U2":0.119,"couplingDegree":0.4458,"level":"勉强协调","road_density":29.2178,"walk_accessibility":0.4907,"metro_line_density":3.0545,"station_count":3,"line_count":2,"population_density":5072.4056,"poi_density":4.9028,"poi_diversity":0.2868,"gdp_density":120610.079,"P":5072.4056,"I":4.9028,"G":120610.079},{"stationName":"杭州诚业路(地铁站)","station_id":"杭州诚业路(地铁站)_30.18906_120.16538","lineId":"杭州地铁6号线","lat":30.189055279999998,"lon":120.165384115,"area_km2":2.3509,"D":0.4866,"C":0.9676,"T":0.2447,"U1":0.1829,"U2":0.3065,"couplingDegree":0.4866,"level":"勉强协调","road_density":27.0333,"walk_accessibility":0.4713,"metro_line_density":2.4334,"station_count":3,"line_count":1,"population_density":4899.8478,"poi_density":10.6343,"poi_diversity":1.4068,"gdp_density":262009.78,"P":4899.8478,"I":10.6343,"G":262009.78},{"stationName":"杭州建业路(地铁站)","station_id":"杭州建业路(地铁站)_30.19285_120.17413","lineId":"杭州地铁6号线","lat":30.19285158,"lon":120.17412602,"area_km2":2.7969,"D":0.4274,"C":0.955,"T":0.1913,"U1":0.1346,"U2":0.2481,"couplingDegree":0.4274,"level":"勉强协调","road_density":32.0351,"walk_accessibility":0.5608,"metro_line_density":2.0159,"station_count":2,"line_count":1,"population_density":4185.736,"poi_density":7.1508,"poi_diversity":1.2707,"gdp_density":186440.9816,"P":4185.736,"I":7.1508,"G":186440.9816},{"stationName":"杭州江汉路(地铁站)","station_id":"杭州江汉路(地铁站)_30.20523_120.20033","lineId":"杭州地铁18号线 / 杭州地铁6号线","lat":30.20522529,"lon":120.20032759,"area_km2":2.6673,"D":0.6254,"C":0.9985,"T":0.3918,"U1":0.4131,"U2":0.3705,"couplingDegree":0.6254,"level":"良好协调","road_density":26.6768,"walk_accessibility":0.5348,"metro_line_density":3.8011,"station_count":2,"line_count":3,"population_density":6055.1585,"poi_density":16.8709,"poi_diversity":1.9949,"gdp_density":183598.2833,"P":6055.1585,"I":16.8709,"G":183598.2833},{"stationName":"杭州星民(地铁站)","station_id":"杭州星民(地铁站)_30.21566_120.21935","lineId":"杭州地铁6号线","lat":30.2156636,"lon":120.21935417,"area_km2":2.9003,"D":0.5253,"C":0.9997,"T":0.276,"U1":0.2697,"U2":0.2824,"couplingDegree":0.5253,"level":"勉强协调","road_density":28.5905,"walk_accessibility":0.5815,"metro_line_density":2.2655,"station_count":2,"line_count":2,"population_density":3178.2664,"poi_density":7.2406,"poi_diversity":1.6582,"gdp_density":184527.3638,"P":3178.2664,"I":7.2406,"G":184527.3638},{"stationName":"杭州博览中心(地铁站)","station_id":"杭州博览中心(地铁站)_30.23490_120.23202","lineId":"杭州地铁6号线","lat":30.23490109,"lon":120.23202035,"area_km2":2.5671,"D":0.4701,"C":0.987,"T":0.2239,"U1":0.26,"U2":0.1879,"couplingDegree":0.4701,"level":"勉强协调","road_density":24.5081,"walk_accessibility":0.5147,"metro_line_density":2.5308,"station_count":2,"line_count":2,"population_density":1411.7142,"poi_density":1.5582,"poi_diversity":1.3863,"gdp_density":87086.8746,"P":1411.7142,"I":1.5582,"G":87086.8746},{"stationName":"杭州丰北(地铁站)","station_id":"杭州丰北(地铁站)_30.25272_120.24540","lineId":"杭州地铁15号线 / 杭州地铁6号线","lat":30.252720585,"lon":120.24539754,"area_km2":2.466,"D":0.2009,"C":0.2975,"T":0.1356,"U1":0.2652,"U2":0.0061,"couplingDegree":0.2009,"level":"中度失调","road_density":22.4594,"walk_accessibility":0.4944,"metro_line_density":4.14,"station_count":2,"line_count":2,"population_density":448.5043,"poi_density":0.0,"poi_diversity":0.0,"gdp_density":10555.2618,"P":448.5043,"I":0.0,"G":10555.2618},{"stationName":"杭州亚运村(地铁站)","station_id":"杭州亚运村(地铁站)_30.26014_120.24292","lineId":"杭州地铁6号线","lat":30.26014287,"lon":120.24292128,"area_km2":1.3344,"D":0.2255,"C":0.3826,"T":0.1328,"U1":0.2556,"U2":0.0101,"couplingDegree":0.2255,"level":"中度失调","road_density":23.1234,"walk_accessibility":0.2675,"metro_line_density":4.0269,"station_count":2,"line_count":2,"population_density":597.2902,"poi_density":0.0,"poi_diversity":0.0,"gdp_density":19506.7326,"P":597.2902,"I":0.0,"G":19506.7326},{"stationName":"杭州三堡(地铁站)","station_id":"杭州三堡(地铁站)_30.26927_120.22346","lineId":"杭州地铁6号线","lat":30.26926759,"lon":120.22345584,"area_km2":2.0938,"D":0.3807,"C":0.9997,"T":0.145,"U1":0.1488,"U2":0.1413,"couplingDegree":0.3807,"level":"中度失调","road_density":27.8185,"walk_accessibility":0.4198,"metro_line_density":6.5826,"station_count":2,"line_count":1,"population_density":8258.6739,"poi_density":3.3432,"poi_diversity":0.4101,"gdp_density":116679.3205,"P":8258.6739,"I":3.3432,"G":116679.3205},{"stationName":"杭州昙花庵路(地铁站)","station_id":"杭州昙花庵路(地铁站)_30.27884_120.21833","lineId":"杭州地铁6号线","lat":30.27883621,"lon":120.21833311,"area_km2":2.3022,"D":0.3785,"C":0.9685,"T":0.1479,"U1":0.1848,"U2":0.1111,"couplingDegree":0.3785,"level":"中度失调","road_density":28.211,"walk_accessibility":0.4616,"metro_line_density":2.4078,"station_count":3,"line_count":1,"population_density":7966.6143,"poi_density":4.3436,"poi_diversity":0.0,"gdp_density":144581.8214,"P":7966.6143,"I":4.3436,"G":144581.8214},{"stationName":"杭州元宝塘(地铁站)","station_id":"杭州元宝塘(地铁站)_30.28644_120.21605","lineId":"杭州地铁6号线","lat":30.28644438,"lon":120.21605423,"area_km2":2.4098,"D":0.5732,"C":0.8033,"T":0.4089,"U1":0.6525,"U2":0.1654,"couplingDegree":0.5732,"level":"勉强协调","road_density":31.7717,"walk_accessibility":0.4832,"metro_line_density":2.4359,"station_count":6,"line_count":3,"population_density":14708.8637,"poi_density":4.1498,"poi_diversity":0.3251,"gdp_density":102896.4798,"P":14708.8637,"I":4.1498,"G":102896.4798},{"stationName":"杭州火车东站(东广场)(地铁站)","station_id":"杭州火车东站(东广场)(地铁站)_30.29626_120.21179","lineId":"杭州地铁6号线","lat":30.29626284,"lon":120.21179063,"area_km2":1.8737,"D":0.5649,"C":0.7811,"T":0.4086,"U1":0.6637,"U2":0.1534,"couplingDegree":0.5649,"level":"勉强协调","road_density":27.7532,"walk_accessibility":0.3757,"metro_line_density":6.2359,"station_count":6,"line_count":3,"population_density":13622.2347,"poi_density":4.2696,"poi_diversity":0.3768,"gdp_density":69102.7936,"P":13622.2347,"I":4.2696,"G":69102.7936},{"stationName":"杭州枸桔弄(地铁站)","station_id":"杭州枸桔弄(地铁站)_30.30366_120.20200","lineId":"杭州地铁6号线","lat":30.30365509,"lon":120.20199696,"area_km2":2.3077,"D":0.3894,"C":0.9869,"T":0.1537,"U1":0.1289,"U2":0.1785,"couplingDegree":0.3894,"level":"中度失调","road_density":26.0131,"walk_accessibility":0.4627,"metro_line_density":3.7487,"station_count":2,"line_count":1,"population_density":16465.1797,"poi_density":3.4666,"poi_diversity":0.3768,"gdp_density":105728.6659,"P":16465.1797,"I":3.4666,"G":105728.6659},{"stationName":"杭州吴山广场(地铁站)","station_id":"杭州吴山广场(地铁站)_30.24220_120.15919","lineId":"杭州地铁7号线","lat":30.24219785,"lon":120.15918864,"area_km2":2.5644,"D":0.6329,"C":0.9058,"T":0.4421,"U1":0.2548,"U2":0.6294,"couplingDegree":0.6329,"level":"良好协调","road_density":24.4812,"walk_accessibility":0.5142,"metro_line_density":1.7409,"station_count":2,"line_count":2,"population_density":10444.6606,"poi_density":63.9533,"poi_diversity":2.8689,"gdp_density":66980.5196,"P":10444.6606,"I":63.9533,"G":66980.5196},{"stationName":"杭州莫邪塘(地铁站)","station_id":"杭州莫邪塘(地铁站)_30.24566_120.18241","lineId":"杭州地铁18号线 / 杭州地铁7号线","lat":30.245656979999996,"lon":120.18240850666666,"area_km2":2.2045,"D":0.5927,"C":0.7736,"T":0.4541,"U1":0.7419,"U2":0.1664,"couplingDegree":0.5927,"level":"勉强协调","road_density":26.172,"walk_accessibility":0.442,"metro_line_density":6.0487,"station_count":5,"line_count":4,"population_density":12246.8794,"poi_density":12.2478,"poi_diversity":0.3154,"gdp_density":55213.0221,"P":12246.8794,"I":12.2478,"G":55213.0221},{"stationName":"杭州观音塘(地铁站)","station_id":"杭州观音塘(地铁站)_30.24949_120.19705","lineId":"杭州地铁7号线","lat":30.24949426,"lon":120.19705079,"area_km2":2.6879,"D":0.569,"C":0.8815,"T":0.3673,"U1":0.5407,"U2":0.1939,"couplingDegree":0.569,"level":"勉强协调","road_density":29.7361,"walk_accessibility":0.5389,"metro_line_density":3.9793,"station_count":4,"line_count":3,"population_density":7438.5688,"poi_density":10.4171,"poi_diversity":0.6082,"gdp_density":140877.0587,"P":7438.5688,"I":10.4171,"G":140877.0587},{"stationName":"杭州兴议(地铁站)","station_id":"杭州兴议(地铁站)_30.21459_120.23411","lineId":"杭州地铁7号线","lat":30.21458939,"lon":120.23410796,"area_km2":2.5415,"D":0.2513,"C":1.0,"T":0.0631,"U1":0.0634,"U2":0.0629,"couplingDegree":0.2513,"level":"中度失调","road_density":25.3464,"walk_accessibility":0.5096,"metro_line_density":2.7798,"station_count":1,"line_count":1,"population_density":1245.3468,"poi_density":0.3935,"poi_diversity":0.0,"gdp_density":154380.1091,"P":1245.3468,"I":0.3935,"G":154380.1091},{"stationName":"杭州明星路(地铁站)","station_id":"杭州明星路(地铁站)_30.20727_120.24449","lineId":"杭州地铁15号线 / 杭州地铁7号线","lat":30.207270425,"lon":120.24449022,"area_km2":1.9933,"D":0.4567,"C":0.9966,"T":0.2093,"U1":0.1921,"U2":0.2265,"couplingDegree":0.4567,"level":"勉强协调","road_density":16.5345,"walk_accessibility":0.3996,"metro_line_density":4.6709,"station_count":1,"line_count":2,"population_density":2030.8375,"poi_density":2.0068,"poi_diversity":1.3863,"gdp_density":181836.2129,"P":2030.8375,"I":2.0068,"G":181836.2129},{"stationName":"杭州新兴路(地铁站)","station_id":"杭州新兴路(地铁站)_30.20723_120.29071","lineId":"杭州地铁7号线","lat":30.20722935,"lon":120.29070685,"area_km2":2.1403,"D":0.225,"C":0.7673,"T":0.066,"U1":0.1083,"U2":0.0237,"couplingDegree":0.225,"level":"中度失调","road_density":20.4556,"walk_accessibility":0.4291,"metro_line_density":2.5433,"station_count":2,"line_count":1,"population_density":2264.1617,"poi_density":0.0,"poi_diversity":0.0,"gdp_density":32523.8471,"P":2264.1617,"I":0.0,"G":32523.8471},{"stationName":"杭州新汉路(地铁站)","station_id":"杭州新汉路(地铁站)_30.20539_120.30201","lineId":"杭州地铁7号线","lat":30.20538875,"lon":120.30201392,"area_km2":1.6188,"D":0.2279,"C":0.7891,"T":0.0658,"U1":0.1062,"U2":0.0254,"couplingDegree":0.2279,"level":"中度失调","road_density":18.6613,"walk_accessibility":0.3246,"metro_line_density":3.537,"station_count":2,"line_count":1,"population_density":2771.1233,"poi_density":0.0,"poi_diversity":0.0,"gdp_density":29685.4885,"P":2771.1233,"I":0.0,"G":29685.4885},{"stationName":"杭州新街(地铁站)","station_id":"杭州新街(地铁站)_30.20183_120.32657","lineId":"杭州地铁19号线 / 杭州地铁7号线","lat":30.201831146666667,"lon":120.32657105666665,"area_km2":1.1606,"D":0.2815,"C":0.5556,"T":0.1427,"U1":0.2613,"U2":0.024,"couplingDegree":0.2815,"level":"中度失调","road_density":17.5309,"walk_accessibility":0.2327,"metro_line_density":6.9558,"station_count":2,"line_count":2,"population_density":1601.7404,"poi_density":0.0,"poi_diversity":0.0,"gdp_density":43650.2268,"P":1601.7404,"I":0.0,"G":43650.2268},{"stationName":"杭州合欢路(地铁站)","station_id":"杭州合欢路(地铁站)_30.20044_120.33910","lineId":"杭州地铁7号线","lat":30.2004381,"lon":120.33909932,"area_km2":1.553,"D":0.2825,"C":0.556,"T":0.1435,"U1":0.2628,"U2":0.0242,"couplingDegree":0.2825,"level":"中度失调","road_density":19.4192,"walk_accessibility":0.3114,"metro_line_density":6.0394,"station_count":2,"line_count":2,"population_density":1491.9843,"poi_density":0.0,"poi_diversity":0.0,"gdp_density":45828.4532,"P":1491.9843,"I":0.0,"G":45828.4532},{"stationName":"杭州盈中(地铁站)","station_id":"杭州盈中(地铁站)_30.20002_120.35846","lineId":"杭州地铁7号线","lat":30.20001657,"lon":120.35845677,"area_km2":1.957,"D":0.1836,"C":0.9623,"T":0.035,"U1":0.0446,"U2":0.0255,"couplingDegree":0.1836,"level":"极度失调","road_density":19.1428,"walk_accessibility":0.3924,"metro_line_density":2.6429,"station_count":1,"line_count":1,"population_density":3949.4991,"poi_density":0.0,"poi_diversity":0.0,"gdp_density":12148.4528,"P":3949.4991,"I":0.0,"G":12148.4528},{"stationName":"杭州坎山(地铁站)","station_id":"杭州坎山(地铁站)_30.20006_120.39051","lineId":"杭州地铁7号线","lat":30.20005704,"lon":120.3905114,"area_km2":2.6121,"D":0.1576,"C":0.8649,"T":0.0287,"U1":0.0431,"U2":0.0143,"couplingDegree":0.1576,"level":"极度失调","road_density":17.634,"walk_accessibility":0.5237,"metro_line_density":1.9802,"station_count":1,"line_count":1,"population_density":1562.3174,"poi_density":0.0,"poi_diversity":0.0,"gdp_density":16736.8176,"P":1562.3174,"I":0.0,"G":16736.8176},{"stationName":"杭州新港(地铁站)","station_id":"杭州新港(地铁站)_30.22151_120.40383","lineId":"杭州地铁7号线","lat":30.22151031,"lon":120.4038338,"area_km2":2.1201,"D":0.1554,"C":0.8698,"T":0.0278,"U1":0.0415,"U2":0.0141,"couplingDegree":0.1554,"level":"极度失调","road_density":18.9988,"walk_accessibility":0.4251,"metro_line_density":1.9738,"station_count":1,"line_count":1,"population_density":768.3513,"poi_density":0.0,"poi_diversity":0.0,"gdp_density":28089.8684,"P":768.3513,"I":0.0,"G":28089.8684},{"stationName":"杭州永盛路(地铁站)","station_id":"杭州永盛路(地铁站)_30.23885_120.46859","lineId":"杭州地铁7号线","lat":30.238853265,"lon":120.4685851,"area_km2":1.9515,"D":0.1713,"C":0.9269,"T":0.0316,"U1":0.0435,"U2":0.0198,"couplingDegree":0.1713,"level":"极度失调","road_density":17.9805,"walk_accessibility":0.3913,"metro_line_density":2.8602,"station_count":1,"line_count":1,"population_density":1787.3502,"poi_density":0.5124,"poi_diversity":0.0,"gdp_density":23003.4228,"P":1787.3502,"I":0.5124,"G":23003.4228},{"stationName":"杭州新镇路(地铁站)","station_id":"杭州新镇路(地铁站)_30.26080_120.47981","lineId":"杭州地铁7号线","lat":30.2607996,"lon":120.47980515500001,"area_km2":1.6936,"D":0.1874,"C":0.9898,"T":0.0355,"U1":0.0405,"U2":0.0304,"couplingDegree":0.1874,"level":"极度失调","road_density":17.745,"walk_accessibility":0.3396,"metro_line_density":2.8324,"station_count":1,"line_count":1,"population_density":3734.0178,"poi_density":0.0,"poi_diversity":0.0,"gdp_density":29314.7557,"P":3734.0178,"I":0.0,"G":29314.7557},{"stationName":"杭州义蓬(地铁站)","station_id":"杭州义蓬(地铁站)_30.27629_120.48284","lineId":"杭州地铁7号线","lat":30.27628942,"lon":120.48283638,"area_km2":1.9485,"D":0.2294,"C":0.8218,"T":0.064,"U1":0.1005,"U2":0.0276,"couplingDegree":0.2294,"level":"中度失调","road_density":16.71,"walk_accessibility":0.3907,"metro_line_density":2.8042,"station_count":2,"line_count":1,"population_density":2407.537,"poi_density":0.0,"poi_diversity":0.0,"gdp_density":41334.6026,"P":2407.537,"I":0.0,"G":41334.6026},{"stationName":"杭州塘新线(地铁站)","station_id":"杭州塘新线(地铁站)_30.28691_120.48594","lineId":"杭州地铁7号线","lat":30.28691095,"lon":120.48593694,"area_km2":1.8198,"D":0.1875,"C":0.6095,"T":0.0577,"U1":0.1034,"U2":0.0119,"couplingDegree":0.1875,"level":"极度失调","road_density":17.3652,"walk_accessibility":0.3649,"metro_line_density":3.2205,"station_count":2,"line_count":1,"population_density":1249.0109,"poi_density":0.0,"poi_diversity":0.0,"gdp_density":14810.0935,"P":1249.0109,"I":0.0,"G":14810.0935},{"stationName":"杭州青六中路(地铁站)","station_id":"杭州青六中路(地铁站)_30.30031_120.48740","lineId":"杭州地铁7号线 / 杭州地铁8号线","lat":30.30031496,"lon":120.48740244999999,"area_km2":1.1478,"D":0.2091,"C":0.4134,"T":0.1058,"U1":0.2021,"U2":0.0095,"couplingDegree":0.2091,"level":"中度失调","road_density":20.4799,"walk_accessibility":0.2301,"metro_line_density":6.1525,"station_count":1,"line_count":2,"population_density":276.1847,"poi_density":0.0,"poi_diversity":0.0,"gdp_density":22546.0777,"P":276.1847,"I":0.0,"G":22546.0777},{"stationName":"杭州启成路(地铁站)","station_id":"杭州启成路(地铁站)_30.31440_120.49004","lineId":"杭州地铁7号线","lat":30.31439694,"lon":120.4900408,"area_km2":1.635,"D":0.1603,"C":0.8648,"T":0.0297,"U1":0.0446,"U2":0.0148,"couplingDegree":0.1603,"level":"极度失调","road_density":18.5419,"walk_accessibility":0.3278,"metro_line_density":3.3032,"station_count":1,"line_count":1,"population_density":645.8588,"poi_density":0.0,"poi_diversity":0.0,"gdp_density":32015.8818,"P":645.8588,"I":0.0,"G":32015.8818},{"stationName":"杭州江东二路(地铁站)","station_id":"杭州江东二路(地铁站)_30.32605_120.49037","lineId":"杭州地铁7号线","lat":30.32604833,"lon":120.49036755,"area_km2":1.2858,"D":0.167,"C":0.9931,"T":0.0281,"U1":0.0314,"U2":0.0248,"couplingDegree":0.167,"level":"极度失调","road_density":17.3939,"walk_accessibility":0.2578,"metro_line_density":2.0894,"station_count":1,"line_count":1,"population_density":1564.0425,"poi_density":0.0,"poi_diversity":0.0,"gdp_density":46383.8543,"P":1564.0425,"I":0.0,"G":46383.8543},{"stationName":"杭州工商大学云滨(地铁站)","station_id":"杭州工商大学云滨(地铁站)_30.31324_120.38841","lineId":"杭州地铁8号线","lat":30.31324231,"lon":120.38841016,"area_km2":1.6826,"D":0.2655,"C":0.956,"T":0.0737,"U1":0.0521,"U2":0.0953,"couplingDegree":0.2655,"level":"中度失调","road_density":24.1237,"walk_accessibility":0.3373,"metro_line_density":2.6112,"station_count":1,"line_count":1,"population_density":5064.3242,"poi_density":2.9717,"poi_diversity":0.5004,"gdp_density":13155.594,"P":5064.3242,"I":2.9717,"G":13155.594},{"stationName":"杭州桥头堡(地铁站)","station_id":"杭州桥头堡(地铁站)_30.30541_120.42789","lineId":"杭州地铁8号线","lat":30.30540912,"lon":120.42789148,"area_km2":1.0294,"D":0.1493,"C":0.9995,"T":0.0223,"U1":0.0216,"U2":0.023,"couplingDegree":0.1493,"level":"极度失调","road_density":17.8756,"walk_accessibility":0.2064,"metro_line_density":0.7645,"station_count":1,"line_count":1,"population_density":667.3857,"poi_density":0.0,"poi_diversity":0.0,"gdp_density":54915.0602,"P":667.3857,"I":0.0,"G":54915.0602},{"stationName":"杭州河庄路(地铁站)","station_id":"杭州河庄路(地铁站)_30.30106_120.45346","lineId":"杭州地铁8号线","lat":30.30106074,"lon":120.45345956,"area_km2":2.3629,"D":0.1647,"C":0.8935,"T":0.0304,"U1":0.044,"U2":0.0167,"couplingDegree":0.1647,"level":"极度失调","road_density":18.6986,"walk_accessibility":0.4738,"metro_line_density":2.1237,"station_count":1,"line_count":1,"population_density":1353.4349,"poi_density":0.0,"poi_diversity":0.0,"gdp_density":26742.8233,"P":1353.4349,"I":0.0,"G":26742.8233},{"stationName":"杭州青西三路(地铁站)","station_id":"杭州青西三路(地铁站)_30.30064_120.47331","lineId":"杭州地铁8号线","lat":30.30063866,"lon":120.47330808,"area_km2":1.0763,"D":0.0991,"C":0.5401,"T":0.0182,"U1":0.0335,"U2":0.0029,"couplingDegree":0.0991,"level":"极度失调","road_density":22.3831,"walk_accessibility":0.2158,"metro_line_density":1.1115,"station_count":1,"line_count":1,"population_density":536.0868,"poi_density":0.0,"poi_diversity":0.0,"gdp_density":0.0,"P":536.0868,"I":0.0,"G":0.0},{"stationName":"杭州仓北村(地铁站)","station_id":"杭州仓北村(地铁站)_30.29631_120.50337","lineId":"杭州地铁8号线","lat":30.29630886,"lon":120.50336663,"area_km2":1.158,"D":0.1457,"C":0.9136,"T":0.0232,"U1":0.0327,"U2":0.0138,"couplingDegree":0.1457,"level":"极度失调","road_density":16.7393,"walk_accessibility":0.2322,"metro_line_density":2.6857,"station_count":1,"line_count":1,"population_density":1148.5711,"poi_density":0.0,"poi_diversity":0.0,"gdp_density":21557.7294,"P":1148.5711,"I":0.0,"G":21557.7294},{"stationName":"杭州冯娄村(地铁站)","station_id":"杭州冯娄村(地铁站)_30.29666_120.51707","lineId":"杭州地铁8号线","lat":30.2966586,"lon":120.51707325,"area_km2":0.9655,"D":0.1603,"C":0.8025,"T":0.032,"U1":0.0511,"U2":0.0129,"couplingDegree":0.1603,"level":"极度失调","road_density":17.3094,"walk_accessibility":0.1936,"metro_line_density":5.6538,"station_count":1,"line_count":1,"population_density":631.7773,"poi_density":0.0,"poi_diversity":0.0,"gdp_density":26890.9283,"P":631.7773,"I":0.0,"G":26890.9283},{"stationName":"杭州新湾路(地铁站)","station_id":"杭州新湾路(地铁站)_30.29721_120.53769","lineId":"杭州地铁8号线","lat":30.29721208,"lon":120.53769361,"area_km2":1.6324,"D":0.1678,"C":0.981,"T":0.0287,"U1":0.0343,"U2":0.0231,"couplingDegree":0.1678,"level":"极度失调","road_density":19.0777,"walk_accessibility":0.3273,"metro_line_density":1.5128,"station_count":1,"line_count":1,"population_density":1940.7239,"poi_density":0.0,"poi_diversity":0.0,"gdp_density":35931.5722,"P":1940.7239,"I":0.0,"G":35931.5722},{"stationName":"杭州凤新路(地铁站)","station_id":"杭州凤新路(地铁站)_30.26268_119.96424","lineId":"杭州地铁16号线","lat":30.26268241,"lon":119.96423633,"area_km2":1.9165,"D":0.2318,"C":0.3777,"T":0.1423,"U1":0.274,"U2":0.0105,"couplingDegree":0.2318,"level":"中度失调","road_density":26.0091,"walk_accessibility":0.3843,"metro_line_density":5.1605,"station_count":2,"line_count":2,"population_density":612.5716,"poi_density":0.0,"poi_diversity":0.0,"gdp_density":20486.1888,"P":612.5716,"I":0.0,"G":20486.1888},{"stationName":"杭州禹航路(地铁站)","station_id":"杭州禹航路(地铁站)_30.25134_119.95097","lineId":"杭州地铁16号线","lat":30.25133765,"lon":119.95097473,"area_km2":2.4503,"D":0.2315,"C":0.9893,"T":0.0542,"U1":0.0621,"U2":0.0463,"couplingDegree":0.2315,"level":"中度失调","road_density":27.4093,"walk_accessibility":0.4913,"metro_line_density":2.0362,"station_count":1,"line_count":1,"population_density":2184.2083,"poi_density":1.2243,"poi_diversity":0.0,"gdp_density":83943.0601,"P":2184.2083,"I":1.2243,"G":83943.0601},{"stationName":"杭州中泰(地铁站)","station_id":"杭州中泰(地铁站)_30.24566_119.92490","lineId":"杭州地铁16号线","lat":30.24566201,"lon":119.9248991,"area_km2":1.7946,"D":0.1695,"C":0.882,"T":0.0326,"U1":0.0479,"U2":0.0172,"couplingDegree":0.1695,"level":"极度失调","road_density":20.7636,"walk_accessibility":0.3598,"metro_line_density":2.8808,"station_count":1,"line_count":1,"population_density":1788.6747,"poi_density":0.0,"poi_diversity":0.0,"gdp_density":21541.5503,"P":1788.6747,"I":0.0,"G":21541.5503},{"stationName":"杭州南湖(地铁站)","station_id":"杭州南湖(地铁站)_30.24942_119.89505","lineId":"杭州地铁16号线","lat":30.24942222,"lon":119.89504668,"area_km2":1.1856,"D":0.0,"C":0.0,"T":0.0252,"U1":0.0505,"U2":0.0,"couplingDegree":0.0,"level":"极度失调","road_density":19.0998,"walk_accessibility":0.2377,"metro_line_density":4.672,"station_count":1,"line_count":1,"population_density":0.0,"poi_density":0.0,"poi_diversity":0.0,"gdp_density":0.0,"P":0.0,"I":0.0,"G":0.0},{"stationName":"杭州南峰(地铁站)","station_id":"杭州南峰(地铁站)_30.25241_119.87373","lineId":"杭州地铁16号线","lat":30.25241179,"lon":119.87372828,"area_km2":1.3957,"D":0.0908,"C":0.3927,"T":0.021,"U1":0.0403,"U2":0.0017,"couplingDegree":0.0908,"level":"极度失调","road_density":20.0237,"walk_accessibility":0.2798,"metro_line_density":2.4934,"station_count":1,"line_count":1,"population_density":314.546,"poi_density":0.0,"poi_diversity":0.0,"gdp_density":0.0,"P":314.546,"I":0.0,"G":0.0},{"stationName":"杭州青山湖科技城(地铁站)","station_id":"杭州青山湖科技城(地铁站)_30.25957_119.82040","lineId":"杭州地铁16号线","lat":30.25957119,"lon":119.82040132,"area_km2":1.8614,"D":0.1386,"C":0.6789,"T":0.0283,"U1":0.049,"U2":0.0075,"couplingDegree":0.1386,"level":"极度失调","road_density":20.3671,"walk_accessibility":0.3732,"metro_line_density":3.0874,"station_count":1,"line_count":1,"population_density":1093.2547,"poi_density":0.0,"poi_diversity":0.0,"gdp_density":4658.8231,"P":1093.2547,"I":0.0,"G":4658.8231},{"stationName":"杭州八百里(地铁站)","station_id":"杭州八百里(地铁站)_30.26347_119.77174","lineId":"杭州地铁16号线","lat":30.26346668,"lon":119.77173907,"area_km2":1.3069,"D":0.0,"C":0.0,"T":0.0269,"U1":0.0539,"U2":0.0,"couplingDegree":0.0,"level":"极度失调","road_density":21.0751,"walk_accessibility":0.262,"metro_line_density":4.3959,"station_count":1,"line_count":1,"population_density":0.0,"poi_density":0.0,"poi_diversity":0.0,"gdp_density":0.0,"P":0.0,"I":0.0,"G":0.0},{"stationName":"杭州青山湖(地铁站)","station_id":"杭州青山湖(地铁站)_30.25826_119.75078","lineId":"杭州地铁16号线","lat":30.25825731,"lon":119.75077745,"area_km2":0.9266,"D":0.1367,"C":0.5089,"T":0.0367,"U1":0.0683,"U2":0.0051,"couplingDegree":0.1367,"level":"极度失调","road_density":24.0553,"walk_accessibility":0.1858,"metro_line_density":6.2348,"station_count":1,"line_count":1,"population_density":810.5102,"poi_density":0.0,"poi_diversity":0.0,"gdp_density":2136.8977,"P":810.5102,"I":0.0,"G":2136.8977},{"stationName":"杭州农林大学(地铁站)","station_id":"杭州农林大学(地铁站)_30.24702_119.73343","lineId":"杭州地铁16号线","lat":30.24701532,"lon":119.73343079,"area_km2":1.7013,"D":0.1719,"C":0.8694,"T":0.034,"U1":0.0508,"U2":0.0172,"couplingDegree":0.1719,"level":"极度失调","road_density":21.285,"walk_accessibility":0.3411,"metro_line_density":3.2913,"station_count":1,"line_count":1,"population_density":2690.3482,"poi_density":0.5878,"poi_diversity":0.0,"gdp_density":1202.0454,"P":2690.3482,"I":0.5878,"G":1202.0454},{"stationName":"杭州临安广场(地铁站)","station_id":"杭州临安广场(地铁站)_30.23033_119.70149","lineId":"杭州地铁16号线","lat":30.23033208,"lon":119.70148921,"area_km2":2.1212,"D":0.1962,"C":0.9893,"T":0.0389,"U1":0.0446,"U2":0.0332,"couplingDegree":0.1962,"level":"极度失调","road_density":19.7664,"walk_accessibility":0.4253,"metro_line_density":2.2183,"station_count":1,"line_count":1,"population_density":5707.492,"poi_density":0.0,"poi_diversity":0.0,"gdp_density":7335.7796,"P":5707.492,"I":0.0,"G":7335.7796},{"stationName":"杭州九州街(地铁站)","station_id":"杭州九州街(地铁站)_30.20457_119.69108","lineId":"杭州地铁16号线","lat":30.20456867,"lon":119.69107912,"area_km2":1.4903,"D":0.1381,"C":0.7869,"T":0.0243,"U1":0.0392,"U2":0.0093,"couplingDegree":0.1381,"level":"极度失调","road_density":20.8317,"walk_accessibility":0.2988,"metro_line_density":1.9245,"station_count":1,"line_count":1,"population_density":1409.0915,"poi_density":0.0,"poi_diversity":0.0,"gdp_density":4867.4048,"P":1409.0915,"I":0.0,"G":4867.4048}]}