{"cityCode":"440100","year":2009,"stations":[{"stationName":"广州西塱(地铁站)","station_id":"广州西塱(地铁站)_23.06821_113.22651","lineId":"广州地铁10号线 / 广州地铁1号线 / 广州地铁22号线 / 广州广州广佛线(新城东--沥滘)","lat":23.068209426000003,"lon":113.226507804,"area_km2":1.6968,"D":0.4129,"C":0.8217,"T":0.2075,"U1":0.3258,"U2":0.0892,"couplingDegree":0.4129,"level":"勉强协调","road_density":26.3285,"walk_accessibility":0.3402,"metro_line_density":6.9731,"station_count":1,"line_count":4,"population_density":22568.9664,"poi_density":0.0,"poi_diversity":0.0,"gdp_density":0.0,"P":22568.9664,"I":0.0,"G":0.0},{"stationName":"广州坑口(地铁站)","station_id":"广州坑口(地铁站)_23.08157_113.22717","lineId":"广州地铁1号线","lat":23.08157413,"lon":113.22717253,"area_km2":2.5888,"D":0.2831,"C":0.7534,"T":0.1064,"U1":0.1763,"U2":0.0364,"couplingDegree":0.2831,"level":"中度失调","road_density":29.5079,"walk_accessibility":0.519,"metro_line_density":3.535,"station_count":2,"line_count":1,"population_density":9212.4885,"poi_density":0.0,"poi_diversity":0.0,"gdp_density":0.0,"P":9212.4885,"I":0.0,"G":0.0},{"stationName":"广州花地湾(地铁站)","station_id":"广州花地湾(地铁站)_23.08975_113.22871","lineId":"广州地铁1号线","lat":23.08974785,"lon":113.22870587,"area_km2":2.6639,"D":0.303,"C":0.7679,"T":0.1196,"U1":0.1962,"U2":0.043,"couplingDegree":0.303,"level":"中度失调","road_density":33.1286,"walk_accessibility":0.5341,"metro_line_density":4.8753,"station_count":2,"line_count":1,"population_density":10872.6877,"poi_density":0.0,"poi_diversity":0.0,"gdp_density":0.0,"P":10872.6877,"I":0.0,"G":0.0},{"stationName":"广州芳村(地铁站)","station_id":"广州芳村(地铁站)_23.10157_113.23069","lineId":"广州地铁11号线 / 广州地铁1号线 / 广州地铁22号线","lat":23.101569972,"lon":113.230690944,"area_km2":2.4325,"D":0.4231,"C":0.9221,"T":0.1941,"U1":0.2692,"U2":0.119,"couplingDegree":0.4231,"level":"勉强协调","road_density":29.65,"walk_accessibility":0.4877,"metro_line_density":6.7234,"station_count":1,"line_count":3,"population_density":30097.3062,"poi_density":0.0,"poi_diversity":0.0,"gdp_density":0.0,"P":30097.3062,"I":0.0,"G":0.0},{"stationName":"广州黄沙(地铁站)","station_id":"广州黄沙(地铁站)_23.11242_113.23510","lineId":"广州地铁1号线 / 广州地铁6号线","lat":23.112418535000003,"lon":113.235100905,"area_km2":2.1562,"D":0.3603,"C":0.7899,"T":0.1643,"U1":0.2651,"U2":0.0636,"couplingDegree":0.3603,"level":"中度失调","road_density":32.1177,"walk_accessibility":0.4323,"metro_line_density":5.4232,"station_count":2,"line_count":2,"population_density":16073.3693,"poi_density":0.0,"poi_diversity":0.0,"gdp_density":0.0,"P":16073.3693,"I":0.0,"G":0.0},{"stationName":"广州长寿路(地铁站)","station_id":"广州长寿路(地铁站)_23.12109_113.23695","lineId":"广州地铁1号线","lat":23.12108553,"lon":113.23694782499999,"area_km2":3.1815,"D":0.5002,"C":0.9594,"T":0.2608,"U1":0.3344,"U2":0.1872,"couplingDegree":0.5002,"level":"勉强协调","road_density":28.0217,"walk_accessibility":0.6379,"metro_line_density":2.2972,"station_count":3,"line_count":2,"population_density":47342.4604,"poi_density":0.0,"poi_diversity":0.0,"gdp_density":0.0,"P":47342.4604,"I":0.0,"G":0.0},{"stationName":"广州陈家祠(地铁站)","station_id":"广州陈家祠(地铁站)_23.12841_113.24111","lineId":"广州地铁1号线","lat":23.12840889,"lon":113.24111492,"area_km2":3.0666,"D":0.4381,"C":0.9511,"T":0.2018,"U1":0.2641,"U2":0.1395,"couplingDegree":0.4381,"level":"勉强协调","road_density":30.341,"walk_accessibility":0.6148,"metro_line_density":2.8115,"station_count":3,"line_count":1,"population_density":35271.8226,"poi_density":0.0,"poi_diversity":0.0,"gdp_density":0.0,"P":35271.8226,"I":0.0,"G":0.0},{"stationName":"广州西门口(地铁站)","station_id":"广州西门口(地铁站)_23.12790_113.25050","lineId":"广州地铁1号线","lat":23.127900420000003,"lon":113.25050498,"area_km2":3.5231,"D":0.5858,"C":0.8641,"T":0.3971,"U1":0.597,"U2":0.1973,"couplingDegree":0.5858,"level":"勉强协调","road_density":32.1814,"walk_accessibility":0.7064,"metro_line_density":3.6105,"station_count":4,"line_count":4,"population_density":49890.2843,"poi_density":0.0,"poi_diversity":0.0,"gdp_density":0.0,"P":49890.2843,"I":0.0,"G":0.0},{"stationName":"广州公园前(地铁站)","station_id":"广州公园前(地铁站)_23.12810_113.25885","lineId":"广州地铁1号线","lat":23.12809794,"lon":113.25885318,"area_km2":3.2838,"D":0.5343,"C":0.6581,"T":0.4338,"U1":0.7603,"U2":0.1072,"couplingDegree":0.5343,"level":"勉强协调","road_density":31.5047,"walk_accessibility":0.6584,"metro_line_density":5.1549,"station_count":5,"line_count":5,"population_density":27105.6112,"poi_density":0.0,"poi_diversity":0.0,"gdp_density":0.0,"P":27105.6112,"I":0.0,"G":0.0},{"stationName":"广州农讲所(地铁站)","station_id":"广州农讲所(地铁站)_23.12929_113.27026","lineId":"广州地铁1号线","lat":23.12929255,"lon":113.27026288,"area_km2":3.2668,"D":0.6594,"C":0.9843,"T":0.4418,"U1":0.3638,"U2":0.5198,"couplingDegree":0.6594,"level":"良好协调","road_density":32.2013,"walk_accessibility":0.655,"metro_line_density":4.7849,"station_count":3,"line_count":2,"population_density":57552.5706,"poi_density":0.0,"poi_diversity":0.0,"gdp_density":5961.3937,"P":57552.5706,"I":0.0,"G":5961.3937},{"stationName":"广州烈士陵园(地铁站)","station_id":"广州烈士陵园(地铁站)_23.12867_113.28080","lineId":"广州地铁12号线 / 广州地铁1号线","lat":23.12866966,"lon":113.28079735,"area_km2":2.9241,"D":0.613,"C":0.8397,"T":0.4475,"U1":0.6905,"U2":0.2045,"couplingDegree":0.613,"level":"良好协调","road_density":34.1382,"walk_accessibility":0.5863,"metro_line_density":6.8814,"station_count":4,"line_count":5,"population_density":51712.8228,"poi_density":0.0,"poi_diversity":0.0,"gdp_density":0.0,"P":51712.8228,"I":0.0,"G":0.0},{"stationName":"广州东山口(地铁站)","station_id":"广州东山口(地铁站)_23.12652_113.29043","lineId":"广州地铁1号线 / 广州地铁6号线","lat":23.126521175,"lon":113.2904276,"area_km2":3.0671,"D":0.5848,"C":0.9111,"T":0.3754,"U1":0.5301,"U2":0.2206,"couplingDegree":0.5848,"level":"勉强协调","road_density":30.7666,"walk_accessibility":0.6149,"metro_line_density":7.5123,"station_count":3,"line_count":4,"population_density":55804.2746,"poi_density":0.0,"poi_diversity":0.0,"gdp_density":0.0,"P":55804.2746,"I":0.0,"G":0.0},{"stationName":"广州杨箕(地铁站)","station_id":"广州杨箕(地铁站)_23.13014_113.30283","lineId":"广州地铁1号线 / 广州地铁5号线","lat":23.130141115,"lon":113.30282725500001,"area_km2":2.2657,"D":0.529,"C":0.8815,"T":0.3174,"U1":0.4673,"U2":0.1675,"couplingDegree":0.529,"level":"勉强协调","road_density":38.3154,"walk_accessibility":0.4543,"metro_line_density":9.104,"station_count":3,"line_count":3,"population_density":42366.6264,"poi_density":0.0,"poi_diversity":0.0,"gdp_density":0.0,"P":42366.6264,"I":0.0,"G":0.0},{"stationName":"广州体育西路(地铁站)","station_id":"广州体育西路(地铁站)_23.13542_113.31711","lineId":"广州地铁10号线 / 广州地铁1号线","lat":23.135422016666666,"lon":113.31710547333334,"area_km2":2.8779,"D":0.6966,"C":0.9847,"T":0.4928,"U1":0.5786,"U2":0.4071,"couplingDegree":0.6966,"level":"良好协调","road_density":45.0716,"walk_accessibility":0.577,"metro_line_density":9.8035,"station_count":3,"line_count":4,"population_density":19342.5849,"poi_density":0.0,"poi_diversity":0.0,"gdp_density":6745.2251,"P":19342.5849,"I":0.0,"G":6745.2251},{"stationName":"广州体育中心(地铁站)","station_id":"广州体育中心(地铁站)_23.13715_113.32295","lineId":"广州地铁1号线","lat":23.13715107,"lon":113.32294731,"area_km2":3.1275,"D":0.7013,"C":0.991,"T":0.4963,"U1":0.5627,"U2":0.4298,"couplingDegree":0.7013,"level":"良好协调","road_density":41.9356,"walk_accessibility":0.6271,"metro_line_density":7.9619,"station_count":3,"line_count":4,"population_density":31757.1817,"poi_density":0.0,"poi_diversity":0.0,"gdp_density":6206.935,"P":31757.1817,"I":0.0,"G":6206.935},{"stationName":"广州广州东站(地铁站)","station_id":"广州广州东站(地铁站)_23.15339_113.31958","lineId":"广州地铁11号线 / 广州地铁18号线 / 广州地铁1号线 / 广州地铁3号线","lat":23.1533919375,"lon":113.3195788075,"area_km2":1.5228,"D":0.5343,"C":0.7807,"T":0.3656,"U1":0.5941,"U2":0.1372,"couplingDegree":0.5343,"level":"勉强协调","road_density":34.2442,"walk_accessibility":0.3053,"metro_line_density":8.5864,"station_count":3,"line_count":5,"population_density":34687.0103,"poi_density":0.0,"poi_diversity":0.0,"gdp_density":0.0,"P":34687.0103,"I":0.0,"G":0.0},{"stationName":"广州广州南站(地铁站)","station_id":"广州广州南站(地铁站)_22.99152_113.26361","lineId":"广州地铁2号线 / 广州地铁7号线","lat":22.991516100000002,"lon":113.26360775,"area_km2":1.6,"D":0.5546,"C":0.9603,"T":0.3203,"U1":0.2309,"U2":0.4096,"couplingDegree":0.5546,"level":"勉强协调","road_density":30.0987,"walk_accessibility":0.3208,"metro_line_density":2.7638,"station_count":2,"line_count":2,"population_density":173.7466,"poi_density":0.0,"poi_diversity":0.0,"gdp_density":8343.3379,"P":173.7466,"I":0.0,"G":8343.3379},{"stationName":"广州石壁(地铁站)","station_id":"广州石壁(地铁站)_22.99687_113.27331","lineId":"广州地铁2号线 / 广州地铁7号线","lat":22.996867006666665,"lon":113.27331355000001,"area_km2":1.477,"D":0.1064,"C":0.1015,"T":0.1115,"U1":0.2225,"U2":0.0006,"couplingDegree":0.1064,"level":"极度失调","road_density":29.1067,"walk_accessibility":0.2961,"metro_line_density":2.2522,"station_count":2,"line_count":2,"population_density":145.562,"poi_density":0.0,"poi_diversity":0.0,"gdp_density":0.0,"P":145.562,"I":0.0,"G":0.0},{"stationName":"广州会江(地铁站)","station_id":"广州会江(地铁站)_23.01575_113.28105","lineId":"广州地铁2号线","lat":23.01575206,"lon":113.28104841,"area_km2":1.5662,"D":0.1293,"C":0.5608,"T":0.0298,"U1":0.0545,"U2":0.0051,"couplingDegree":0.1293,"level":"极度失调","road_density":26.7174,"walk_accessibility":0.314,"metro_line_density":1.5746,"station_count":1,"line_count":1,"population_density":1296.7487,"poi_density":0.0,"poi_diversity":0.0,"gdp_density":0.0,"P":1296.7487,"I":0.0,"G":0.0},{"stationName":"广州南浦(地铁站)","station_id":"广州南浦(地铁站)_23.03562_113.28780","lineId":"广州地铁2号线","lat":23.03561612,"lon":113.28779802,"area_km2":2.0582,"D":0.2386,"C":0.7027,"T":0.081,"U1":0.1386,"U2":0.0234,"couplingDegree":0.2386,"level":"中度失调","road_density":22.079,"walk_accessibility":0.4127,"metro_line_density":2.2901,"station_count":2,"line_count":1,"population_density":5910.3871,"poi_density":0.0,"poi_diversity":0.0,"gdp_density":0.0,"P":5910.3871,"I":0.0,"G":0.0},{"stationName":"广州洛溪(地铁站)","station_id":"广州洛溪(地铁站)_23.04557_113.29330","lineId":"广州地铁2号线","lat":23.04557025,"lon":113.29329905,"area_km2":2.2862,"D":0.435,"C":0.9639,"T":0.1963,"U1":0.144,"U2":0.2486,"couplingDegree":0.435,"level":"勉强协调","road_density":23.4802,"walk_accessibility":0.4584,"metro_line_density":1.9207,"station_count":2,"line_count":1,"population_density":8711.7699,"poi_density":0.0,"poi_diversity":0.0,"gdp_density":4369.3723,"P":8711.7699,"I":0.0,"G":4369.3723},{"stationName":"广州南洲(地铁站)","station_id":"广州南洲(地铁站)_23.06705_113.29228","lineId":"广州地铁2号线 / 广州广州广佛线(新城东--沥滘)","lat":23.067046689999998,"lon":113.29228402999999,"area_km2":2.0158,"D":0.374,"C":0.7168,"T":0.1951,"U1":0.3312,"U2":0.0591,"couplingDegree":0.374,"level":"中度失调","road_density":28.7488,"walk_accessibility":0.4042,"metro_line_density":5.4052,"station_count":2,"line_count":3,"population_density":14942.2508,"poi_density":0.0,"poi_diversity":0.0,"gdp_density":0.0,"P":14942.2508,"I":0.0,"G":0.0},{"stationName":"广州东晓南(地铁站)","station_id":"广州东晓南(地铁站)_23.07382_113.28831","lineId":"广州地铁10号线 / 广州地铁2号线","lat":23.073824185,"lon":113.288305735,"area_km2":2.4767,"D":0.6381,"C":0.9802,"T":0.4154,"U1":0.3332,"U2":0.4976,"couplingDegree":0.6381,"level":"良好协调","road_density":26.7811,"walk_accessibility":0.4966,"metro_line_density":5.1268,"station_count":2,"line_count":3,"population_density":29273.5439,"poi_density":0.0,"poi_diversity":0.0,"gdp_density":7791.2789,"P":29273.5439,"I":0.0,"G":7791.2789},{"stationName":"广州江泰路(地铁站)","station_id":"广州江泰路(地铁站)_23.08473_113.27448","lineId":"广州地铁11号线 / 广州地铁2号线","lat":23.084725855000002,"lon":113.27447567,"area_km2":1.8654,"D":0.3738,"C":0.894,"T":0.1562,"U1":0.2262,"U2":0.0863,"couplingDegree":0.3738,"level":"中度失调","road_density":24.5891,"walk_accessibility":0.374,"metro_line_density":3.3721,"station_count":2,"line_count":2,"population_density":21813.9451,"poi_density":0.0,"poi_diversity":0.0,"gdp_density":0.0,"P":21813.9451,"I":0.0,"G":0.0},{"stationName":"广州昌岗(地铁站)","station_id":"广州昌岗(地铁站)_23.09278_113.27177","lineId":"广州地铁2号线","lat":23.092775465000003,"lon":113.271770785,"area_km2":2.862,"D":0.4474,"C":0.8885,"T":0.2253,"U1":0.3287,"U2":0.1219,"couplingDegree":0.4474,"level":"勉强协调","road_density":28.3273,"walk_accessibility":0.5738,"metro_line_density":2.2543,"station_count":3,"line_count":2,"population_density":30837.6855,"poi_density":0.0,"poi_diversity":0.0,"gdp_density":0.0,"P":30837.6855,"I":0.0,"G":0.0},{"stationName":"广州江南西(地铁站)","station_id":"广州江南西(地铁站)_23.09990_113.26858","lineId":"广州地铁2号线","lat":23.09989636,"lon":113.26858341,"area_km2":3.0765,"D":0.5809,"C":0.9654,"T":0.3496,"U1":0.2584,"U2":0.4408,"couplingDegree":0.5809,"level":"勉强协调","road_density":30.9584,"walk_accessibility":0.6168,"metro_line_density":1.7326,"station_count":3,"line_count":1,"population_density":33128.4238,"poi_density":0.0,"poi_diversity":0.0,"gdp_density":6320.1454,"P":33128.4238,"I":0.0,"G":6320.1454},{"stationName":"广州市二宫(地铁站)","station_id":"广州市二宫(地铁站)_23.10868_113.26456","lineId":"广州地铁2号线","lat":23.10867898,"lon":113.26455869,"area_km2":2.8643,"D":0.6397,"C":0.9803,"T":0.4174,"U1":0.3349,"U2":0.4999,"couplingDegree":0.6397,"level":"良好协调","road_density":31.105,"walk_accessibility":0.5743,"metro_line_density":2.1328,"station_count":3,"line_count":2,"population_density":42268.6802,"poi_density":0.0,"poi_diversity":0.0,"gdp_density":6788.5295,"P":42268.6802,"I":0.0,"G":6788.5295},{"stationName":"广州海珠广场(地铁站)","station_id":"广州海珠广场(地铁站)_23.11743_113.26044","lineId":"广州地铁2号线 / 广州地铁6号线","lat":23.117431815000003,"lon":113.26044308499999,"area_km2":3.1122,"D":0.5065,"C":0.8946,"T":0.2868,"U1":0.415,"U2":0.1587,"couplingDegree":0.5065,"level":"勉强协调","road_density":27.0237,"walk_accessibility":0.624,"metro_line_density":3.3055,"station_count":3,"line_count":3,"population_density":40126.5755,"poi_density":0.0,"poi_diversity":0.0,"gdp_density":0.0,"P":40126.5755,"I":0.0,"G":0.0},{"stationName":"广州纪念堂(地铁站)","station_id":"广州纪念堂(地铁站)_23.13473_113.25708","lineId":"广州地铁13号线 / 广州地铁2号线 / 广州地铁8号线","lat":23.134734716666667,"lon":113.25708422666666,"area_km2":3.0782,"D":0.7454,"C":0.9948,"T":0.5586,"U1":0.6152,"U2":0.5019,"couplingDegree":0.7454,"level":"良好协调","road_density":32.9765,"walk_accessibility":0.6172,"metro_line_density":7.1913,"station_count":4,"line_count":4,"population_density":48509.1411,"poi_density":0.0,"poi_diversity":0.0,"gdp_density":6326.7661,"P":48509.1411,"I":0.0,"G":6326.7661},{"stationName":"广州越秀公园(地铁站)","station_id":"广州越秀公园(地铁站)_23.14244_113.25617","lineId":"广州地铁2号线","lat":23.14244166,"lon":113.25617401,"area_km2":2.5829,"D":0.5875,"C":0.7504,"T":0.46,"U1":0.764,"U2":0.156,"couplingDegree":0.5875,"level":"勉强协调","road_density":34.8451,"walk_accessibility":0.5179,"metro_line_density":7.5763,"station_count":3,"line_count":7,"population_density":39447.9468,"poi_density":0.0,"poi_diversity":0.0,"gdp_density":0.0,"P":39447.9468,"I":0.0,"G":0.0},{"stationName":"广州广州火车站(地铁站)","station_id":"广州广州火车站(地铁站)_23.15084_113.25170","lineId":"广州地铁11号线 / 广州地铁14号线 / 广州地铁22号线 / 广州地铁2号线 / 广州地铁5号线","lat":23.15084483833333,"lon":113.25170346499999,"area_km2":2.3501,"D":0.569,"C":0.8149,"T":0.3972,"U1":0.6275,"U2":0.167,"couplingDegree":0.569,"level":"勉强协调","road_density":37.1019,"walk_accessibility":0.4712,"metro_line_density":10.065,"station_count":3,"line_count":5,"population_density":42234.9572,"poi_density":0.0,"poi_diversity":0.0,"gdp_density":0.0,"P":42234.9572,"I":0.0,"G":0.0},{"stationName":"广州三元里(地铁站)","station_id":"广州三元里(地铁站)_23.16207_113.25152","lineId":"广州地铁2号线","lat":23.1620706,"lon":113.25152331,"area_km2":1.9886,"D":0.5791,"C":0.8333,"T":0.4025,"U1":0.6249,"U2":0.18,"couplingDegree":0.5791,"level":"勉强协调","road_density":36.5183,"walk_accessibility":0.3987,"metro_line_density":10.9188,"station_count":3,"line_count":5,"population_density":45517.5666,"poi_density":0.0,"poi_diversity":0.0,"gdp_density":0.0,"P":45517.5666,"I":0.0,"G":0.0},{"stationName":"广州飞翔公园(地铁站)","station_id":"广州飞翔公园(地铁站)_23.17149_113.25830","lineId":"广州地铁2号线","lat":23.1714946,"lon":113.2583034,"area_km2":1.3297,"D":0.3831,"C":0.987,"T":0.1487,"U1":0.1726,"U2":0.1248,"couplingDegree":0.3831,"level":"中度失调","road_density":28.7009,"walk_accessibility":0.2666,"metro_line_density":6.8069,"station_count":2,"line_count":1,"population_density":31558.9999,"poi_density":0.0,"poi_diversity":0.0,"gdp_density":0.0,"P":31558.9999,"I":0.0,"G":0.0},{"stationName":"广州白云公园(地铁站)","station_id":"广州白云公园(地铁站)_23.18426_113.26563","lineId":"广州地铁2号线","lat":23.1842649,"lon":113.26562739,"area_km2":2.0487,"D":0.3344,"C":0.7708,"T":0.1451,"U1":0.2375,"U2":0.0526,"couplingDegree":0.3344,"level":"中度失调","road_density":28.7257,"walk_accessibility":0.4108,"metro_line_density":2.9697,"station_count":2,"line_count":2,"population_density":13312.9463,"poi_density":0.0,"poi_diversity":0.0,"gdp_density":0.0,"P":13312.9463,"I":0.0,"G":0.0},{"stationName":"广州白云文化广场(地铁站)","station_id":"广州白云文化广场(地铁站)_23.19388_113.27084","lineId":"广州地铁12号线 / 广州地铁2号线","lat":23.193875730000002,"lon":113.27084250499999,"area_km2":1.8818,"D":0.6411,"C":0.975,"T":0.4215,"U1":0.3279,"U2":0.5151,"couplingDegree":0.6411,"level":"良好协调","road_density":29.5813,"walk_accessibility":0.3773,"metro_line_density":4.4171,"station_count":3,"line_count":2,"population_density":3183.1201,"poi_density":0.0,"poi_diversity":0.0,"gdp_density":10252.7586,"P":3183.1201,"I":0.0,"G":10252.7586},{"stationName":"广州萧岗(地铁站)","station_id":"广州萧岗(地铁站)_23.20122_113.27535","lineId":"广州地铁2号线","lat":23.20121738,"lon":113.27534695,"area_km2":1.6302,"D":0.3294,"C":0.7526,"T":0.1442,"U1":0.2391,"U2":0.0492,"couplingDegree":0.3294,"level":"中度失调","road_density":31.1829,"walk_accessibility":0.3269,"metro_line_density":3.4677,"station_count":2,"line_count":2,"population_density":12453.0698,"poi_density":0.0,"poi_diversity":0.0,"gdp_density":0.0,"P":12453.0698,"I":0.0,"G":0.0},{"stationName":"广州江夏(地铁站)","station_id":"广州江夏(地铁站)_23.21393_113.27810","lineId":"广州地铁2号线","lat":23.21393056,"lon":113.27809704,"area_km2":1.9634,"D":0.2545,"C":0.6833,"T":0.0948,"U1":0.164,"U2":0.0256,"couplingDegree":0.2545,"level":"中度失调","road_density":33.4297,"walk_accessibility":0.3937,"metro_line_density":2.0582,"station_count":2,"line_count":1,"population_density":6469.3061,"poi_density":0.0,"poi_diversity":0.0,"gdp_density":0.0,"P":6469.3061,"I":0.0,"G":0.0},{"stationName":"广州黄边(地铁站)","station_id":"广州黄边(地铁站)_23.22427_113.28202","lineId":"广州地铁2号线","lat":23.22426556,"lon":113.28201544999999,"area_km2":2.006,"D":0.2729,"C":0.4323,"T":0.1723,"U1":0.3276,"U2":0.0169,"couplingDegree":0.2729,"level":"中度失调","road_density":25.595,"walk_accessibility":0.4022,"metro_line_density":5.493,"station_count":3,"line_count":2,"population_density":4282.5567,"poi_density":0.0,"poi_diversity":0.0,"gdp_density":0.0,"P":4282.5567,"I":0.0,"G":0.0},{"stationName":"广州嘉禾望岗(地铁站)","station_id":"广州嘉禾望岗(地铁站)_23.24006_113.28373","lineId":"广州地铁14号线 / 广州地铁2号线","lat":23.24006153,"lon":113.28373465,"area_km2":1.81,"D":0.2032,"C":0.5332,"T":0.0774,"U1":0.143,"U2":0.0119,"couplingDegree":0.2032,"level":"中度失调","road_density":23.7737,"walk_accessibility":0.3629,"metro_line_density":3.5644,"station_count":1,"line_count":2,"population_density":3016.4981,"poi_density":0.0,"poi_diversity":0.0,"gdp_density":0.0,"P":3016.4981,"I":0.0,"G":0.0},{"stationName":"广州南庄(地铁站)","station_id":"广州南庄(地铁站)_22.98568_113.00127","lineId":"广州地铁2号线","lat":22.9856765,"lon":113.00126738,"area_km2":1.0821,"D":0.0,"C":0.0,"T":0.0151,"U1":0.0302,"U2":0.0,"couplingDegree":0.0,"level":"极度失调","road_density":18.5412,"walk_accessibility":0.2169,"metro_line_density":2.414,"station_count":1,"line_count":1,"population_density":0.0,"poi_density":0.0,"poi_diversity":0.0,"gdp_density":0.0,"P":0.0,"I":0.0,"G":0.0},{"stationName":"广州湖涌(地铁站)","station_id":"广州湖涌(地铁站)_23.00587_113.00606","lineId":"广州地铁2号线","lat":23.00586621,"lon":113.00605872,"area_km2":1.522,"D":0.0,"C":0.0,"T":0.023,"U1":0.0459,"U2":0.0,"couplingDegree":0.0,"level":"极度失调","road_density":24.7763,"walk_accessibility":0.3052,"metro_line_density":1.172,"station_count":1,"line_count":1,"population_density":0.0,"poi_density":0.0,"poi_diversity":0.0,"gdp_density":0.0,"P":0.0,"I":0.0,"G":0.0},{"stationName":"广州绿岛湖(地铁站)","station_id":"广州绿岛湖(地铁站)_23.00462_113.02886","lineId":"广州地铁2号线","lat":23.00462025,"lon":113.02886193,"area_km2":1.4413,"D":0.0,"C":0.0,"T":0.0241,"U1":0.0481,"U2":0.0,"couplingDegree":0.0,"level":"极度失调","road_density":19.8971,"walk_accessibility":0.289,"metro_line_density":3.5049,"station_count":1,"line_count":1,"population_density":0.0,"poi_density":0.0,"poi_diversity":0.0,"gdp_density":0.0,"P":0.0,"I":0.0,"G":0.0},{"stationName":"广州智慧新城(地铁站)","station_id":"广州智慧新城(地铁站)_23.01375_113.04998","lineId":"广州地铁2号线","lat":23.01375057,"lon":113.04998269,"area_km2":1.4739,"D":0.0,"C":0.0,"T":0.0318,"U1":0.0635,"U2":0.0,"couplingDegree":0.0,"level":"极度失调","road_density":25.7561,"walk_accessibility":0.2955,"metro_line_density":3.4949,"station_count":1,"line_count":1,"population_density":0.0,"poi_density":0.0,"poi_diversity":0.0,"gdp_density":0.0,"P":0.0,"I":0.0,"G":0.0},{"stationName":"广州张槎(地铁站)","station_id":"广州张槎(地铁站)_23.01360_113.06229","lineId":"广州地铁2号线","lat":23.01360472,"lon":113.06228855,"area_km2":1.9482,"D":0.0,"C":0.0,"T":0.0332,"U1":0.0664,"U2":0.0,"couplingDegree":0.0,"level":"极度失调","road_density":25.3071,"walk_accessibility":0.3906,"metro_line_density":2.7477,"station_count":1,"line_count":1,"population_density":0.0,"poi_density":0.0,"poi_diversity":0.0,"gdp_density":0.0,"P":0.0,"I":0.0,"G":0.0},{"stationName":"广州石湾(地铁站)","station_id":"广州石湾(地铁站)_23.00785_113.07781","lineId":"广州地铁2号线","lat":23.00785134,"lon":113.07780596,"area_km2":1.8673,"D":0.0,"C":0.0,"T":0.0277,"U1":0.0553,"U2":0.0,"couplingDegree":0.0,"level":"极度失调","road_density":21.9283,"walk_accessibility":0.3744,"metro_line_density":2.6126,"station_count":1,"line_count":1,"population_density":0.0,"poi_density":0.0,"poi_diversity":0.0,"gdp_density":0.0,"P":0.0,"I":0.0,"G":0.0},{"stationName":"广州沙岗(地铁站)","station_id":"广州沙岗(地铁站)_22.99907_113.08876","lineId":"广州地铁2号线","lat":22.99907018,"lon":113.08876009,"area_km2":1.9,"D":0.0,"C":0.0,"T":0.0305,"U1":0.0609,"U2":0.0,"couplingDegree":0.0,"level":"极度失调","road_density":23.4604,"walk_accessibility":0.3809,"metro_line_density":2.7693,"station_count":1,"line_count":1,"population_density":0.0,"poi_density":0.0,"poi_diversity":0.0,"gdp_density":0.0,"P":0.0,"I":0.0,"G":0.0},{"stationName":"广州魁奇路(地铁站)","station_id":"广州魁奇路(地铁站)_22.99634_113.10313","lineId":"广州地铁2号线","lat":22.99634112,"lon":113.10312806,"area_km2":2.4573,"D":0.0,"C":0.0,"T":0.0819,"U1":0.1637,"U2":0.0,"couplingDegree":0.0,"level":"极度失调","road_density":24.125,"walk_accessibility":0.4927,"metro_line_density":4.0608,"station_count":2,"line_count":1,"population_density":0.0,"poi_density":0.0,"poi_diversity":0.0,"gdp_density":0.0,"P":0.0,"I":0.0,"G":0.0},{"stationName":"广州石梁(地铁站)","station_id":"广州石梁(地铁站)_22.99525_113.11326","lineId":"广州地铁2号线","lat":22.99525313,"lon":113.1132637,"area_km2":2.0501,"D":0.0,"C":0.0,"T":0.072,"U1":0.144,"U2":0.0,"couplingDegree":0.0,"level":"极度失调","road_density":22.3121,"walk_accessibility":0.411,"metro_line_density":3.0104,"station_count":2,"line_count":1,"population_density":0.0,"poi_density":0.0,"poi_diversity":0.0,"gdp_density":0.0,"P":0.0,"I":0.0,"G":0.0},{"stationName":"广州湾华(地铁站)","station_id":"广州湾华(地铁站)_22.99445_113.12618","lineId":"广州地铁2号线","lat":22.99444635,"lon":113.12617985,"area_km2":2.0562,"D":0.0,"C":0.0,"T":0.0287,"U1":0.0574,"U2":0.0,"couplingDegree":0.0,"level":"极度失调","road_density":21.5916,"walk_accessibility":0.4123,"metro_line_density":2.5123,"station_count":1,"line_count":1,"population_density":0.0,"poi_density":0.0,"poi_diversity":0.0,"gdp_density":0.0,"P":0.0,"I":0.0,"G":0.0},{"stationName":"广州登洲(地铁站)","station_id":"广州登洲(地铁站)_22.98190_113.14333","lineId":"广州地铁2号线","lat":22.98190002,"lon":113.14333221,"area_km2":2.007,"D":0.0,"C":0.0,"T":0.0296,"U1":0.0591,"U2":0.0,"couplingDegree":0.0,"level":"极度失调","road_density":23.4823,"walk_accessibility":0.4024,"metro_line_density":2.1999,"station_count":1,"line_count":1,"population_density":0.0,"poi_density":0.0,"poi_diversity":0.0,"gdp_density":0.0,"P":0.0,"I":0.0,"G":0.0},{"stationName":"广州花卉世界(地铁站)","station_id":"广州花卉世界(地铁站)_22.97602_113.15593","lineId":"广州地铁2号线","lat":22.97602016,"lon":113.15592703,"area_km2":2.0796,"D":0.0,"C":0.0,"T":0.0257,"U1":0.0514,"U2":0.0,"couplingDegree":0.0,"level":"极度失调","road_density":20.0667,"walk_accessibility":0.417,"metro_line_density":2.1333,"station_count":1,"line_count":1,"population_density":0.0,"poi_density":0.0,"poi_diversity":0.0,"gdp_density":0.0,"P":0.0,"I":0.0,"G":0.0},{"stationName":"广州仙涌(地铁站)","station_id":"广州仙涌(地铁站)_22.98570_113.19290","lineId":"广州地铁2号线","lat":22.9857025,"lon":113.19289673,"area_km2":1.92,"D":0.0,"C":0.0,"T":0.026,"U1":0.052,"U2":0.0,"couplingDegree":0.0,"level":"极度失调","road_density":20.6115,"walk_accessibility":0.3849,"metro_line_density":2.4744,"station_count":1,"line_count":1,"population_density":0.0,"poi_density":0.0,"poi_diversity":0.0,"gdp_density":0.0,"P":0.0,"I":0.0,"G":0.0},{"stationName":"广州石洲(地铁站)","station_id":"广州石洲(地铁站)_22.99331_113.21080","lineId":"广州地铁2号线","lat":22.99331114,"lon":113.21079849,"area_km2":2.0754,"D":0.0,"C":0.0,"T":0.0255,"U1":0.051,"U2":0.0,"couplingDegree":0.0,"level":"极度失调","road_density":19.0232,"walk_accessibility":0.4161,"metro_line_density":2.4703,"station_count":1,"line_count":1,"population_density":0.0,"poi_density":0.0,"poi_diversity":0.0,"gdp_density":0.0,"P":0.0,"I":0.0,"G":0.0},{"stationName":"广州林岳西(地铁站)","station_id":"广州林岳西(地铁站)_22.99648_113.23184","lineId":"广州地铁2号线","lat":22.99647914,"lon":113.231844905,"area_km2":1.7857,"D":0.0,"C":0.0,"T":0.0315,"U1":0.063,"U2":0.0,"couplingDegree":0.0,"level":"极度失调","road_density":23.8314,"walk_accessibility":0.358,"metro_line_density":3.2549,"station_count":1,"line_count":1,"population_density":0.0,"poi_density":0.0,"poi_diversity":0.0,"gdp_density":0.0,"P":0.0,"I":0.0,"G":0.0},{"stationName":"广州林岳东(2号线)(地铁站)","station_id":"广州林岳东(2号线)(地铁站)_22.99665_113.24438","lineId":"广州地铁2号线","lat":22.99664607,"lon":113.24437798,"area_km2":0.9744,"D":0.0,"C":0.0,"T":0.0372,"U1":0.0745,"U2":0.0,"couplingDegree":0.0,"level":"极度失调","road_density":29.1435,"walk_accessibility":0.1954,"metro_line_density":5.2301,"station_count":1,"line_count":1,"population_density":0.0,"poi_density":0.0,"poi_diversity":0.0,"gdp_density":0.0,"P":0.0,"I":0.0,"G":0.0},{"stationName":"广州机场北(2号航站楼)(地铁站)","station_id":"广州机场北(2号航站楼)(地铁站)_23.39806_113.29862","lineId":"广州地铁22号线 / 广州地铁3号线","lat":23.398061685000002,"lon":113.298622825,"area_km2":0.7143,"D":0.0,"C":0.0,"T":0.1389,"U1":0.2778,"U2":0.0,"couplingDegree":0.0,"level":"极度失调","road_density":41.2013,"walk_accessibility":0.1432,"metro_line_density":7.9473,"station_count":2,"line_count":2,"population_density":0.0,"poi_density":0.0,"poi_diversity":0.0,"gdp_density":0.0,"P":0.0,"I":0.0,"G":0.0},{"stationName":"广州机场南(1号航站楼)(地铁站)","station_id":"广州机场南(1号航站楼)(地铁站)_23.38751_113.29649","lineId":"广州地铁22号线 / 广州地铁3号线","lat":23.387508816666667,"lon":113.29649164333334,"area_km2":0.777,"D":0.2557,"C":0.4092,"T":0.1599,"U1":0.3057,"U2":0.014,"couplingDegree":0.2557,"level":"中度失调","road_density":41.3371,"walk_accessibility":0.1558,"metro_line_density":11.7672,"station_count":2,"line_count":2,"population_density":3539.2694,"poi_density":0.0,"poi_diversity":0.0,"gdp_density":0.0,"P":3539.2694,"I":0.0,"G":0.0},{"stationName":"广州高增(地铁站)","station_id":"广州高增(地铁站)_23.35773_113.29012","lineId":"广州地铁3号线","lat":23.35773387,"lon":113.29012133,"area_km2":0.9267,"D":0.1205,"C":0.9477,"T":0.0153,"U1":0.0202,"U2":0.0104,"couplingDegree":0.1205,"level":"极度失调","road_density":19.0778,"walk_accessibility":0.1858,"metro_line_density":1.2005,"station_count":1,"line_count":1,"population_density":2636.2913,"poi_density":0.0,"poi_diversity":0.0,"gdp_density":0.0,"P":2636.2913,"I":0.0,"G":0.0},{"stationName":"广州人和(地铁站)","station_id":"广州人和(地铁站)_23.33824_113.28921","lineId":"广州地铁22号线 / 广州地铁3号线","lat":23.33823735,"lon":113.289210885,"area_km2":1.6594,"D":0.229,"C":0.6428,"T":0.0816,"U1":0.1441,"U2":0.0191,"couplingDegree":0.229,"level":"中度失调","road_density":20.6035,"walk_accessibility":0.3327,"metro_line_density":5.3169,"station_count":1,"line_count":2,"population_density":4829.3705,"poi_density":0.0,"poi_diversity":0.0,"gdp_density":0.0,"P":4829.3705,"I":0.0,"G":0.0},{"stationName":"广州龙归(地铁站)","station_id":"广州龙归(地铁站)_23.29132_113.29545","lineId":"广州地铁3号线","lat":23.291315230000002,"lon":113.29544661,"area_km2":2.0495,"D":0.3951,"C":0.6001,"T":0.2602,"U1":0.0521,"U2":0.4683,"couplingDegree":0.3951,"level":"中度失调","road_density":19.4525,"walk_accessibility":0.4109,"metro_line_density":2.54,"station_count":1,"line_count":1,"population_density":8546.5812,"poi_density":0.0,"poi_diversity":0.0,"gdp_density":8864.6261,"P":8546.5812,"I":0.0,"G":8864.6261},{"stationName":"广州白云大道北(地铁站)","station_id":"广州白云大道北(地铁站)_23.22475_113.29210","lineId":"广州地铁3号线","lat":23.224754485,"lon":113.292103325,"area_km2":2.446,"D":0.5558,"C":0.9976,"T":0.3097,"U1":0.3311,"U2":0.2882,"couplingDegree":0.5558,"level":"勉强协调","road_density":32.1233,"walk_accessibility":0.4904,"metro_line_density":2.3756,"station_count":3,"line_count":2,"population_density":3971.8062,"poi_density":0.0,"poi_diversity":0.0,"gdp_density":5559.9443,"P":3971.8062,"I":0.0,"G":5559.9443},{"stationName":"广州永泰(地铁站)","station_id":"广州永泰(地铁站)_23.22247_113.30084","lineId":"广州地铁3号线","lat":23.22247335,"lon":113.30084268,"area_km2":2.1658,"D":0.4757,"C":0.9506,"T":0.238,"U1":0.1641,"U2":0.312,"couplingDegree":0.4757,"level":"勉强协调","road_density":30.8315,"walk_accessibility":0.4342,"metro_line_density":2.4664,"station_count":2,"line_count":1,"population_density":1056.8889,"poi_density":0.0,"poi_diversity":0.0,"gdp_density":6279.2637,"P":1056.8889,"I":0.0,"G":6279.2637},{"stationName":"广州同和(地铁站)","station_id":"广州同和(地铁站)_23.19962_113.32083","lineId":"广州地铁3号线","lat":23.19962259,"lon":113.32083262,"area_km2":1.5674,"D":0.1919,"C":0.9763,"T":0.0377,"U1":0.0459,"U2":0.0296,"couplingDegree":0.1919,"level":"极度失调","road_density":18.9745,"walk_accessibility":0.3143,"metro_line_density":3.1701,"station_count":1,"line_count":1,"population_density":7480.3097,"poi_density":0.0,"poi_diversity":0.0,"gdp_density":0.0,"P":7480.3097,"I":0.0,"G":0.0},{"stationName":"广州京溪南方医院(地铁站)","station_id":"广州京溪南方医院(地铁站)_23.18779_113.32070","lineId":"广州地铁3号线","lat":23.1877933,"lon":113.32069648,"area_km2":1.5741,"D":0.2726,"C":0.942,"T":0.0789,"U1":0.0524,"U2":0.1053,"couplingDegree":0.2726,"level":"中度失调","road_density":19.2015,"walk_accessibility":0.3156,"metro_line_density":4.0108,"station_count":1,"line_count":1,"population_density":26642.5781,"poi_density":0.0,"poi_diversity":0.0,"gdp_density":0.0,"P":26642.5781,"I":0.0,"G":0.0},{"stationName":"广州梅花园(地铁站)","station_id":"广州梅花园(地铁站)_23.17768_113.31499","lineId":"广州地铁3号线","lat":23.17767977,"lon":113.31498956,"area_km2":1.475,"D":0.3077,"C":0.7601,"T":0.1246,"U1":0.0436,"U2":0.2055,"couplingDegree":0.3077,"level":"中度失调","road_density":18.9193,"walk_accessibility":0.2957,"metro_line_density":3.1195,"station_count":1,"line_count":1,"population_density":51983.7784,"poi_density":0.0,"poi_diversity":0.0,"gdp_density":0.0,"P":51983.7784,"I":0.0,"G":0.0},{"stationName":"广州燕塘(地铁站)","station_id":"广州燕塘(地铁站)_23.16283_113.32163","lineId":"广州地铁3号线","lat":23.16283329,"lon":113.32162731,"area_km2":1.5528,"D":0.7706,"C":0.9298,"T":0.6387,"U1":0.4035,"U2":0.8738,"couplingDegree":0.7706,"level":"良好协调","road_density":28.413,"walk_accessibility":0.3113,"metro_line_density":6.0699,"station_count":2,"line_count":4,"population_density":66132.2434,"poi_density":0.0,"poi_diversity":0.0,"gdp_density":12493.13,"P":66132.2434,"I":0.0,"G":12493.13},{"stationName":"广州林和西(地铁站)","station_id":"广州林和西(地铁站)_23.14346_113.31823","lineId":"广州地铁3号线 / 广州广州APM线(广州塔--林和西)","lat":23.14346264,"lon":113.31822610500001,"area_km2":2.4249,"D":0.4834,"C":0.5576,"T":0.419,"U1":0.7668,"U2":0.0712,"couplingDegree":0.4834,"level":"勉强协调","road_density":34.7168,"walk_accessibility":0.4862,"metro_line_density":7.8899,"station_count":4,"line_count":6,"population_density":18002.0799,"poi_density":0.0,"poi_diversity":0.0,"gdp_density":0.0,"P":18002.0799,"I":0.0,"G":0.0},{"stationName":"广州海傍(地铁站)","station_id":"广州海傍(地铁站)_22.94266_113.47033","lineId":"广州地铁3号线 / 广州地铁4号线","lat":22.942664164999997,"lon":113.47033204499999,"area_km2":1.2915,"D":0.0805,"C":0.0858,"T":0.0755,"U1":0.1508,"U2":0.0003,"couplingDegree":0.0805,"level":"极度失调","road_density":32.5613,"walk_accessibility":0.2589,"metro_line_density":2.9158,"station_count":1,"line_count":2,"population_density":70.4634,"poi_density":0.0,"poi_diversity":0.0,"gdp_density":0.0,"P":70.4634,"I":0.0,"G":0.0},{"stationName":"广州海涌路(地铁站)","station_id":"广州海涌路(地铁站)_22.94459_113.45226","lineId":"广州地铁3号线","lat":22.94459027,"lon":113.45225741,"area_km2":0.8856,"D":0.0869,"C":0.2996,"T":0.0252,"U1":0.0492,"U2":0.0012,"couplingDegree":0.0869,"level":"极度失调","road_density":22.452,"walk_accessibility":0.1776,"metro_line_density":4.2764,"station_count":1,"line_count":1,"population_density":292.4728,"poi_density":0.0,"poi_diversity":0.0,"gdp_density":0.0,"P":292.4728,"I":0.0,"G":0.0},{"stationName":"广州石碁南(地铁站)","station_id":"广州石碁南(地铁站)_22.94076_113.43420","lineId":"广州地铁3号线","lat":22.94076249,"lon":113.43420182,"area_km2":0.9176,"D":0.1358,"C":0.5877,"T":0.0314,"U1":0.0568,"U2":0.006,"couplingDegree":0.1358,"level":"极度失调","road_density":21.6519,"walk_accessibility":0.184,"metro_line_density":5.5776,"station_count":1,"line_count":1,"population_density":1515.8638,"poi_density":0.0,"poi_diversity":0.0,"gdp_density":0.0,"P":1515.8638,"I":0.0,"G":0.0},{"stationName":"广州傍江(地铁站)","station_id":"广州傍江(地铁站)_22.93928_113.40457","lineId":"广州地铁3号线","lat":22.93927978,"lon":113.40456738,"area_km2":1.4073,"D":0.1731,"C":0.8548,"T":0.035,"U1":0.0532,"U2":0.0169,"couplingDegree":0.1731,"level":"极度失调","road_density":21.9065,"walk_accessibility":0.2822,"metro_line_density":3.6037,"station_count":1,"line_count":1,"population_density":4263.436,"poi_density":0.0,"poi_diversity":0.0,"gdp_density":0.0,"P":4263.436,"I":0.0,"G":0.0},{"stationName":"广州番禺广场(地铁站)","station_id":"广州番禺广场(地铁站)_22.93806_113.38013","lineId":"广州地铁3号线","lat":22.93806417,"lon":113.38013013,"area_km2":2.7796,"D":0.2235,"C":0.8049,"T":0.0621,"U1":0.0989,"U2":0.0252,"couplingDegree":0.2235,"level":"中度失调","road_density":36.7962,"walk_accessibility":0.5573,"metro_line_density":0.9153,"station_count":1,"line_count":1,"population_density":6382.5205,"poi_density":0.0,"poi_diversity":0.0,"gdp_density":0.0,"P":6382.5205,"I":0.0,"G":0.0},{"stationName":"广州黄村(地铁站)","station_id":"广州黄村(地铁站)_23.13568_113.40116","lineId":"广州地铁21号线 / 广州地铁4号线","lat":23.135682833333334,"lon":113.40116035,"area_km2":1.662,"D":0.2094,"C":0.5266,"T":0.0832,"U1":0.154,"U2":0.0125,"couplingDegree":0.2094,"level":"中度失调","road_density":30.0651,"walk_accessibility":0.3332,"metro_line_density":3.2626,"station_count":1,"line_count":2,"population_density":3155.1537,"poi_density":0.0,"poi_diversity":0.0,"gdp_density":0.0,"P":3155.1537,"I":0.0,"G":0.0},{"stationName":"广州车陂(地铁站)","station_id":"广州车陂(地铁站)_23.12707_113.39067","lineId":"广州地铁13号线 / 广州地铁4号线","lat":23.127069765,"lon":113.390674455,"area_km2":1.8077,"D":0.4274,"C":0.8199,"T":0.2228,"U1":0.3503,"U2":0.0952,"couplingDegree":0.4274,"level":"勉强协调","road_density":26.6413,"walk_accessibility":0.3624,"metro_line_density":9.5238,"station_count":2,"line_count":3,"population_density":24085.2755,"poi_density":0.0,"poi_diversity":0.0,"gdp_density":0.0,"P":24085.2755,"I":0.0,"G":0.0},{"stationName":"广州车陂南(地铁站)","station_id":"广州车陂南(地铁站)_23.11836_113.38448","lineId":"广州地铁4号线 / 广州地铁5号线","lat":23.118358545,"lon":113.38448477,"area_km2":1.6987,"D":0.3945,"C":0.7663,"T":0.2031,"U1":0.3335,"U2":0.0726,"couplingDegree":0.3945,"level":"中度失调","road_density":27.8826,"walk_accessibility":0.3406,"metro_line_density":6.9427,"station_count":2,"line_count":3,"population_density":18363.1194,"poi_density":0.0,"poi_diversity":0.0,"gdp_density":0.0,"P":18363.1194,"I":0.0,"G":0.0},{"stationName":"广州万胜围(地铁站)","station_id":"广州万胜围(地铁站)_23.10027_113.37904","lineId":"广州地铁4号线","lat":23.10027266,"lon":113.37904334,"area_km2":1.7792,"D":0.237,"C":0.9459,"T":0.0594,"U1":0.0787,"U2":0.0401,"couplingDegree":0.237,"level":"中度失调","road_density":27.2035,"walk_accessibility":0.3567,"metro_line_density":4.3025,"station_count":1,"line_count":1,"population_density":10150.9533,"poi_density":0.0,"poi_diversity":0.0,"gdp_density":0.0,"P":10150.9533,"I":0.0,"G":0.0},{"stationName":"广州官洲(地铁站)","station_id":"广州官洲(地铁站)_23.07017_113.37139","lineId":"广州地铁12号线 / 广州地铁4号线","lat":23.070168586666668,"lon":113.37138594999999,"area_km2":1.1347,"D":0.2064,"C":0.5203,"T":0.0819,"U1":0.1518,"U2":0.012,"couplingDegree":0.2064,"level":"中度失调","road_density":30.9463,"walk_accessibility":0.2275,"metro_line_density":4.0932,"station_count":1,"line_count":2,"population_density":3022.8511,"poi_density":0.0,"poi_diversity":0.0,"gdp_density":0.0,"P":3022.8511,"I":0.0,"G":0.0},{"stationName":"广州大学城北(地铁站)","station_id":"广州大学城北(地铁站)_23.06047_113.38028","lineId":"广州地铁4号线","lat":23.06046717,"lon":113.38027887,"area_km2":2.0403,"D":0.1501,"C":0.5999,"T":0.0376,"U1":0.0676,"U2":0.0075,"couplingDegree":0.1501,"level":"极度失调","road_density":26.3608,"walk_accessibility":0.4091,"metro_line_density":2.2811,"station_count":1,"line_count":1,"population_density":1899.2519,"poi_density":0.0,"poi_diversity":0.0,"gdp_density":0.0,"P":1899.2519,"I":0.0,"G":0.0},{"stationName":"广州大学城南(地铁站)","station_id":"广州大学城南(地铁站)_23.04594_113.39496","lineId":"广州地铁4号线","lat":23.04593859,"lon":113.39495803,"area_km2":2.5023,"D":0.392,"C":0.9763,"T":0.1574,"U1":0.1233,"U2":0.1915,"couplingDegree":0.392,"level":"中度失调","road_density":39.8856,"walk_accessibility":0.5017,"metro_line_density":4.0945,"station_count":1,"line_count":1,"population_density":979.893,"poi_density":0.0,"poi_diversity":0.0,"gdp_density":3828.1737,"P":979.893,"I":0.0,"G":3828.1737},{"stationName":"广州新造(地铁站)","station_id":"广州新造(地铁站)_23.03072_113.41020","lineId":"广州地铁4号线","lat":23.03072258,"lon":113.41020155,"area_km2":1.3472,"D":0.169,"C":0.8928,"T":0.032,"U1":0.0464,"U2":0.0176,"couplingDegree":0.169,"level":"极度失调","road_density":24.796,"walk_accessibility":0.2701,"metro_line_density":1.7231,"station_count":1,"line_count":1,"population_density":4447.0132,"poi_density":0.0,"poi_diversity":0.0,"gdp_density":0.0,"P":4447.0132,"I":0.0,"G":0.0},{"stationName":"广州官桥(地铁站)","station_id":"广州官桥(地铁站)_22.98355_113.43903","lineId":"广州地铁4号线","lat":22.98354846,"lon":113.43902686,"area_km2":0.5263,"D":0.0861,"C":0.9122,"T":0.0081,"U1":0.0048,"U2":0.0115,"couplingDegree":0.0861,"level":"极度失调","road_density":18.1212,"walk_accessibility":0.1055,"metro_line_density":0.44,"station_count":1,"line_count":1,"population_density":2897.5553,"poi_density":0.0,"poi_diversity":0.0,"gdp_density":0.0,"P":2897.5553,"I":0.0,"G":0.0},{"stationName":"广州石碁(地铁站)","station_id":"广州石碁(地铁站)_22.95984_113.45981","lineId":"广州地铁4号线","lat":22.95983691,"lon":113.4598146,"area_km2":1.1474,"D":0.1718,"C":0.9754,"T":0.0303,"U1":0.0236,"U2":0.0369,"couplingDegree":0.1718,"level":"极度失调","road_density":19.1068,"walk_accessibility":0.2301,"metro_line_density":1.0658,"station_count":1,"line_count":1,"population_density":9344.4078,"poi_density":0.0,"poi_diversity":0.0,"gdp_density":0.0,"P":9344.4078,"I":0.0,"G":0.0},{"stationName":"广州低涌(地铁站)","station_id":"广州低涌(地铁站)_22.92219_113.47947","lineId":"广州地铁4号线","lat":22.92218608,"lon":113.47947099,"area_km2":1.651,"D":0.1586,"C":0.8884,"T":0.0283,"U1":0.0413,"U2":0.0153,"couplingDegree":0.1586,"level":"极度失调","road_density":16.3961,"walk_accessibility":0.331,"metro_line_density":3.2223,"station_count":1,"line_count":1,"population_density":3875.1486,"poi_density":0.0,"poi_diversity":0.0,"gdp_density":0.0,"P":3875.1486,"I":0.0,"G":0.0},{"stationName":"广州东涌(地铁站)","station_id":"广州东涌(地铁站)_22.88830_113.47359","lineId":"广州地铁4号线","lat":22.88829546,"lon":113.47359215,"area_km2":1.5436,"D":0.3244,"C":0.6623,"T":0.1589,"U1":0.0398,"U2":0.2779,"couplingDegree":0.3244,"level":"中度失调","road_density":18.6943,"walk_accessibility":0.3095,"metro_line_density":2.4638,"station_count":1,"line_count":1,"population_density":671.8187,"poi_density":0.0,"poi_diversity":0.0,"gdp_density":5615.6856,"P":671.8187,"I":0.0,"G":5615.6856},{"stationName":"广州庆盛(地铁站)","station_id":"广州庆盛(地铁站)_22.86976_113.48513","lineId":"广州地铁4号线","lat":22.86976012,"lon":113.48513261,"area_km2":1.3899,"D":0.1419,"C":0.7019,"T":0.0287,"U1":0.0491,"U2":0.0083,"couplingDegree":0.1419,"level":"极度失调","road_density":24.9697,"walk_accessibility":0.2787,"metro_line_density":1.9319,"station_count":1,"line_count":1,"population_density":2087.9201,"poi_density":0.0,"poi_diversity":0.0,"gdp_density":0.0,"P":2087.9201,"I":0.0,"G":0.0},{"stationName":"广州黄阁汽车城(地铁站)","station_id":"广州黄阁汽车城(地铁站)_22.83864_113.50446","lineId":"广州地铁4号线","lat":22.83864251,"lon":113.504464935,"area_km2":0.9799,"D":0.4043,"C":0.5996,"T":0.2727,"U1":0.0545,"U2":0.4909,"couplingDegree":0.4043,"level":"勉强协调","road_density":21.3907,"walk_accessibility":0.1965,"metro_line_density":5.1628,"station_count":1,"line_count":1,"population_density":358.2055,"poi_density":0.0,"poi_diversity":0.0,"gdp_density":9985.9865,"P":358.2055,"I":0.0,"G":9985.9865},{"stationName":"广州黄阁(地铁站)","station_id":"广州黄阁(地铁站)_22.82760_113.51355","lineId":"广州地铁4号线","lat":22.82759681,"lon":113.51354647,"area_km2":1.0953,"D":0.0742,"C":0.2765,"T":0.0199,"U1":0.039,"U2":0.0008,"couplingDegree":0.0742,"level":"极度失调","road_density":18.0622,"walk_accessibility":0.2196,"metro_line_density":3.8314,"station_count":1,"line_count":1,"population_density":196.2857,"poi_density":0.0,"poi_diversity":0.0,"gdp_density":0.0,"P":196.2857,"I":0.0,"G":0.0},{"stationName":"广州蕉门(地铁站)","station_id":"广州蕉门(地铁站)_22.80360_113.52231","lineId":"广州地铁4号线","lat":22.80359812,"lon":113.52231004,"area_km2":1.7436,"D":0.1892,"C":0.8564,"T":0.0418,"U1":0.0634,"U2":0.0202,"couplingDegree":0.1892,"level":"极度失调","road_density":26.7032,"walk_accessibility":0.3496,"metro_line_density":2.3743,"station_count":1,"line_count":1,"population_density":5114.7584,"poi_density":0.0,"poi_diversity":0.0,"gdp_density":0.0,"P":5114.7584,"I":0.0,"G":0.0},{"stationName":"广州金洲(地铁站)","station_id":"广州金洲(地铁站)_22.79510_113.53373","lineId":"广州地铁4号线","lat":22.79510434,"lon":113.53373069,"area_km2":1.1106,"D":0.1561,"C":0.353,"T":0.069,"U1":0.1336,"U2":0.0044,"couplingDegree":0.1561,"level":"极度失调","road_density":22.6158,"walk_accessibility":0.2227,"metro_line_density":4.0132,"station_count":2,"line_count":1,"population_density":1123.7611,"poi_density":0.0,"poi_diversity":0.0,"gdp_density":0.0,"P":1123.7611,"I":0.0,"G":0.0},{"stationName":"广州飞沙角(地铁站)","station_id":"广州飞沙角(地铁站)_22.78479_113.53561","lineId":"广州地铁4号线","lat":22.78478867,"lon":113.53560729,"area_km2":0.8355,"D":0.1671,"C":0.2651,"T":0.1053,"U1":0.2069,"U2":0.0038,"couplingDegree":0.1671,"level":"极度失调","road_density":20.6383,"walk_accessibility":0.1675,"metro_line_density":4.3176,"station_count":3,"line_count":1,"population_density":952.6977,"poi_density":0.0,"poi_diversity":0.0,"gdp_density":0.0,"P":952.6977,"I":0.0,"G":0.0},{"stationName":"广州广隆(地铁站)","station_id":"广州广隆(地铁站)_22.77508_113.53558","lineId":"广州地铁4号线","lat":22.77508039,"lon":113.5355785,"area_km2":0.8593,"D":0.1449,"C":0.3721,"T":0.0564,"U1":0.1088,"U2":0.0041,"couplingDegree":0.1449,"level":"极度失调","road_density":16.2298,"walk_accessibility":0.1723,"metro_line_density":3.4705,"station_count":2,"line_count":1,"population_density":1025.2336,"poi_density":0.0,"poi_diversity":0.0,"gdp_density":0.0,"P":1025.2336,"I":0.0,"G":0.0},{"stationName":"广州大涌(地铁站)","station_id":"广州大涌(地铁站)_22.76205_113.55087","lineId":"广州地铁4号线","lat":22.76204976,"lon":113.55086527,"area_km2":1.1204,"D":0.0772,"C":0.2269,"T":0.0263,"U1":0.0518,"U2":0.0007,"couplingDegree":0.0772,"level":"极度失调","road_density":20.35,"walk_accessibility":0.2246,"metro_line_density":4.7714,"station_count":1,"line_count":1,"population_density":173.1575,"poi_density":0.0,"poi_diversity":0.0,"gdp_density":0.0,"P":173.1575,"I":0.0,"G":0.0},{"stationName":"广州塘坑(地铁站)","station_id":"广州塘坑(地铁站)_22.75610_113.56799","lineId":"广州地铁4号线","lat":22.7560984,"lon":113.56798771,"area_km2":1.1488,"D":0.1665,"C":0.7807,"T":0.0355,"U1":0.0577,"U2":0.0133,"couplingDegree":0.1665,"level":"极度失调","road_density":22.5786,"walk_accessibility":0.2303,"metro_line_density":4.7223,"station_count":1,"line_count":1,"population_density":3367.9702,"poi_density":0.0,"poi_diversity":0.0,"gdp_density":0.0,"P":3367.9702,"I":0.0,"G":0.0},{"stationName":"广州南横(地铁站)","station_id":"广州南横(地铁站)_22.75090_113.58933","lineId":"广州地铁4号线","lat":22.7509002,"lon":113.58932783,"area_km2":1.2323,"D":0.148,"C":0.762,"T":0.0288,"U1":0.0474,"U2":0.0101,"couplingDegree":0.148,"level":"极度失调","road_density":19.4206,"walk_accessibility":0.2471,"metro_line_density":4.1564,"station_count":1,"line_count":1,"population_density":2563.5101,"poi_density":0.0,"poi_diversity":0.0,"gdp_density":0.0,"P":2563.5101,"I":0.0,"G":0.0},{"stationName":"广州南沙客运港(地铁站)","station_id":"广州南沙客运港(地铁站)_22.76999_113.60592","lineId":"广州地铁4号线","lat":22.76999321,"lon":113.60591772,"area_km2":1.0573,"D":0.0548,"C":0.1585,"T":0.0189,"U1":0.0376,"U2":0.0002,"couplingDegree":0.0548,"level":"极度失调","road_density":21.1861,"walk_accessibility":0.212,"metro_line_density":2.5822,"station_count":1,"line_count":1,"population_density":60.53,"poi_density":0.0,"poi_diversity":0.0,"gdp_density":0.0,"P":60.53,"I":0.0,"G":0.0},{"stationName":"广州滘口(地铁站)","station_id":"广州滘口(地铁站)_23.11645_113.20309","lineId":"广州地铁5号线","lat":23.11645274,"lon":113.20308939,"area_km2":1.7134,"D":0.1751,"C":0.8805,"T":0.0348,"U1":0.0513,"U2":0.0183,"couplingDegree":0.1751,"level":"极度失调","road_density":26.428,"walk_accessibility":0.3435,"metro_line_density":0.8156,"station_count":1,"line_count":1,"population_density":4633.9453,"poi_density":0.0,"poi_diversity":0.0,"gdp_density":0.0,"P":4633.9453,"I":0.0,"G":0.0},{"stationName":"广州坦尾(地铁站)","station_id":"广州坦尾(地铁站)_23.12790_113.21305","lineId":"广州地铁5号线","lat":23.12789781,"lon":113.21304759,"area_km2":1.717,"D":0.247,"C":0.9898,"T":0.0616,"U1":0.0704,"U2":0.0529,"couplingDegree":0.247,"level":"中度失调","road_density":21.4505,"walk_accessibility":0.3443,"metro_line_density":5.3897,"station_count":1,"line_count":1,"population_density":13366.8198,"poi_density":0.0,"poi_diversity":0.0,"gdp_density":0.0,"P":13366.8198,"I":0.0,"G":0.0},{"stationName":"广州中山八(地铁站)","station_id":"广州中山八(地铁站)_23.12898_113.22803","lineId":"广州地铁5号线","lat":23.12898299,"lon":113.22802937,"area_km2":2.3473,"D":0.3388,"C":0.9953,"T":0.1153,"U1":0.1042,"U2":0.1265,"couplingDegree":0.3388,"level":"中度失调","road_density":27.5243,"walk_accessibility":0.4706,"metro_line_density":6.2985,"station_count":1,"line_count":1,"population_density":31981.7793,"poi_density":0.0,"poi_diversity":0.0,"gdp_density":0.0,"P":31981.7793,"I":0.0,"G":0.0},{"stationName":"广州西场(地铁站)","station_id":"广州西场(地铁站)_23.14006_113.23273","lineId":"广州地铁5号线","lat":23.14005659,"lon":113.23272961,"area_km2":1.9288,"D":0.6151,"C":0.8914,"T":0.4244,"U1":0.2321,"U2":0.6167,"couplingDegree":0.6151,"level":"良好协调","road_density":36.9045,"walk_accessibility":0.3867,"metro_line_density":10.7366,"station_count":2,"line_count":1,"population_density":30943.7832,"poi_density":0.0,"poi_diversity":0.0,"gdp_density":10084.9559,"P":30943.7832,"I":0.0,"G":10084.9559},{"stationName":"广州西村(地铁站)","station_id":"广州西村(地铁站)_23.14490_113.23680","lineId":"广州地铁5号线","lat":23.14489689,"lon":113.23679991,"area_km2":2.1511,"D":0.3938,"C":0.9492,"T":0.1634,"U1":0.2148,"U2":0.112,"couplingDegree":0.3938,"level":"中度失调","road_density":36.5179,"walk_accessibility":0.4313,"metro_line_density":7.755,"station_count":2,"line_count":1,"population_density":28320.2662,"poi_density":0.0,"poi_diversity":0.0,"gdp_density":0.0,"P":28320.2662,"I":0.0,"G":0.0},{"stationName":"广州小北(地铁站)","station_id":"广州小北(地铁站)_23.14209_113.27156","lineId":"广州地铁5号线","lat":23.14208615,"lon":113.27156432,"area_km2":2.9351,"D":0.6492,"C":0.9858,"T":0.4275,"U1":0.3557,"U2":0.4994,"couplingDegree":0.6492,"level":"良好协调","road_density":34.1064,"walk_accessibility":0.5885,"metro_line_density":4.4096,"station_count":2,"line_count":3,"population_density":44063.6845,"poi_density":0.0,"poi_diversity":0.0,"gdp_density":6635.1606,"P":44063.6845,"I":0.0,"G":6635.1606},{"stationName":"广州淘金(地铁站)","station_id":"广州淘金(地铁站)_23.13657_113.28004","lineId":"广州地铁12号线 / 广州地铁13号线 / 广州地铁5号线","lat":23.136571503333332,"lon":113.28003749999999,"area_km2":2.487,"D":0.6041,"C":0.8272,"T":0.4411,"U1":0.689,"U2":0.1933,"couplingDegree":0.6041,"level":"良好协调","road_density":36.378,"walk_accessibility":0.4986,"metro_line_density":7.0552,"station_count":4,"line_count":5,"population_density":48880.4688,"poi_density":0.0,"poi_diversity":0.0,"gdp_density":0.0,"P":48880.4688,"I":0.0,"G":0.0},{"stationName":"广州区庄(地铁站)","station_id":"广州区庄(地铁站)_23.13693_113.29146","lineId":"广州地铁5号线 / 广州地铁6号线","lat":23.136927686666667,"lon":113.29145703666666,"area_km2":2.5778,"D":0.7635,"C":0.9864,"T":0.5909,"U1":0.6881,"U2":0.4937,"couplingDegree":0.7635,"level":"良好协调","road_density":33.5019,"walk_accessibility":0.5168,"metro_line_density":7.7277,"station_count":4,"line_count":5,"population_density":31231.0787,"poi_density":0.0,"poi_diversity":0.0,"gdp_density":7554.1051,"P":31231.0787,"I":0.0,"G":7554.1051},{"stationName":"广州动物园(地铁站)","station_id":"广州动物园(地铁站)_23.13734_113.30190","lineId":"广州地铁5号线","lat":23.137335444999998,"lon":113.3019041,"area_km2":2.4904,"D":0.7033,"C":0.997,"T":0.4961,"U1":0.4574,"U2":0.5347,"couplingDegree":0.7033,"level":"良好协调","road_density":35.5273,"walk_accessibility":0.4993,"metro_line_density":8.0676,"station_count":3,"line_count":3,"population_density":38314.1962,"poi_density":0.0,"poi_diversity":0.0,"gdp_density":7819.157,"P":38314.1962,"I":0.0,"G":7819.157},{"stationName":"广州五羊邨(地铁站)","station_id":"广州五羊邨(地铁站)_23.12236_113.30778","lineId":"广州地铁10号线 / 广州地铁5号线","lat":23.122362080000002,"lon":113.307780705,"area_km2":2.8846,"D":0.3754,"C":0.5897,"T":0.239,"U1":0.432,"U2":0.046,"couplingDegree":0.3754,"level":"中度失调","road_density":34.2476,"walk_accessibility":0.5784,"metro_line_density":3.7592,"station_count":3,"line_count":3,"population_density":11629.0463,"poi_density":0.0,"poi_diversity":0.0,"gdp_density":0.0,"P":11629.0463,"I":0.0,"G":0.0},{"stationName":"广州珠江新城(地铁站)","station_id":"广州珠江新城(地铁站)_23.12197_113.31579","lineId":"广州地铁5号线","lat":23.12196898,"lon":113.31578602,"area_km2":3.1943,"D":0.4218,"C":0.7572,"T":0.2349,"U1":0.3883,"U2":0.0815,"couplingDegree":0.4218,"level":"勉强协调","road_density":42.1058,"walk_accessibility":0.6405,"metro_line_density":4.9042,"station_count":3,"line_count":2,"population_density":20606.4433,"poi_density":0.0,"poi_diversity":0.0,"gdp_density":0.0,"P":20606.4433,"I":0.0,"G":0.0},{"stationName":"广州猎德(地铁站)","station_id":"广州猎德(地铁站)_23.12112_113.32667","lineId":"广州地铁5号线","lat":23.12112075,"lon":113.32666753,"area_km2":2.9589,"D":0.3149,"C":0.7794,"T":0.1272,"U1":0.2069,"U2":0.0475,"couplingDegree":0.3149,"level":"中度失调","road_density":39.1908,"walk_accessibility":0.5932,"metro_line_density":3.3756,"station_count":2,"line_count":1,"population_density":12014.0647,"poi_density":0.0,"poi_diversity":0.0,"gdp_density":0.0,"P":12014.0647,"I":0.0,"G":0.0},{"stationName":"广州潭村(地铁站)","station_id":"广州潭村(地铁站)_23.11992_113.34048","lineId":"广州地铁5号线","lat":23.11992279,"lon":113.3404832,"area_km2":2.1347,"D":0.2665,"C":0.9905,"T":0.0717,"U1":0.0815,"U2":0.0619,"couplingDegree":0.2665,"level":"中度失调","road_density":28.4047,"walk_accessibility":0.428,"metro_line_density":3.2854,"station_count":1,"line_count":1,"population_density":15647.6616,"poi_density":0.0,"poi_diversity":0.0,"gdp_density":0.0,"P":15647.6616,"I":0.0,"G":0.0},{"stationName":"广州员村(地铁站)","station_id":"广州员村(地铁站)_23.11747_113.35822","lineId":"广州地铁11号线 / 广州地铁5号线","lat":23.117467595,"lon":113.358221265,"area_km2":1.3392,"D":0.3831,"C":0.9999,"T":0.1468,"U1":0.145,"U2":0.1487,"couplingDegree":0.3831,"level":"中度失调","road_density":22.8343,"walk_accessibility":0.2685,"metro_line_density":5.5129,"station_count":1,"line_count":2,"population_density":37598.4784,"poi_density":0.0,"poi_diversity":0.0,"gdp_density":0.0,"P":37598.4784,"I":0.0,"G":0.0},{"stationName":"广州科韵路(地铁站)","station_id":"广州科韵路(地铁站)_23.12179_113.37170","lineId":"广州地铁5号线","lat":23.12179091,"lon":113.37170322,"area_km2":2.2691,"D":0.3372,"C":0.9639,"T":0.118,"U1":0.0866,"U2":0.1494,"couplingDegree":0.3372,"level":"中度失调","road_density":28.2282,"walk_accessibility":0.455,"metro_line_density":3.7021,"station_count":1,"line_count":1,"population_density":37780.0668,"poi_density":0.0,"poi_diversity":0.0,"gdp_density":0.0,"P":37780.0668,"I":0.0,"G":0.0},{"stationName":"广州东圃(地铁站)","station_id":"广州东圃(地铁站)_23.11189_113.39604","lineId":"广州地铁5号线","lat":23.11189403,"lon":113.39603774,"area_km2":1.4871,"D":0.2054,"C":0.9522,"T":0.0443,"U1":0.0578,"U2":0.0308,"couplingDegree":0.2054,"level":"中度失调","road_density":23.2117,"walk_accessibility":0.2982,"metro_line_density":3.5691,"station_count":1,"line_count":1,"population_density":7784.112,"poi_density":0.0,"poi_diversity":0.0,"gdp_density":0.0,"P":7784.112,"I":0.0,"G":0.0},{"stationName":"广州三溪(地铁站)","station_id":"广州三溪(地铁站)_23.10661_113.41027","lineId":"广州地铁5号线","lat":23.10660722,"lon":113.41026741,"area_km2":1.5018,"D":0.4093,"C":0.6436,"T":0.2603,"U1":0.0611,"U2":0.4595,"couplingDegree":0.4093,"level":"勉强协调","road_density":24.8085,"walk_accessibility":0.3011,"metro_line_density":3.4066,"station_count":1,"line_count":1,"population_density":21533.2462,"poi_density":0.0,"poi_diversity":0.0,"gdp_density":7637.0606,"P":21533.2462,"I":0.0,"G":7637.0606},{"stationName":"广州鱼珠(地铁站)","station_id":"广州鱼珠(地铁站)_23.10287_113.42678","lineId":"广州地铁5号线","lat":23.1028697,"lon":113.4267831,"area_km2":1.022,"D":0.3345,"C":0.9884,"T":0.1132,"U1":0.096,"U2":0.1303,"couplingDegree":0.3345,"level":"中度失调","road_density":29.3454,"walk_accessibility":0.2049,"metro_line_density":8.1406,"station_count":1,"line_count":1,"population_density":32963.5706,"poi_density":0.0,"poi_diversity":0.0,"gdp_density":0.0,"P":32963.5706,"I":0.0,"G":0.0},{"stationName":"广州大沙地(地铁站)","station_id":"广州大沙地(地铁站)_23.10577_113.44060","lineId":"广州地铁5号线","lat":23.105774705,"lon":113.44060333499999,"area_km2":1.2617,"D":0.6419,"C":0.8341,"T":0.494,"U1":0.2215,"U2":0.7665,"couplingDegree":0.6419,"level":"良好协调","road_density":26.1349,"walk_accessibility":0.253,"metro_line_density":3.8009,"station_count":2,"line_count":2,"population_density":7081.6406,"poi_density":0.0,"poi_diversity":0.0,"gdp_density":15067.4016,"P":7081.6406,"I":0.0,"G":15067.4016},{"stationName":"广州大沙东(地铁站)","station_id":"广州大沙东(地铁站)_23.10925_113.45231","lineId":"广州地铁5号线 / 广州地铁7号线","lat":23.109246119999998,"lon":113.45231028666666,"area_km2":1.6581,"D":0.3661,"C":0.6958,"T":0.1926,"U1":0.3309,"U2":0.0543,"couplingDegree":0.3661,"level":"中度失调","road_density":25.4363,"walk_accessibility":0.3325,"metro_line_density":6.9992,"station_count":3,"line_count":2,"population_density":13726.2038,"poi_density":0.0,"poi_diversity":0.0,"gdp_density":0.0,"P":13726.2038,"I":0.0,"G":0.0},{"stationName":"广州文冲(地铁站)","station_id":"广州文冲(地铁站)_23.10640_113.46359","lineId":"广州地铁5号线","lat":23.10639517,"lon":113.463594,"area_km2":1.6588,"D":0.2818,"C":0.644,"T":0.1233,"U1":0.2177,"U2":0.029,"couplingDegree":0.2818,"level":"中度失调","road_density":24.9713,"walk_accessibility":0.3326,"metro_line_density":2.5707,"station_count":2,"line_count":2,"population_density":7329.3646,"poi_density":0.0,"poi_diversity":0.0,"gdp_density":0.0,"P":7329.3646,"I":0.0,"G":0.0},{"stationName":"广州双沙(地铁站)","station_id":"广州双沙(地铁站)_23.10052_113.47888","lineId":"广州地铁5号线","lat":23.100517099999998,"lon":113.478884145,"area_km2":1.1377,"D":0.137,"C":0.6756,"T":0.0278,"U1":0.0483,"U2":0.0073,"couplingDegree":0.137,"level":"极度失调","road_density":25.5027,"walk_accessibility":0.2281,"metro_line_density":2.3194,"station_count":1,"line_count":1,"population_density":1846.6954,"poi_density":0.0,"poi_diversity":0.0,"gdp_density":0.0,"P":1846.6954,"I":0.0,"G":0.0},{"stationName":"广州庙头(地铁站)","station_id":"广州庙头(地铁站)_23.08757_113.49729","lineId":"广州地铁5号线","lat":23.087568835,"lon":113.497292225,"area_km2":1.0516,"D":0.2606,"C":0.9937,"T":0.0683,"U1":0.076,"U2":0.0607,"couplingDegree":0.2606,"level":"中度失调","road_density":28.0733,"walk_accessibility":0.2108,"metro_line_density":5.6274,"station_count":1,"line_count":1,"population_density":15344.7,"poi_density":0.0,"poi_diversity":0.0,"gdp_density":0.0,"P":15344.7,"I":0.0,"G":0.0},{"stationName":"广州夏园(地铁站)","station_id":"广州夏园(地铁站)_23.08558_113.51315","lineId":"广州地铁5号线","lat":23.08557598,"lon":113.513151045,"area_km2":1.1127,"D":0.3177,"C":0.8455,"T":0.1194,"U1":0.1831,"U2":0.0556,"couplingDegree":0.3177,"level":"中度失调","road_density":27.6353,"walk_accessibility":0.2231,"metro_line_density":9.334,"station_count":2,"line_count":1,"population_density":14068.5958,"poi_density":0.0,"poi_diversity":0.0,"gdp_density":0.0,"P":14068.5958,"I":0.0,"G":0.0},{"stationName":"广州保盈大道(地铁站)","station_id":"广州保盈大道(地铁站)_23.07734_113.52085","lineId":"广州地铁5号线","lat":23.077335384999998,"lon":113.52085210999999,"area_km2":1.1219,"D":0.3212,"C":0.6987,"T":0.1476,"U1":0.2533,"U2":0.042,"couplingDegree":0.3212,"level":"中度失调","road_density":24.1592,"walk_accessibility":0.2249,"metro_line_density":8.9412,"station_count":3,"line_count":1,"population_density":10627.9687,"poi_density":0.0,"poi_diversity":0.0,"gdp_density":0.0,"P":10627.9687,"I":0.0,"G":0.0},{"stationName":"广州夏港(地铁站)","station_id":"广州夏港(地铁站)_23.06625_113.52002","lineId":"广州地铁5号线","lat":23.066252865000003,"lon":113.52002316,"area_km2":2.0123,"D":0.3063,"C":0.6761,"T":0.1388,"U1":0.2411,"U2":0.0365,"couplingDegree":0.3063,"level":"中度失调","road_density":22.4073,"walk_accessibility":0.4035,"metro_line_density":5.3344,"station_count":3,"line_count":1,"population_density":9238.7024,"poi_density":0.0,"poi_diversity":0.0,"gdp_density":0.0,"P":9238.7024,"I":0.0,"G":0.0},{"stationName":"广州黄埔新港(地铁站)","station_id":"广州黄埔新港(地铁站)_23.05509_113.51951","lineId":"广州地铁5号线","lat":23.055087965,"lon":113.51951488,"area_km2":1.5851,"D":0.2464,"C":0.7403,"T":0.082,"U1":0.1371,"U2":0.0269,"couplingDegree":0.2464,"level":"中度失调","road_density":22.5264,"walk_accessibility":0.3178,"metro_line_density":3.2266,"station_count":2,"line_count":1,"population_density":6795.6876,"poi_density":0.0,"poi_diversity":0.0,"gdp_density":0.0,"P":6795.6876,"I":0.0,"G":0.0}]}