{"cityCode":"310000","year":2021,"stations":[{"stationName":"上海富锦路(地铁站)","station_id":"上海富锦路(地铁站)_31.39404_121.42001","lineId":"上海地铁1号线","lat":31.39404489,"lon":121.42000867499999,"area_km2":2.0533,"D":0.2247,"C":0.68,"T":0.0742,"U1":0.1286,"U2":0.0198,"couplingDegree":0.2247,"level":"中度失调","road_density":31.6805,"walk_accessibility":0.4117,"metro_line_density":1.4156,"station_count":2,"line_count":1,"population_density":810.8739,"poi_density":0.0,"poi_diversity":0.0,"gdp_density":32017.586,"P":810.8739,"I":0.0,"G":32017.586},{"stationName":"上海友谊西路(地铁站)","station_id":"上海友谊西路(地铁站)_31.38309_121.42331","lineId":"上海地铁1号线","lat":31.38308783,"lon":121.42330572,"area_km2":1.188,"D":0.2218,"C":0.7127,"T":0.069,"U1":0.1174,"U2":0.0206,"couplingDegree":0.2218,"level":"中度失调","road_density":28.6859,"walk_accessibility":0.2382,"metro_line_density":4.7423,"station_count":2,"line_count":1,"population_density":11886.7447,"poi_density":0.0,"poi_diversity":0.0,"gdp_density":0.0,"P":11886.7447,"I":0.0,"G":0.0},{"stationName":"上海宝安公路(地铁站)","station_id":"上海宝安公路(地铁站)_31.37135_121.42627","lineId":"上海地铁1号线","lat":31.37135416,"lon":121.42627176,"area_km2":1.2393,"D":0.1734,"C":0.8986,"T":0.0335,"U1":0.0482,"U2":0.0188,"couplingDegree":0.1734,"level":"极度失调","road_density":20.7865,"walk_accessibility":0.2485,"metro_line_density":4.6309,"station_count":1,"line_count":1,"population_density":10839.6816,"poi_density":0.0,"poi_diversity":0.0,"gdp_density":0.0,"P":10839.6816,"I":0.0,"G":0.0},{"stationName":"上海共富新村(地铁站)","station_id":"上海共富新村(地铁站)_31.35689_121.42943","lineId":"上海地铁1号线","lat":31.35688994,"lon":121.42942848,"area_km2":1.4132,"D":0.1967,"C":0.8643,"T":0.0448,"U1":0.0673,"U2":0.0222,"couplingDegree":0.1967,"level":"极度失调","road_density":26.9439,"walk_accessibility":0.2834,"metro_line_density":4.0267,"station_count":1,"line_count":1,"population_density":12836.454,"poi_density":0.0,"poi_diversity":0.0,"gdp_density":0.0,"P":12836.454,"I":0.0,"G":0.0},{"stationName":"上海呼兰路(地铁站)","station_id":"上海呼兰路(地铁站)_31.34153_121.43226","lineId":"上海地铁18号线 / 上海地铁1号线","lat":31.34152552666667,"lon":121.43226472666667,"area_km2":1.7114,"D":0.3411,"C":0.7807,"T":0.149,"U1":0.2421,"U2":0.0559,"couplingDegree":0.3411,"level":"中度失调","road_density":20.7949,"walk_accessibility":0.3431,"metro_line_density":5.797,"station_count":3,"line_count":2,"population_density":18088.4384,"poi_density":0.5843,"poi_diversity":0.0,"gdp_density":40812.1962,"P":18088.4384,"I":0.5843,"G":40812.1962},{"stationName":"上海通河新村(地铁站)","station_id":"上海通河新村(地铁站)_31.33296_121.43693","lineId":"上海地铁1号线","lat":31.33295683,"lon":121.43692739,"area_km2":1.6916,"D":0.3084,"C":0.7984,"T":0.1191,"U1":0.1909,"U2":0.0474,"couplingDegree":0.3084,"level":"中度失调","road_density":21.5739,"walk_accessibility":0.3392,"metro_line_density":3.7826,"station_count":2,"line_count":2,"population_density":13653.7721,"poi_density":0.0,"poi_diversity":0.0,"gdp_density":41289.9954,"P":13653.7721,"I":0.0,"G":41289.9954},{"stationName":"上海共康路(地铁站)","station_id":"上海共康路(地铁站)_31.32078_121.44246","lineId":"上海地铁1号线","lat":31.32077824,"lon":121.44245648,"area_km2":1.3298,"D":0.2088,"C":0.9779,"T":0.0446,"U1":0.0539,"U2":0.0352,"couplingDegree":0.2088,"level":"中度失调","road_density":22.4955,"walk_accessibility":0.2666,"metro_line_density":4.3892,"station_count":1,"line_count":1,"population_density":19518.9328,"poi_density":0.752,"poi_diversity":0.0,"gdp_density":0.0,"P":19518.9328,"I":0.752,"G":0.0},{"stationName":"上海彭浦新村(地铁站)","station_id":"上海彭浦新村(地铁站)_31.30845_121.44404","lineId":"上海地铁1号线","lat":31.30845444,"lon":121.44404066,"area_km2":1.8545,"D":0.2343,"C":0.9926,"T":0.0553,"U1":0.062,"U2":0.0486,"couplingDegree":0.2343,"level":"中度失调","road_density":23.8212,"walk_accessibility":0.3718,"metro_line_density":3.1529,"station_count":1,"line_count":1,"population_density":28023.8583,"poi_density":0.0,"poi_diversity":0.0,"gdp_density":0.0,"P":28023.8583,"I":0.0,"G":0.0},{"stationName":"上海汶水路(地铁站)","station_id":"上海汶水路(地铁站)_31.29442_121.44566","lineId":"上海地铁1号线","lat":31.294415684999997,"lon":121.445655105,"area_km2":2.4114,"D":0.3724,"C":0.922,"T":0.1504,"U1":0.0922,"U2":0.2087,"couplingDegree":0.3724,"level":"中度失调","road_density":31.8277,"walk_accessibility":0.4835,"metro_line_density":2.3334,"station_count":1,"line_count":1,"population_density":15040.6445,"poi_density":1.6588,"poi_diversity":1.3863,"gdp_density":193434.9876,"P":15040.6445,"I":1.6588,"G":193434.9876},{"stationName":"上海上海马戏城(地铁站)","station_id":"上海上海马戏城(地铁站)_31.28150_121.44747","lineId":"上海地铁1号线 / 上海地铁20号线","lat":31.281495435,"lon":121.44747032999999,"area_km2":2.2037,"D":0.4284,"C":0.9909,"T":0.1852,"U1":0.2102,"U2":0.1603,"couplingDegree":0.4284,"level":"勉强协调","road_density":24.6408,"walk_accessibility":0.4418,"metro_line_density":4.2661,"station_count":2,"line_count":2,"population_density":18633.276,"poi_density":6.8068,"poi_diversity":2.3384,"gdp_density":0.0,"P":18633.276,"I":6.8068,"G":0.0},{"stationName":"上海延长路(地铁站)","station_id":"上海延长路(地铁站)_31.27355_121.45075","lineId":"上海地铁1号线","lat":31.27355265,"lon":121.45074729,"area_km2":2.2407,"D":0.5096,"C":0.9699,"T":0.2677,"U1":0.2026,"U2":0.3329,"couplingDegree":0.5096,"level":"勉强协调","road_density":23.0699,"walk_accessibility":0.4492,"metro_line_density":3.2934,"station_count":2,"line_count":2,"population_density":34626.9766,"poi_density":5.8019,"poi_diversity":2.245,"gdp_density":263357.734,"P":34626.9766,"I":5.8019,"G":263357.734},{"stationName":"上海中山北路(地铁站)","station_id":"上海中山北路(地铁站)_31.26078_121.45463","lineId":"上海地铁1号线","lat":31.26078422,"lon":121.45463391,"area_km2":2.4942,"D":0.6234,"C":0.9991,"T":0.389,"U1":0.4051,"U2":0.3728,"couplingDegree":0.6234,"level":"良好协调","road_density":28.4711,"walk_accessibility":0.5001,"metro_line_density":3.345,"station_count":4,"line_count":3,"population_density":57202.9027,"poi_density":6.014,"poi_diversity":2.246,"gdp_density":264046.1193,"P":57202.9027,"I":6.014,"G":264046.1193},{"stationName":"上海上海火车站(地铁站)","station_id":"上海上海火车站(地铁站)_31.24994_121.45186","lineId":"上海地铁1号线 / 上海地铁3号线","lat":31.249938473333334,"lon":121.45185925666665,"area_km2":2.6664,"D":0.6516,"C":0.9999,"T":0.4246,"U1":0.4307,"U2":0.4184,"couplingDegree":0.6516,"level":"良好协调","road_density":33.3555,"walk_accessibility":0.5346,"metro_line_density":5.6336,"station_count":4,"line_count":3,"population_density":50954.0574,"poi_density":29.2525,"poi_diversity":2.7048,"gdp_density":246987.254,"P":50954.0574,"I":29.2525,"G":246987.254},{"stationName":"上海汉中路(地铁站)","station_id":"上海汉中路(地铁站)_31.24314_121.45424","lineId":"上海地铁13号线 / 上海地铁1号线","lat":31.24313625,"lon":121.454244305,"area_km2":3.0643,"D":0.627,"C":0.9427,"T":0.417,"U1":0.5561,"U2":0.278,"couplingDegree":0.627,"level":"良好协调","road_density":31.0079,"walk_accessibility":0.6144,"metro_line_density":2.8236,"station_count":5,"line_count":4,"population_density":36714.0728,"poi_density":37.2023,"poi_diversity":2.9324,"gdp_density":0.0,"P":36714.0728,"I":37.2023,"G":0.0},{"stationName":"上海新闸路(地铁站)","station_id":"上海新闸路(地铁站)_31.24030_121.46361","lineId":"上海地铁1号线","lat":31.24029698,"lon":121.46360999,"area_km2":3.6056,"D":0.6848,"C":0.9639,"T":0.4866,"U1":0.6161,"U2":0.357,"couplingDegree":0.6848,"level":"良好协调","road_density":31.3025,"walk_accessibility":0.7229,"metro_line_density":3.9865,"station_count":6,"line_count":4,"population_density":28665.7704,"poi_density":79.0447,"poi_diversity":3.2273,"gdp_density":0.0,"P":28665.7704,"I":79.0447,"G":0.0},{"stationName":"上海人民广场(地铁站)","station_id":"上海人民广场(地铁站)_31.23485_121.46990","lineId":"上海地铁1号线 / 上海地铁2号线 / 上海地铁8号线","lat":31.234849183333335,"lon":121.46989588999999,"area_km2":3.6983,"D":0.8837,"C":0.9962,"T":0.7839,"U1":0.852,"U2":0.7157,"couplingDegree":0.8837,"level":"优质协调","road_density":33.0418,"walk_accessibility":0.7415,"metro_line_density":4.913,"station_count":7,"line_count":6,"population_density":31656.1849,"poi_density":130.6017,"poi_diversity":3.1668,"gdp_density":452165.3907,"P":31656.1849,"I":130.6017,"G":452165.3907},{"stationName":"上海一大会址·黄陂南路(地铁站)","station_id":"上海一大会址·黄陂南路(地铁站)_31.22513_121.46825","lineId":"上海地铁14号线 / 上海地铁1号线","lat":31.225133919999998,"lon":121.468253215,"area_km2":3.8548,"D":0.7655,"C":0.9497,"T":0.617,"U1":0.8102,"U2":0.4239,"couplingDegree":0.7655,"level":"良好协调","road_density":32.6645,"walk_accessibility":0.7729,"metro_line_density":5.6979,"station_count":6,"line_count":6,"population_density":38565.8618,"poi_density":107.6578,"poi_diversity":3.1471,"gdp_density":0.0,"P":38565.8618,"I":107.6578,"G":0.0},{"stationName":"上海陕西南路(地铁站)","station_id":"上海陕西南路(地铁站)_31.21810_121.45478","lineId":"上海地铁10号线 / 上海地铁1号线","lat":31.21810256,"lon":121.454784855,"area_km2":3.1202,"D":0.6948,"C":0.9974,"T":0.484,"U1":0.4489,"U2":0.5191,"couplingDegree":0.6948,"level":"良好协调","road_density":22.7303,"walk_accessibility":0.6256,"metro_line_density":5.2781,"station_count":3,"line_count":4,"population_density":15643.3916,"poi_density":146.146,"poi_diversity":3.0028,"gdp_density":121607.5792,"P":15643.3916,"I":146.146,"G":121607.5792},{"stationName":"上海常熟路(地铁站)","station_id":"上海常熟路(地铁站)_31.21535_121.44550","lineId":"上海地铁1号线 / 上海地铁7号线","lat":31.21534568,"lon":121.44550402499999,"area_km2":3.0427,"D":0.8006,"C":0.9998,"T":0.6411,"U1":0.6275,"U2":0.6547,"couplingDegree":0.8006,"level":"优质协调","road_density":20.8342,"walk_accessibility":0.6101,"metro_line_density":6.2526,"station_count":5,"line_count":5,"population_density":32538.1698,"poi_density":163.6686,"poi_diversity":2.9865,"gdp_density":250901.6452,"P":32538.1698,"I":163.6686,"G":250901.6452},{"stationName":"上海衡山路(地铁站)","station_id":"上海衡山路(地铁站)_31.20642_121.44183","lineId":"上海地铁1号线","lat":31.20641737,"lon":121.44182586,"area_km2":2.9236,"D":0.686,"C":0.9925,"T":0.4742,"U1":0.5323,"U2":0.4161,"couplingDegree":0.686,"level":"良好协调","road_density":19.5005,"walk_accessibility":0.5862,"metro_line_density":6.4337,"station_count":5,"line_count":4,"population_density":33540.0644,"poi_density":111.1651,"poi_diversity":3.0318,"gdp_density":0.0,"P":33540.0644,"I":111.1651,"G":0.0},{"stationName":"上海徐家汇(地铁站)","station_id":"上海徐家汇(地铁站)_31.19576_121.43236","lineId":"上海地铁11号线 / 上海地铁1号线 / 上海地铁9号线","lat":31.19576220333333,"lon":121.43235650333334,"area_km2":2.9778,"D":0.7025,"C":0.9719,"T":0.5078,"U1":0.6273,"U2":0.3883,"couplingDegree":0.7025,"level":"良好协调","road_density":22.6277,"walk_accessibility":0.597,"metro_line_density":5.6079,"station_count":3,"line_count":6,"population_density":25957.8508,"poi_density":62.7991,"poi_diversity":3.0083,"gdp_density":134474.67,"P":25957.8508,"I":62.7991,"G":134474.67},{"stationName":"上海上海体育馆(地铁站)","station_id":"上海上海体育馆(地铁站)_31.18429_121.43223","lineId":"上海地铁1号线 / 上海地铁4号线","lat":31.18429184,"lon":121.43223302,"area_km2":2.523,"D":0.6604,"C":0.8798,"T":0.4957,"U1":0.7314,"U2":0.2601,"couplingDegree":0.6604,"level":"良好协调","road_density":25.1698,"walk_accessibility":0.5058,"metro_line_density":8.8936,"station_count":5,"line_count":6,"population_density":29302.521,"poi_density":42.4106,"poi_diversity":2.6322,"gdp_density":0.0,"P":29302.521,"I":42.4106,"G":0.0},{"stationName":"上海漕宝路(地铁站)","station_id":"上海漕宝路(地铁站)_31.17012_121.43008","lineId":"上海地铁1号线","lat":31.17011773,"lon":121.43008327,"area_km2":1.8959,"D":0.5253,"C":0.9958,"T":0.2771,"U1":0.2517,"U2":0.3025,"couplingDegree":0.5253,"level":"勉强协调","road_density":24.9072,"walk_accessibility":0.3801,"metro_line_density":4.1904,"station_count":3,"line_count":2,"population_density":15248.9254,"poi_density":12.1312,"poi_diversity":2.3182,"gdp_density":241996.4536,"P":15248.9254,"I":12.1312,"G":241996.4536},{"stationName":"上海上海南站(地铁站)","station_id":"上海上海南站(地铁站)_31.15635_121.42606","lineId":"上海地铁15号线 / 上海地铁1号线 / 上海地铁3号线","lat":31.156352245,"lon":121.42606245,"area_km2":1.9356,"D":0.4647,"C":0.879,"T":0.2456,"U1":0.3627,"U2":0.1285,"couplingDegree":0.4647,"level":"勉强协调","road_density":31.4808,"walk_accessibility":0.3881,"metro_line_density":4.4154,"station_count":3,"line_count":3,"population_density":15463.5184,"poi_density":4.1331,"poi_diversity":1.9062,"gdp_density":0.0,"P":15463.5184,"I":4.1331,"G":0.0},{"stationName":"上海锦江乐园(地铁站)","station_id":"上海锦江乐园(地铁站)_31.14410_121.40947","lineId":"上海地铁1号线","lat":31.14409852,"lon":121.40946646,"area_km2":1.5731,"D":0.2653,"C":0.9989,"T":0.0705,"U1":0.0737,"U2":0.0672,"couplingDegree":0.2653,"level":"中度失调","road_density":30.945,"walk_accessibility":0.3154,"metro_line_density":1.7564,"station_count":1,"line_count":1,"population_density":5482.0888,"poi_density":1.907,"poi_diversity":1.0986,"gdp_density":0.0,"P":5482.0888,"I":1.907,"G":0.0},{"stationName":"上海莲花路(地铁站)","station_id":"上海莲花路(地铁站)_31.13279_121.39827","lineId":"上海地铁1号线","lat":31.132785175000002,"lon":121.39826690000001,"area_km2":2.0028,"D":0.3426,"C":0.8541,"T":0.1374,"U1":0.0659,"U2":0.2089,"couplingDegree":0.3426,"level":"中度失调","road_density":26.7181,"walk_accessibility":0.4016,"metro_line_density":1.1499,"station_count":1,"line_count":1,"population_density":8311.7522,"poi_density":20.4711,"poi_diversity":2.6309,"gdp_density":45933.0783,"P":8311.7522,"I":20.4711,"G":45933.0783},{"stationName":"上海外环路(地铁站)","station_id":"上海外环路(地铁站)_31.12279_121.38838","lineId":"上海地铁1号线","lat":31.12279218,"lon":121.38838039,"area_km2":2.444,"D":0.1741,"C":0.6039,"T":0.0502,"U1":0.0902,"U2":0.0102,"couplingDegree":0.1741,"level":"极度失调","road_density":31.9405,"walk_accessibility":0.49,"metro_line_density":1.5335,"station_count":1,"line_count":1,"population_density":5874.0861,"poi_density":0.0,"poi_diversity":0.0,"gdp_density":0.0,"P":5874.0861,"I":0.0,"G":0.0},{"stationName":"上海莘庄(地铁站)","station_id":"上海莘庄(地铁站)_31.11305_121.38074","lineId":"上海地铁1号线","lat":31.11305321,"lon":121.38073913,"area_km2":2.2667,"D":0.358,"C":0.8491,"T":0.1509,"U1":0.0712,"U2":0.2306,"couplingDegree":0.358,"level":"中度失调","road_density":24.0807,"walk_accessibility":0.4545,"metro_line_density":3.6097,"station_count":1,"line_count":1,"population_density":6591.0723,"poi_density":33.9701,"poi_diversity":2.6732,"gdp_density":41326.1114,"P":6591.0723,"I":33.9701,"G":41326.1114},{"stationName":"上海虹桥火车站(地铁站)","station_id":"上海虹桥火车站(地铁站)_31.19604_121.31717","lineId":"上海地铁2号线 / 上海地铁示范区线","lat":31.196040484999997,"lon":121.31717220499999,"area_km2":2.0239,"D":0.5383,"C":0.9102,"T":0.3183,"U1":0.4502,"U2":0.1865,"couplingDegree":0.5383,"level":"勉强协调","road_density":44.3455,"walk_accessibility":0.4058,"metro_line_density":5.4505,"station_count":2,"line_count":4,"population_density":5601.4745,"poi_density":17.7872,"poi_diversity":2.5309,"gdp_density":32443.7875,"P":5601.4745,"I":17.7872,"G":32443.7875},{"stationName":"上海虹桥2号航站楼(地铁站)","station_id":"上海虹桥2号航站楼(地铁站)_31.19613_121.32116","lineId":"上海地铁10号线 / 上海地铁2号线 / 上海地铁嘉闵线","lat":31.196134086666664,"lon":121.32115698,"area_km2":1.8675,"D":0.5269,"C":0.8939,"T":0.3106,"U1":0.4498,"U2":0.1713,"couplingDegree":0.5269,"level":"勉强协调","road_density":43.9779,"walk_accessibility":0.3744,"metro_line_density":6.3702,"station_count":2,"line_count":4,"population_density":8476.7701,"poi_density":12.8517,"poi_diversity":2.2793,"gdp_density":35162.2635,"P":8476.7701,"I":12.8517,"G":35162.2635},{"stationName":"上海淞虹路(地铁站)","station_id":"上海淞虹路(地铁站)_31.22010_121.35493","lineId":"上海地铁2号线","lat":31.22010141,"lon":121.35492751,"area_km2":2.8041,"D":0.4334,"C":0.7183,"T":0.2615,"U1":0.0796,"U2":0.4435,"couplingDegree":0.4334,"level":"勉强协调","road_density":25.7624,"walk_accessibility":0.5622,"metro_line_density":2.0913,"station_count":1,"line_count":1,"population_density":20221.9201,"poi_density":94.5033,"poi_diversity":2.8897,"gdp_density":154477.2109,"P":20221.9201,"I":94.5033,"G":154477.2109},{"stationName":"上海中山公园(地铁站)","station_id":"上海中山公园(地铁站)_31.22006_121.41225","lineId":"上海地铁2号线 / 上海地铁3号线","lat":31.220058209999998,"lon":121.4122525,"area_km2":2.9313,"D":0.5186,"C":0.9946,"T":0.2704,"U1":0.2422,"U2":0.2985,"couplingDegree":0.5186,"level":"勉强协调","road_density":30.2753,"walk_accessibility":0.5877,"metro_line_density":5.1788,"station_count":2,"line_count":2,"population_density":16896.4337,"poi_density":27.9742,"poi_diversity":2.8439,"gdp_density":133328.2411,"P":16896.4337,"I":27.9742,"G":133328.2411},{"stationName":"上海静安寺(地铁站)","station_id":"上海静安寺(地铁站)_31.22463_121.44222","lineId":"上海地铁14号线 / 上海地铁2号线 / 上海地铁7号线","lat":31.22463062,"lon":121.44222156333335,"area_km2":2.9821,"D":0.6834,"C":0.9992,"T":0.4674,"U1":0.4486,"U2":0.4862,"couplingDegree":0.6834,"level":"良好协调","road_density":23.427,"walk_accessibility":0.5979,"metro_line_density":5.2455,"station_count":3,"line_count":4,"population_density":35279.1893,"poi_density":148.2192,"poi_diversity":2.9837,"gdp_density":0.0,"P":35279.1893,"I":148.2192,"G":0.0},{"stationName":"上海世纪大道(地铁站)","station_id":"上海世纪大道(地铁站)_31.23078_121.52288","lineId":"上海地铁2号线","lat":31.23078121,"lon":121.522877,"area_km2":3.8492,"D":0.6113,"C":0.8218,"T":0.4547,"U1":0.7137,"U2":0.1956,"couplingDegree":0.6113,"level":"良好协调","road_density":30.6493,"walk_accessibility":0.7718,"metro_line_density":5.5745,"station_count":6,"line_count":5,"population_density":11739.7471,"poi_density":11.6906,"poi_diversity":2.5317,"gdp_density":49737.4652,"P":11739.7471,"I":11.6906,"G":49737.4652},{"stationName":"上海龙阳路(地铁站)","station_id":"上海龙阳路(地铁站)_31.20426_121.55296","lineId":"上海地铁16号线 / 上海地铁18号线 / 上海地铁2号线 / 上海地铁7号线","lat":31.204256895999997,"lon":121.55296048,"area_km2":2.1669,"D":0.5978,"C":0.9158,"T":0.3903,"U1":0.547,"U2":0.2335,"couplingDegree":0.5978,"level":"勉强协调","road_density":28.0113,"walk_accessibility":0.4345,"metro_line_density":6.8877,"station_count":5,"line_count":4,"population_density":9935.9925,"poi_density":14.7678,"poi_diversity":2.8265,"gdp_density":85724.1251,"P":9935.9925,"I":14.7678,"G":85724.1251},{"stationName":"上海浦东1号2号航站楼(地铁站)","station_id":"上海浦东1号2号航站楼(地铁站)_31.15359_121.80159","lineId":"上海上海市域机场线后通段(浦东1号2号航站楼--上海东站) / 上海地铁2号线","lat":31.153591245,"lon":121.80159420999999,"area_km2":1.1491,"D":0.2917,"C":0.7667,"T":0.111,"U1":0.1822,"U2":0.0397,"couplingDegree":0.2917,"level":"中度失调","road_density":33.7813,"walk_accessibility":0.2304,"metro_line_density":6.5051,"station_count":1,"line_count":2,"population_density":1324.4834,"poi_density":1.7405,"poi_diversity":0.6931,"gdp_density":0.0,"P":1324.4834,"I":1.7405,"G":0.0},{"stationName":"上海海天三路(地铁站)","station_id":"上海海天三路(地铁站)_31.17054_121.79257","lineId":"上海地铁2号线","lat":31.17054153,"lon":121.79256704,"area_km2":2.3425,"D":0.1206,"C":0.4692,"T":0.031,"U1":0.0584,"U2":0.0036,"couplingDegree":0.1206,"level":"极度失调","road_density":22.5574,"walk_accessibility":0.4697,"metro_line_density":0.9631,"station_count":1,"line_count":1,"population_density":1629.0499,"poi_density":0.4269,"poi_diversity":0.0,"gdp_density":0.0,"P":1629.0499,"I":0.4269,"G":0.0},{"stationName":"上海远东大道(地铁站)","station_id":"上海远东大道(地铁站)_31.20141_121.75093","lineId":"上海地铁2号线","lat":31.20141446,"lon":121.75092969,"area_km2":1.5171,"D":0.1971,"C":0.98,"T":0.0396,"U1":0.0317,"U2":0.0475,"couplingDegree":0.1971,"level":"极度失调","road_density":18.379,"walk_accessibility":0.3042,"metro_line_density":0.7895,"station_count":1,"line_count":1,"population_density":4511.9294,"poi_density":0.0,"poi_diversity":0.0,"gdp_density":69090.1963,"P":4511.9294,"I":0.0,"G":69090.1963},{"stationName":"上海凌空路(地铁站)","station_id":"上海凌空路(地铁站)_31.19491_121.71973","lineId":"上海地铁2号线","lat":31.19490762,"lon":121.7197285,"area_km2":1.8958,"D":0.1941,"C":0.9996,"T":0.0377,"U1":0.0388,"U2":0.0366,"couplingDegree":0.1941,"level":"极度失调","road_density":17.8912,"walk_accessibility":0.3801,"metro_line_density":1.4293,"station_count":1,"line_count":1,"population_density":4703.6192,"poi_density":0.0,"poi_diversity":0.0,"gdp_density":49497.4553,"P":4703.6192,"I":0.0,"G":49497.4553},{"stationName":"上海川沙(地铁站)","station_id":"上海川沙(地铁站)_31.18882_121.69387","lineId":"上海地铁2号线","lat":31.1888237,"lon":121.69387453,"area_km2":2.2367,"D":0.2512,"C":0.9083,"T":0.0695,"U1":0.0404,"U2":0.0986,"couplingDegree":0.2512,"level":"中度失调","road_density":16.8357,"walk_accessibility":0.4485,"metro_line_density":1.2116,"station_count":1,"line_count":1,"population_density":11191.7814,"poi_density":1.7883,"poi_diversity":0.5623,"gdp_density":83690.0073,"P":11191.7814,"I":1.7883,"G":83690.0073},{"stationName":"上海华夏东路(地铁站)","station_id":"上海华夏东路(地铁站)_31.19868_121.67667","lineId":"上海地铁2号线","lat":31.19868363,"lon":121.67666725,"area_km2":1.6418,"D":0.2075,"C":0.9947,"T":0.0433,"U1":0.0388,"U2":0.0477,"couplingDegree":0.2075,"level":"中度失调","road_density":19.195,"walk_accessibility":0.3292,"metro_line_density":1.518,"station_count":1,"line_count":1,"population_density":7455.2115,"poi_density":1.8273,"poi_diversity":0.6365,"gdp_density":0.0,"P":7455.2115,"I":1.8273,"G":0.0},{"stationName":"上海创新中路(地铁站)","station_id":"上海创新中路(地铁站)_31.21599_121.66942","lineId":"上海地铁2号线","lat":31.21598559,"lon":121.66942139,"area_km2":1.2733,"D":0.0905,"C":0.4227,"T":0.0194,"U1":0.0369,"U2":0.0018,"couplingDegree":0.0905,"level":"极度失调","road_density":20.353,"walk_accessibility":0.2553,"metro_line_density":1.7037,"station_count":1,"line_count":1,"population_density":1047.6563,"poi_density":0.0,"poi_diversity":0.0,"gdp_density":0.0,"P":1047.6563,"I":0.0,"G":0.0},{"stationName":"上海唐镇(地铁站)","station_id":"上海唐镇(地铁站)_31.21625_121.65201","lineId":"上海地铁2号线","lat":31.21625474,"lon":121.65201072,"area_km2":1.7434,"D":0.2689,"C":0.8083,"T":0.0895,"U1":0.0368,"U2":0.1422,"couplingDegree":0.2689,"level":"中度失调","road_density":18.5302,"walk_accessibility":0.3495,"metro_line_density":1.0376,"station_count":1,"line_count":1,"population_density":6152.3688,"poi_density":4.0152,"poi_diversity":1.9459,"gdp_density":48824.8917,"P":6152.3688,"I":4.0152,"G":48824.8917},{"stationName":"上海广兰路(地铁站)","station_id":"上海广兰路(地铁站)_31.21325_121.61686","lineId":"上海地铁2号线","lat":31.21324925,"lon":121.61686455,"area_km2":1.9865,"D":0.336,"C":0.8522,"T":0.1325,"U1":0.0632,"U2":0.2018,"couplingDegree":0.336,"level":"中度失调","road_density":25.4756,"walk_accessibility":0.3983,"metro_line_density":1.4912,"station_count":1,"line_count":1,"population_density":6276.3451,"poi_density":9.0611,"poi_diversity":2.3513,"gdp_density":101016.0332,"P":6276.3451,"I":9.0611,"G":101016.0332},{"stationName":"上海金科路(地铁站)","station_id":"上海金科路(地铁站)_31.20643_121.59779","lineId":"上海地铁2号线","lat":31.20642676,"lon":121.59778968,"area_km2":1.9092,"D":0.252,"C":0.9194,"T":0.0691,"U1":0.0419,"U2":0.0962,"couplingDegree":0.252,"level":"中度失调","road_density":18.7748,"walk_accessibility":0.3828,"metro_line_density":1.5023,"station_count":1,"line_count":1,"population_density":6913.8848,"poi_density":2.6189,"poi_diversity":1.6094,"gdp_density":0.0,"P":6913.8848,"I":2.6189,"G":0.0},{"stationName":"上海张江高科(地铁站)","station_id":"上海张江高科(地铁站)_31.20409_121.58329","lineId":"上海地铁2号线","lat":31.20408548,"lon":121.58328664,"area_km2":2.1967,"D":0.2662,"C":0.9271,"T":0.0765,"U1":0.0478,"U2":0.1051,"couplingDegree":0.2662,"level":"中度失调","road_density":19.4865,"walk_accessibility":0.4404,"metro_line_density":1.2367,"station_count":1,"line_count":1,"population_density":7847.2873,"poi_density":5.918,"poi_diversity":1.6313,"gdp_density":0.0,"P":7847.2873,"I":5.918,"G":0.0},{"stationName":"上海世纪公园(地铁站)","station_id":"上海世纪公园(地铁站)_31.21159_121.54665","lineId":"上海地铁2号线","lat":31.21158603,"lon":121.54664538,"area_km2":2.445,"D":0.5822,"C":0.9331,"T":0.3632,"U1":0.4938,"U2":0.2326,"couplingDegree":0.5822,"level":"勉强协调","road_density":27.5647,"walk_accessibility":0.4902,"metro_line_density":4.0049,"station_count":4,"line_count":4,"population_density":6750.5808,"poi_density":15.1331,"poi_diversity":2.8708,"gdp_density":88764.5136,"P":6750.5808,"I":15.1331,"G":88764.5136},{"stationName":"上海上海科技馆(地铁站)","station_id":"上海上海科技馆(地铁站)_31.22097_121.54016","lineId":"上海地铁2号线","lat":31.22096549,"lon":121.54015729,"area_km2":3.2412,"D":0.5705,"C":0.8633,"T":0.3769,"U1":0.5672,"U2":0.1867,"couplingDegree":0.5705,"level":"勉强协调","road_density":32.9555,"walk_accessibility":0.6499,"metro_line_density":3.4672,"station_count":5,"line_count":4,"population_density":2498.4426,"poi_density":9.2558,"poi_diversity":2.4997,"gdp_density":72800.3857,"P":2498.4426,"I":9.2558,"G":72800.3857},{"stationName":"上海浦东南路(原东昌路)(地铁站)","station_id":"上海浦东南路(原东昌路)(地铁站)_31.23533_121.51118","lineId":"上海地铁2号线","lat":31.2353341,"lon":121.5111808,"area_km2":4.2622,"D":0.6258,"C":0.8565,"T":0.4573,"U1":0.6933,"U2":0.2212,"couplingDegree":0.6258,"level":"良好协调","road_density":36.9841,"walk_accessibility":0.8546,"metro_line_density":5.5519,"station_count":5,"line_count":5,"population_density":16369.2904,"poi_density":13.1386,"poi_diversity":2.8894,"gdp_density":44917.8303,"P":16369.2904,"I":13.1386,"G":44917.8303},{"stationName":"上海陆家嘴(地铁站)","station_id":"上海陆家嘴(地铁站)_31.23875_121.49806","lineId":"上海地铁14号线 / 上海地铁2号线","lat":31.238746165000002,"lon":121.49806153,"area_km2":3.0308,"D":0.5564,"C":0.9861,"T":0.3139,"U1":0.3662,"U2":0.2617,"couplingDegree":0.5564,"level":"勉强协调","road_density":42.5232,"walk_accessibility":0.6077,"metro_line_density":4.0086,"station_count":2,"line_count":3,"population_density":12718.8393,"poi_density":31.0151,"poi_diversity":2.6665,"gdp_density":87089.4708,"P":12718.8393,"I":31.0151,"G":87089.4708},{"stationName":"上海南京东路(地铁站)","station_id":"上海南京东路(地铁站)_31.23957_121.47963","lineId":"上海地铁10号线 / 上海地铁2号线","lat":31.23956866,"lon":121.47962986499999,"area_km2":3.7709,"D":0.8141,"C":1.0,"T":0.6627,"U1":0.6613,"U2":0.6641,"couplingDegree":0.8141,"level":"优质协调","road_density":31.081,"walk_accessibility":0.7561,"metro_line_density":3.7855,"station_count":5,"line_count":5,"population_density":30713.9152,"poi_density":110.0534,"poi_diversity":3.0365,"gdp_density":443456.3323,"P":30713.9152,"I":110.0534,"G":443456.3323},{"stationName":"上海南京西路(地铁站)","station_id":"上海南京西路(地铁站)_31.23112_121.45664","lineId":"上海地铁13号线 / 上海地铁2号线","lat":31.231121675,"lon":121.456641515,"area_km2":3.1486,"D":0.6965,"C":0.988,"T":0.491,"U1":0.4151,"U2":0.5669,"couplingDegree":0.6965,"level":"良好协调","road_density":28.6172,"walk_accessibility":0.6313,"metro_line_density":3.0223,"station_count":4,"line_count":3,"population_density":28682.7331,"poi_density":131.8053,"poi_diversity":3.0429,"gdp_density":208876.4218,"P":28682.7331,"I":131.8053,"G":208876.4218},{"stationName":"上海江苏路(地铁站)","station_id":"上海江苏路(地铁站)_31.22201_121.42692","lineId":"上海地铁11号线 / 上海地铁2号线","lat":31.222012560000003,"lon":121.42691964,"area_km2":2.9026,"D":0.5322,"C":0.9947,"T":0.2848,"U1":0.3142,"U2":0.2553,"couplingDegree":0.5322,"level":"勉强协调","road_density":25.8125,"walk_accessibility":0.582,"metro_line_density":4.0316,"station_count":2,"line_count":3,"population_density":19707.1195,"poi_density":43.4093,"poi_diversity":2.8355,"gdp_density":0.0,"P":19707.1195,"I":43.4093,"G":0.0},{"stationName":"上海娄山关路(地铁站)","station_id":"上海娄山关路(地铁站)_31.21395_121.39738","lineId":"上海地铁15号线 / 上海地铁2号线","lat":31.213947245,"lon":121.39738009,"area_km2":2.7612,"D":0.5745,"C":0.7939,"T":0.4157,"U1":0.1629,"U2":0.6684,"couplingDegree":0.5745,"level":"勉强协调","road_density":23.1715,"walk_accessibility":0.5536,"metro_line_density":2.6256,"station_count":1,"line_count":2,"population_density":26426.6936,"poi_density":206.7924,"poi_diversity":3.0626,"gdp_density":145815.4475,"P":26426.6936,"I":206.7924,"G":145815.4475},{"stationName":"上海威宁路(地铁站)","station_id":"上海威宁路(地铁站)_31.21672_121.38264","lineId":"上海地铁2号线","lat":31.21671684,"lon":121.38263986,"area_km2":2.3448,"D":0.3504,"C":0.8352,"T":0.147,"U1":0.0661,"U2":0.2278,"couplingDegree":0.3504,"level":"中度失调","road_density":23.4281,"walk_accessibility":0.4701,"metro_line_density":2.3906,"station_count":1,"line_count":1,"population_density":22079.5705,"poi_density":27.7205,"poi_diversity":2.7902,"gdp_density":0.0,"P":22079.5705,"I":27.7205,"G":0.0},{"stationName":"上海北新泾(地铁站)","station_id":"上海北新泾(地铁站)_31.21825_121.36937","lineId":"上海地铁2号线","lat":31.21825356,"lon":121.3693669,"area_km2":2.5871,"D":0.4292,"C":0.7584,"T":0.2429,"U1":0.0846,"U2":0.4013,"couplingDegree":0.4292,"level":"勉强协调","road_density":28.4442,"walk_accessibility":0.5187,"metro_line_density":2.2398,"station_count":1,"line_count":1,"population_density":10990.79,"poi_density":66.0978,"poi_diversity":3.2798,"gdp_density":168180.269,"P":10990.79,"I":66.0978,"G":168180.269},{"stationName":"上海国家会展中心(2号线)(地铁站)","station_id":"上海国家会展中心(2号线)(地铁站)_31.19037_121.29473","lineId":"上海地铁2号线","lat":31.19036678,"lon":121.29472806,"area_km2":1.9167,"D":0.357,"C":0.6493,"T":0.1963,"U1":0.3456,"U2":0.047,"couplingDegree":0.357,"level":"中度失调","road_density":26.4079,"walk_accessibility":0.3843,"metro_line_density":3.9686,"station_count":3,"line_count":3,"population_density":2679.5708,"poi_density":1.5652,"poi_diversity":0.6365,"gdp_density":14012.9656,"P":2679.5708,"I":1.5652,"G":14012.9656},{"stationName":"上海蟠祥路(地铁站)","station_id":"上海蟠祥路(地铁站)_31.18406_121.28299","lineId":"上海地铁2号线","lat":31.1840645,"lon":121.28298674,"area_km2":1.6661,"D":0.2119,"C":0.3685,"T":0.1218,"U1":0.2351,"U2":0.0086,"couplingDegree":0.2119,"level":"中度失调","road_density":21.8203,"walk_accessibility":0.334,"metro_line_density":3.1707,"station_count":3,"line_count":2,"population_density":4945.1289,"poi_density":0.0,"poi_diversity":0.0,"gdp_density":0.0,"P":4945.1289,"I":0.0,"G":0.0},{"stationName":"上海石龙路(地铁站)","station_id":"上海石龙路(地铁站)_31.15986_121.43860","lineId":"上海地铁3号线","lat":31.159856395,"lon":121.43860487,"area_km2":1.434,"D":0.5411,"C":0.9972,"T":0.2936,"U1":0.2718,"U2":0.3154,"couplingDegree":0.5411,"level":"勉强协调","road_density":18.6084,"walk_accessibility":0.2875,"metro_line_density":4.9467,"station_count":2,"line_count":3,"population_density":41391.5154,"poi_density":2.7893,"poi_diversity":1.3863,"gdp_density":296003.3433,"P":41391.5154,"I":2.7893,"G":296003.3433},{"stationName":"上海龙漕路(地铁站)","station_id":"上海龙漕路(地铁站)_31.17136_121.43978","lineId":"上海地铁3号线","lat":31.17136246,"lon":121.43978352,"area_km2":2.0729,"D":0.5992,"C":0.9806,"T":0.3661,"U1":0.4379,"U2":0.2944,"couplingDegree":0.5992,"level":"勉强协调","road_density":22.0931,"walk_accessibility":0.4156,"metro_line_density":6.8827,"station_count":5,"line_count":3,"population_density":27391.5592,"poi_density":7.2362,"poi_diversity":2.1535,"gdp_density":221337.1127,"P":27391.5592,"I":7.2362,"G":221337.1127},{"stationName":"上海漕溪路(地铁站)","station_id":"上海漕溪路(地铁站)_31.17864_121.43380","lineId":"上海地铁3号线","lat":31.17863651,"lon":121.43379847,"area_km2":1.9684,"D":0.6876,"C":0.9321,"T":0.5072,"U1":0.6909,"U2":0.3236,"couplingDegree":0.6876,"level":"良好协调","road_density":28.7905,"walk_accessibility":0.3947,"metro_line_density":9.3366,"station_count":6,"line_count":5,"population_density":13819.3029,"poi_density":21.8451,"poi_diversity":2.5302,"gdp_density":233087.0651,"P":13819.3029,"I":21.8451,"G":233087.0651},{"stationName":"上海宜山路(地铁站)","station_id":"上海宜山路(地铁站)_31.18788_121.42264","lineId":"上海地铁3号线 / 上海地铁4号线 / 上海地铁9号线","lat":31.1878847,"lon":121.42264432,"area_km2":2.5916,"D":0.531,"C":0.9307,"T":0.3029,"U1":0.4137,"U2":0.1921,"couplingDegree":0.531,"level":"勉强协调","road_density":26.941,"walk_accessibility":0.5196,"metro_line_density":7.1891,"station_count":2,"line_count":4,"population_density":22477.6327,"poi_density":13.1193,"poi_diversity":2.6086,"gdp_density":0.0,"P":22477.6327,"I":13.1193,"G":0.0},{"stationName":"上海虹桥路(地铁站)","station_id":"上海虹桥路(地铁站)_31.19894_121.41700","lineId":"上海地铁10号线 / 上海地铁3号线 / 上海地铁4号线","lat":31.19893825,"lon":121.4169995475,"area_km2":3.1907,"D":0.5573,"C":0.9994,"T":0.3108,"U1":0.3217,"U2":0.3,"couplingDegree":0.5573,"level":"勉强协调","road_density":25.1448,"walk_accessibility":0.6397,"metro_line_density":5.3623,"station_count":2,"line_count":3,"population_density":20938.2846,"poi_density":26.3264,"poi_diversity":2.9321,"gdp_density":121482.0415,"P":20938.2846,"I":26.3264,"G":121482.0415},{"stationName":"上海延安西路(地铁站)","station_id":"上海延安西路(地铁站)_31.21147_121.41242","lineId":"上海地铁3号线","lat":31.21146575,"lon":121.41241925,"area_km2":3.3431,"D":0.5355,"C":0.9884,"T":0.2901,"U1":0.2461,"U2":0.3341,"couplingDegree":0.5355,"level":"勉强协调","road_density":30.6086,"walk_accessibility":0.6703,"metro_line_density":4.1026,"station_count":2,"line_count":2,"population_density":35055.6516,"poi_density":31.4079,"poi_diversity":2.9877,"gdp_density":116903.322,"P":35055.6516,"I":31.4079,"G":116903.322},{"stationName":"上海金沙江路(地铁站)","station_id":"上海金沙江路(地铁站)_31.23350_121.40783","lineId":"上海地铁13号线 / 上海地铁3号线","lat":31.233497315,"lon":121.40783292,"area_km2":3.008,"D":0.5969,"C":0.9431,"T":0.3778,"U1":0.5034,"U2":0.2521,"couplingDegree":0.5969,"level":"勉强协调","road_density":26.2215,"walk_accessibility":0.6031,"metro_line_density":5.2156,"station_count":4,"line_count":4,"population_density":33853.5265,"poi_density":25.2661,"poi_diversity":2.1075,"gdp_density":73404.2168,"P":33853.5265,"I":25.2661,"G":73404.2168},{"stationName":"上海曹杨路(地铁站)","station_id":"上海曹杨路(地铁站)_31.24092_121.41402","lineId":"上海地铁11号线 / 上海地铁14号线 / 上海地铁3号线","lat":31.24092087,"lon":121.414017685,"area_km2":2.4253,"D":0.6148,"C":0.9313,"T":0.4058,"U1":0.5537,"U2":0.258,"couplingDegree":0.6148,"level":"良好协调","road_density":27.2683,"walk_accessibility":0.4863,"metro_line_density":8.1738,"station_count":5,"line_count":4,"population_density":35726.2741,"poi_density":13.6067,"poi_diversity":2.3987,"gdp_density":91040.8512,"P":35726.2741,"I":13.6067,"G":91040.8512},{"stationName":"上海镇坪路(地铁站)","station_id":"上海镇坪路(地铁站)_31.24841_121.42610","lineId":"上海地铁3号线 / 上海地铁7号线","lat":31.248411654999998,"lon":121.42609662999999,"area_km2":2.6791,"D":0.5208,"C":0.9894,"T":0.2742,"U1":0.314,"U2":0.2343,"couplingDegree":0.5208,"level":"勉强协调","road_density":24.3518,"walk_accessibility":0.5371,"metro_line_density":6.2364,"station_count":2,"line_count":3,"population_density":42076.0185,"poi_density":14.9306,"poi_diversity":2.7051,"gdp_density":0.0,"P":42076.0185,"I":14.9306,"G":0.0},{"stationName":"上海中潭路(地铁站)","station_id":"上海中潭路(地铁站)_31.25643_121.43639","lineId":"上海地铁3号线","lat":31.25642627,"lon":121.43638781,"area_km2":2.4935,"D":0.5079,"C":0.9898,"T":0.2606,"U1":0.2235,"U2":0.2977,"couplingDegree":0.5079,"level":"勉强协调","road_density":27.3354,"walk_accessibility":0.4999,"metro_line_density":4.409,"station_count":2,"line_count":2,"population_density":41786.351,"poi_density":16.4426,"poi_diversity":3.0156,"gdp_density":79721.115,"P":41786.351,"I":16.4426,"G":79721.115},{"stationName":"上海宝山路(地铁站)","station_id":"上海宝山路(地铁站)_31.25346_121.47178","lineId":"上海地铁3号线","lat":31.25346217,"lon":121.47178086,"area_km2":2.6428,"D":0.6419,"C":0.9878,"T":0.4171,"U1":0.4822,"U2":0.352,"couplingDegree":0.6419,"level":"良好协调","road_density":21.1024,"walk_accessibility":0.5299,"metro_line_density":4.6083,"station_count":6,"line_count":3,"population_density":40977.7457,"poi_density":11.3515,"poi_diversity":2.561,"gdp_density":232311.6594,"P":40977.7457,"I":11.3515,"G":232311.6594},{"stationName":"上海东宝兴路(地铁站)","station_id":"上海东宝兴路(地铁站)_31.26183_121.47570","lineId":"上海地铁3号线","lat":31.26183279,"lon":121.47569748,"area_km2":3.1459,"D":0.6894,"C":0.9437,"T":0.5036,"U1":0.6702,"U2":0.337,"couplingDegree":0.6894,"level":"良好协调","road_density":20.2161,"walk_accessibility":0.6308,"metro_line_density":5.3534,"station_count":6,"line_count":5,"population_density":33501.1778,"poi_density":19.39,"poi_diversity":2.6472,"gdp_density":195158.5935,"P":33501.1778,"I":19.39,"G":195158.5935},{"stationName":"上海虹口足球场(地铁站)","station_id":"上海虹口足球场(地铁站)_31.27283_121.47470","lineId":"上海地铁3号线 / 上海地铁8号线","lat":31.272831903333337,"lon":121.47470314666667,"area_km2":2.9026,"D":0.5444,"C":0.9974,"T":0.2972,"U1":0.2757,"U2":0.3186,"couplingDegree":0.5444,"level":"勉强协调","road_density":25.0696,"walk_accessibility":0.582,"metro_line_density":6.1434,"station_count":3,"line_count":2,"population_density":46302.2548,"poi_density":13.7805,"poi_diversity":2.5149,"gdp_density":154114.2745,"P":46302.2548,"I":13.7805,"G":154114.2745},{"stationName":"上海赤峰路(地铁站)","station_id":"上海赤峰路(地铁站)_31.28319_121.47793","lineId":"上海地铁3号线","lat":31.28319225,"lon":121.47793119,"area_km2":3.29,"D":0.527,"C":0.9775,"T":0.2841,"U1":0.344,"U2":0.2243,"couplingDegree":0.527,"level":"勉强协调","road_density":32.7444,"walk_accessibility":0.6596,"metro_line_density":4.1796,"station_count":4,"line_count":2,"population_density":32311.5136,"poi_density":2.1277,"poi_diversity":1.7479,"gdp_density":135969.1471,"P":32311.5136,"I":2.1277,"G":135969.1471},{"stationName":"上海大柏树(地铁站)","station_id":"上海大柏树(地铁站)_31.29138_121.47872","lineId":"上海地铁3号线","lat":31.29137698,"lon":121.47871962,"area_km2":2.4501,"D":0.4246,"C":0.9823,"T":0.1835,"U1":0.1491,"U2":0.2179,"couplingDegree":0.4246,"level":"勉强协调","road_density":34.1026,"walk_accessibility":0.4912,"metro_line_density":3.3025,"station_count":2,"line_count":1,"population_density":39500.9172,"poi_density":0.8163,"poi_diversity":0.6931,"gdp_density":197913.1456,"P":39500.9172,"I":0.8163,"G":197913.1456},{"stationName":"上海江湾镇(地铁站)","station_id":"上海江湾镇(地铁站)_31.30873_121.48060","lineId":"上海地铁20号线 / 上海地铁3号线","lat":31.308728435,"lon":121.480602725,"area_km2":1.8997,"D":0.3695,"C":0.7572,"T":0.1803,"U1":0.2981,"U2":0.0625,"couplingDegree":0.3695,"level":"中度失调","road_density":24.3637,"walk_accessibility":0.3809,"metro_line_density":5.3492,"station_count":2,"line_count":3,"population_density":15235.4212,"poi_density":1.0528,"poi_diversity":0.6931,"gdp_density":0.0,"P":15235.4212,"I":1.0528,"G":0.0},{"stationName":"上海殷高西路(地铁站)","station_id":"上海殷高西路(地铁站)_31.32194_121.48036","lineId":"上海地铁3号线","lat":31.32194102,"lon":121.48036209,"area_km2":1.8166,"D":0.0,"C":0.0,"T":0.1046,"U1":0.2091,"U2":0.0,"couplingDegree":0.0,"level":"极度失调","road_density":27.2187,"walk_accessibility":0.3642,"metro_line_density":3.5955,"station_count":2,"line_count":2,"population_density":0.0,"poi_density":0.0,"poi_diversity":0.0,"gdp_density":0.0,"P":0.0,"I":0.0,"G":0.0},{"stationName":"上海长江南路(地铁站)","station_id":"上海长江南路(地铁站)_31.33386_121.48603","lineId":"上海地铁18号线 / 上海地铁3号线","lat":31.33385695,"lon":121.48602720000001,"area_km2":1.454,"D":0.3836,"C":0.9324,"T":0.1578,"U1":0.2149,"U2":0.1008,"couplingDegree":0.3836,"level":"中度失调","road_density":26.6361,"walk_accessibility":0.2915,"metro_line_density":7.3406,"station_count":2,"line_count":2,"population_density":10985.5207,"poi_density":4.8143,"poi_diversity":1.4751,"gdp_density":0.0,"P":10985.5207,"I":4.8143,"G":0.0},{"stationName":"上海淞发路(地铁站)","station_id":"上海淞发路(地铁站)_31.34711_121.49595","lineId":"上海地铁3号线","lat":31.34710814,"lon":121.49595013,"area_km2":2.0762,"D":0.2718,"C":0.9999,"T":0.0739,"U1":0.0731,"U2":0.0746,"couplingDegree":0.2718,"level":"中度失调","road_density":26.8095,"walk_accessibility":0.4163,"metro_line_density":2.74,"station_count":1,"line_count":1,"population_density":9512.5665,"poi_density":0.9633,"poi_diversity":0.6931,"gdp_density":38615.7218,"P":9512.5665,"I":0.9633,"G":38615.7218},{"stationName":"上海张华浜(地铁站)","station_id":"上海张华浜(地铁站)_31.35998_121.49422","lineId":"上海地铁3号线","lat":31.35997956,"lon":121.4942232,"area_km2":1.2524,"D":0.2269,"C":0.946,"T":0.0544,"U1":0.072,"U2":0.0368,"couplingDegree":0.2269,"level":"中度失调","road_density":28.8967,"walk_accessibility":0.2511,"metro_line_density":4.4628,"station_count":1,"line_count":1,"population_density":0.0,"poi_density":0.0,"poi_diversity":0.0,"gdp_density":64016.9486,"P":0.0,"I":0.0,"G":64016.9486},{"stationName":"上海淞滨路(地铁站)","station_id":"上海淞滨路(地铁站)_31.37287_121.48835","lineId":"上海地铁3号线","lat":31.37287018,"lon":121.48834979,"area_km2":1.6219,"D":0.2678,"C":0.9008,"T":0.0796,"U1":0.1142,"U2":0.0451,"couplingDegree":0.2678,"level":"中度失调","road_density":26.9182,"walk_accessibility":0.3252,"metro_line_density":3.3413,"station_count":2,"line_count":1,"population_density":11619.8353,"poi_density":0.6166,"poi_diversity":0.0,"gdp_density":41346.4149,"P":11619.8353,"I":0.6166,"G":41346.4149},{"stationName":"上海水产路(地铁站)","station_id":"上海水产路(地铁站)_31.38323_121.48376","lineId":"上海地铁3号线","lat":31.38322778,"lon":121.48376147,"area_km2":1.0764,"D":0.0,"C":0.0,"T":0.0569,"U1":0.1139,"U2":0.0,"couplingDegree":0.0,"level":"极度失调","road_density":27.4228,"walk_accessibility":0.2158,"metro_line_density":5.3176,"station_count":2,"line_count":1,"population_density":0.0,"poi_density":0.0,"poi_diversity":0.0,"gdp_density":0.0,"P":0.0,"I":0.0,"G":0.0},{"stationName":"上海宝杨路(地铁站)","station_id":"上海宝杨路(地铁站)_31.39721_121.47506","lineId":"上海地铁3号线","lat":31.39721093,"lon":121.47505543,"area_km2":1.3211,"D":0.3335,"C":0.9988,"T":0.1113,"U1":0.1059,"U2":0.1168,"couplingDegree":0.3335,"level":"中度失调","road_density":24.539,"walk_accessibility":0.2649,"metro_line_density":4.3831,"station_count":2,"line_count":1,"population_density":24668.0131,"poi_density":3.0279,"poi_diversity":1.3863,"gdp_density":0.0,"P":24668.0131,"I":3.0279,"G":0.0},{"stationName":"上海友谊路(地铁站)","station_id":"上海友谊路(地铁站)_31.40590_121.47139","lineId":"上海地铁3号线","lat":31.40589946,"lon":121.47139412,"area_km2":1.4863,"D":0.2375,"C":0.8386,"T":0.0673,"U1":0.1039,"U2":0.0306,"couplingDegree":0.2375,"level":"中度失调","road_density":23.7229,"walk_accessibility":0.298,"metro_line_density":3.7479,"station_count":2,"line_count":1,"population_density":16937.9864,"poi_density":0.6728,"poi_diversity":0.0,"gdp_density":0.0,"P":16937.9864,"I":0.6728,"G":0.0},{"stationName":"上海铁力路(地铁站)","station_id":"上海铁力路(地铁站)_31.40996_121.45656","lineId":"上海地铁3号线","lat":31.409964685,"lon":121.456561565,"area_km2":1.6037,"D":0.2271,"C":0.9638,"T":0.0535,"U1":0.0678,"U2":0.0393,"couplingDegree":0.2271,"level":"中度失调","road_density":26.6508,"walk_accessibility":0.3215,"metro_line_density":3.5484,"station_count":1,"line_count":1,"population_density":9934.8501,"poi_density":0.0,"poi_diversity":0.0,"gdp_density":38356.3906,"P":9934.8501,"I":0.0,"G":38356.3906},{"stationName":"上海江杨北路(地铁站)","station_id":"上海江杨北路(地铁站)_31.40966_121.43519","lineId":"上海地铁3号线","lat":31.40965845,"lon":121.43519049,"area_km2":1.5497,"D":0.1857,"C":0.9379,"T":0.0368,"U1":0.0495,"U2":0.024,"couplingDegree":0.1857,"level":"极度失调","road_density":24.9956,"walk_accessibility":0.3107,"metro_line_density":0.0789,"station_count":1,"line_count":1,"population_density":13850.3417,"poi_density":0.0,"poi_diversity":0.0,"gdp_density":0.0,"P":13850.3417,"I":0.0,"G":0.0},{"stationName":"上海海伦路(地铁站)","station_id":"上海海伦路(地铁站)_31.26110_121.48461","lineId":"上海地铁10号线 / 上海地铁19号线 / 上海地铁4号线","lat":31.2611021775,"lon":121.4846140375,"area_km2":3.0604,"D":0.6161,"C":0.9399,"T":0.4038,"U1":0.5417,"U2":0.266,"couplingDegree":0.6161,"level":"良好协调","road_density":23.863,"walk_accessibility":0.6136,"metro_line_density":4.7847,"station_count":5,"line_count":4,"population_density":63185.109,"poi_density":16.3377,"poi_diversity":2.5524,"gdp_density":0.0,"P":63185.109,"I":16.3377,"G":0.0},{"stationName":"上海临平路(地铁站)","station_id":"上海临平路(地铁站)_31.26288_121.49626","lineId":"上海地铁4号线","lat":31.262881505000003,"lon":121.496264755,"area_km2":3.157,"D":0.5761,"C":0.9829,"T":0.3377,"U1":0.3999,"U2":0.2755,"couplingDegree":0.5761,"level":"勉强协调","road_density":22.824,"walk_accessibility":0.633,"metro_line_density":3.5843,"station_count":4,"line_count":3,"population_density":35901.0631,"poi_density":7.919,"poi_diversity":2.2797,"gdp_density":149810.2346,"P":35901.0631,"I":7.919,"G":149810.2346},{"stationName":"上海大连路(地铁站)","station_id":"上海大连路(地铁站)_31.25998_121.50870","lineId":"上海地铁4号线","lat":31.25998412,"lon":121.50870081,"area_km2":2.6899,"D":0.4752,"C":0.9694,"T":0.2329,"U1":0.2901,"U2":0.1757,"couplingDegree":0.4752,"level":"勉强协调","road_density":20.1692,"walk_accessibility":0.5393,"metro_line_density":2.3758,"station_count":4,"line_count":2,"population_density":28962.113,"poi_density":8.9222,"poi_diversity":2.2074,"gdp_density":0.0,"P":28962.113,"I":8.9222,"G":0.0},{"stationName":"上海杨树浦路(地铁站)","station_id":"上海杨树浦路(地铁站)_31.25400_121.51284","lineId":"上海地铁4号线","lat":31.2539951,"lon":121.51283866,"area_km2":2.1994,"D":0.4856,"C":0.9999,"T":0.2358,"U1":0.2332,"U2":0.2384,"couplingDegree":0.4856,"level":"勉强协调","road_density":18.5555,"walk_accessibility":0.441,"metro_line_density":2.9333,"station_count":3,"line_count":2,"population_density":22239.2182,"poi_density":4.5468,"poi_diversity":1.8867,"gdp_density":171214.0626,"P":22239.2182,"I":4.5468,"G":171214.0626},{"stationName":"上海浦东大道(地铁站)","station_id":"上海浦东大道(地铁站)_31.24238_121.51494","lineId":"上海地铁4号线","lat":31.24237941,"lon":121.51493791,"area_km2":3.488,"D":0.5912,"C":0.8205,"T":0.4259,"U1":0.6694,"U2":0.1824,"couplingDegree":0.5912,"level":"勉强协调","road_density":33.3573,"walk_accessibility":0.6993,"metro_line_density":5.4561,"station_count":5,"line_count":5,"population_density":17633.5602,"poi_density":6.0206,"poi_diversity":2.2121,"gdp_density":54888.348,"P":17633.5602,"I":6.0206,"G":54888.348},{"stationName":"上海向城路(地铁站)","station_id":"上海向城路(地铁站)_31.22440_121.52776","lineId":"上海地铁4号线","lat":31.22439979,"lon":121.52776134,"area_km2":3.9467,"D":0.5348,"C":0.8311,"T":0.3441,"U1":0.5355,"U2":0.1527,"couplingDegree":0.5348,"level":"勉强协调","road_density":30.9933,"walk_accessibility":0.7913,"metro_line_density":5.2825,"station_count":6,"line_count":3,"population_density":8159.3907,"poi_density":10.6417,"poi_diversity":2.407,"gdp_density":0.0,"P":8159.3907,"I":10.6417,"G":0.0},{"stationName":"上海蓝村路(地铁站)","station_id":"上海蓝村路(地铁站)_31.21373_121.52343","lineId":"上海地铁4号线 / 上海地铁6号线","lat":31.21372554,"lon":121.523430885,"area_km2":2.5268,"D":0.5595,"C":0.9333,"T":0.3354,"U1":0.4559,"U2":0.2149,"couplingDegree":0.5595,"level":"勉强协调","road_density":27.9217,"walk_accessibility":0.5066,"metro_line_density":4.9673,"station_count":5,"line_count":3,"population_density":13530.7827,"poi_density":11.8726,"poi_diversity":2.4511,"gdp_density":84256.528,"P":13530.7827,"I":11.8726,"G":84256.528},{"stationName":"上海塘桥(地铁站)","station_id":"上海塘桥(地铁站)_31.21208_121.51389","lineId":"上海地铁19号线 / 上海地铁4号线","lat":31.212079146666667,"lon":121.51389470666668,"area_km2":2.552,"D":0.5282,"C":0.9697,"T":0.2877,"U1":0.358,"U2":0.2174,"couplingDegree":0.5282,"level":"勉强协调","road_density":26.1282,"walk_accessibility":0.5117,"metro_line_density":4.7454,"station_count":3,"line_count":3,"population_density":13212.4312,"poi_density":10.58,"poi_diversity":2.5702,"gdp_density":83425.8564,"P":13212.4312,"I":10.58,"G":83425.8564},{"stationName":"上海南浦大桥(地铁站)","station_id":"上海南浦大桥(地铁站)_31.21053_121.49529","lineId":"上海地铁4号线","lat":31.21053316,"lon":121.49529392,"area_km2":2.8972,"D":0.6029,"C":0.9574,"T":0.3796,"U1":0.27,"U2":0.4893,"couplingDegree":0.6029,"level":"良好协调","road_density":27.2131,"walk_accessibility":0.5809,"metro_line_density":2.7974,"station_count":3,"line_count":2,"population_density":22921.9906,"poi_density":4.4871,"poi_diversity":2.3517,"gdp_density":566022.9184,"P":22921.9906,"I":4.4871,"G":566022.9184},{"stationName":"上海西藏南路(地铁站)","station_id":"上海西藏南路(地铁站)_31.20397_121.48509","lineId":"上海地铁4号线","lat":31.20396821,"lon":121.48508793,"area_km2":2.9382,"D":0.5288,"C":0.9364,"T":0.2987,"U1":0.4035,"U2":0.1939,"couplingDegree":0.5288,"level":"勉强协调","road_density":24.8853,"walk_accessibility":0.5891,"metro_line_density":3.8494,"station_count":4,"line_count":3,"population_density":19785.4535,"poi_density":10.5506,"poi_diversity":2.8358,"gdp_density":0.0,"P":19785.4535,"I":10.5506,"G":0.0},{"stationName":"上海鲁班路(地铁站)","station_id":"上海鲁班路(地铁站)_31.20118_121.47063","lineId":"上海地铁4号线","lat":31.20118265,"lon":121.47063185,"area_km2":2.6139,"D":0.6813,"C":0.991,"T":0.4684,"U1":0.4055,"U2":0.5313,"couplingDegree":0.6813,"level":"良好协调","road_density":28.5494,"walk_accessibility":0.5241,"metro_line_density":2.8551,"station_count":4,"line_count":3,"population_density":32690.8826,"poi_density":31.3703,"poi_diversity":2.6343,"gdp_density":497649.1752,"P":32690.8826,"I":31.3703,"G":497649.1752},{"stationName":"上海大木桥路(地铁站)","station_id":"上海大木桥路(地铁站)_31.19599_121.45873","lineId":"上海地铁4号线","lat":31.195989140000002,"lon":121.45872563500001,"area_km2":2.6763,"D":0.5866,"C":0.9908,"T":0.3473,"U1":0.3943,"U2":0.3004,"couplingDegree":0.5866,"level":"勉强协调","road_density":24.297,"walk_accessibility":0.5366,"metro_line_density":2.9709,"station_count":4,"line_count":3,"population_density":26851.9258,"poi_density":19.4298,"poi_diversity":2.6783,"gdp_density":148663.4318,"P":26851.9258,"I":19.4298,"G":148663.4318},{"stationName":"上海东安路(地铁站)","station_id":"上海东安路(地铁站)_31.19273_121.45032","lineId":"上海地铁4号线","lat":31.1927333,"lon":121.4503209,"area_km2":2.1722,"D":0.6609,"C":0.9842,"T":0.4439,"U1":0.5225,"U2":0.3652,"couplingDegree":0.6609,"level":"良好协调","road_density":22.0654,"walk_accessibility":0.4355,"metro_line_density":4.9708,"station_count":5,"line_count":4,"population_density":36560.601,"poi_density":34.5272,"poi_diversity":2.6754,"gdp_density":183163.9293,"P":36560.601,"I":34.5272,"G":183163.9293},{"stationName":"上海上海体育场(地铁站)","station_id":"上海上海体育场(地铁站)_31.18750_121.43892","lineId":"上海地铁23号线 / 上海地铁4号线","lat":31.187497855,"lon":121.43892246499999,"area_km2":2.3774,"D":0.7016,"C":0.9111,"T":0.5403,"U1":0.763,"U2":0.3176,"couplingDegree":0.7016,"level":"良好协调","road_density":24.3677,"walk_accessibility":0.4767,"metro_line_density":6.1917,"station_count":6,"line_count":6,"population_density":34637.2172,"poi_density":63.0953,"poi_diversity":2.8254,"gdp_density":0.0,"P":34637.2172,"I":63.0953,"G":0.0},{"stationName":"上海闵行开发区(地铁站)","station_id":"上海闵行开发区(地铁站)_31.00261_121.36511","lineId":"上海地铁5号线","lat":31.00260857,"lon":121.36510635,"area_km2":1.6655,"D":0.2011,"C":0.8374,"T":0.0483,"U1":0.0747,"U2":0.0219,"couplingDegree":0.2011,"level":"中度失调","road_density":16.4577,"walk_accessibility":0.3339,"metro_line_density":0.8352,"station_count":2,"line_count":1,"population_density":12626.8292,"poi_density":0.0,"poi_diversity":0.0,"gdp_density":0.0,"P":12626.8292,"I":0.0,"G":0.0},{"stationName":"上海文井路(地铁站)","station_id":"上海文井路(地铁站)_31.00556_121.37615","lineId":"上海地铁5号线","lat":31.00556401,"lon":121.3761541,"area_km2":1.5058,"D":0.2072,"C":0.8858,"T":0.0485,"U1":0.0709,"U2":0.026,"couplingDegree":0.2072,"level":"中度失调","road_density":15.1949,"walk_accessibility":0.3019,"metro_line_density":1.5823,"station_count":2,"line_count":1,"population_density":14985.3324,"poi_density":0.0,"poi_diversity":0.0,"gdp_density":0.0,"P":14985.3324,"I":0.0,"G":0.0},{"stationName":"上海华宁路(地铁站)","station_id":"上海华宁路(地铁站)_31.00942_121.39062","lineId":"上海地铁5号线","lat":31.00942305,"lon":121.39062465,"area_km2":0.9148,"D":0.2223,"C":0.8562,"T":0.0577,"U1":0.0279,"U2":0.0875,"couplingDegree":0.2223,"level":"中度失调","road_density":17.586,"walk_accessibility":0.1834,"metro_line_density":3.129,"station_count":1,"line_count":1,"population_density":19156.797,"poi_density":0.0,"poi_diversity":0.0,"gdp_density":94513.7884,"P":19156.797,"I":0.0,"G":94513.7884},{"stationName":"上海金平路(地铁站)","station_id":"上海金平路(地铁站)_31.01324_121.40555","lineId":"上海地铁5号线","lat":31.01323606,"lon":121.40555436,"area_km2":1.9659,"D":0.4057,"C":0.9827,"T":0.1675,"U1":0.1985,"U2":0.1365,"couplingDegree":0.4057,"level":"勉强协调","road_density":25.3315,"walk_accessibility":0.3941,"metro_line_density":1.5281,"station_count":2,"line_count":2,"population_density":11816.7326,"poi_density":5.0868,"poi_diversity":1.6434,"gdp_density":44401.0039,"P":11816.7326,"I":5.0868,"G":44401.0039},{"stationName":"上海东川路(地铁站)","station_id":"上海东川路(地铁站)_31.02015_121.41526","lineId":"上海地铁23号线 / 上海地铁5号线","lat":31.020148675,"lon":121.415260665,"area_km2":1.3099,"D":0.4544,"C":0.9721,"T":0.2124,"U1":0.2622,"U2":0.1626,"couplingDegree":0.4544,"level":"勉强协调","road_density":29.0959,"walk_accessibility":0.2626,"metro_line_density":6.2899,"station_count":3,"line_count":2,"population_density":22389.7417,"poi_density":4.5804,"poi_diversity":1.5607,"gdp_density":66634.0822,"P":22389.7417,"I":4.5804,"G":66634.0822},{"stationName":"上海剑川路(地铁站)","station_id":"上海剑川路(地铁站)_31.02843_121.41195","lineId":"上海地铁5号线","lat":31.0284323,"lon":121.41195429,"area_km2":1.5551,"D":0.2495,"C":0.5992,"T":0.1039,"U1":0.187,"U2":0.0207,"couplingDegree":0.2495,"level":"中度失调","road_density":20.9175,"walk_accessibility":0.3118,"metro_line_density":3.8904,"station_count":2,"line_count":2,"population_density":11254.0928,"poi_density":0.6431,"poi_diversity":0.0,"gdp_density":0.0,"P":11254.0928,"I":0.6431,"G":0.0},{"stationName":"上海北桥(地铁站)","station_id":"上海北桥(地铁站)_31.04705_121.40542","lineId":"上海地铁5号线","lat":31.04704591,"lon":121.40542082,"area_km2":1.0863,"D":0.2088,"C":0.999,"T":0.0436,"U1":0.0455,"U2":0.0417,"couplingDegree":0.2088,"level":"中度失调","road_density":21.1749,"walk_accessibility":0.2178,"metro_line_density":4.2705,"station_count":1,"line_count":1,"population_density":2369.569,"poi_density":1.8412,"poi_diversity":0.6931,"gdp_density":0.0,"P":2369.569,"I":1.8412,"G":0.0},{"stationName":"上海颛桥(地铁站)","station_id":"上海颛桥(地铁站)_31.06893_121.39723","lineId":"上海地铁5号线","lat":31.06893414,"lon":121.39723048,"area_km2":1.6246,"D":0.2546,"C":0.8653,"T":0.0749,"U1":0.0374,"U2":0.1125,"couplingDegree":0.2546,"level":"中度失调","road_density":17.1506,"walk_accessibility":0.3257,"metro_line_density":2.8903,"station_count":1,"line_count":1,"population_density":6224.2784,"poi_density":3.0777,"poi_diversity":1.3322,"gdp_density":52634.9163,"P":6224.2784,"I":3.0777,"G":52634.9163},{"stationName":"上海银都路(地铁站)","station_id":"上海银都路(地铁站)_31.09125_121.38563","lineId":"上海地铁5号线 / 上海地铁嘉闵线","lat":31.09124586,"lon":121.38562715,"area_km2":1.2933,"D":0.3787,"C":0.9782,"T":0.1466,"U1":0.177,"U2":0.1162,"couplingDegree":0.3787,"level":"中度失调","road_density":18.8424,"walk_accessibility":0.2593,"metro_line_density":4.0251,"station_count":2,"line_count":2,"population_density":17625.4133,"poi_density":4.6393,"poi_diversity":1.5607,"gdp_density":0.0,"P":17625.4133,"I":4.6393,"G":0.0},{"stationName":"上海春申路(地铁站)","station_id":"上海春申路(地铁站)_31.10016_121.38118","lineId":"上海地铁5号线","lat":31.10015955,"lon":121.381184825,"area_km2":1.4201,"D":0.3715,"C":0.9672,"T":0.1427,"U1":0.179,"U2":0.1064,"couplingDegree":0.3715,"level":"中度失调","road_density":16.7411,"walk_accessibility":0.2847,"metro_line_density":5.7396,"station_count":2,"line_count":2,"population_density":6025.6866,"poi_density":5.6335,"poi_diversity":1.7329,"gdp_density":0.0,"P":6025.6866,"I":5.6335,"G":0.0},{"stationName":"上海江川路(地铁站)","station_id":"上海江川路(地铁站)_31.00739_121.41885","lineId":"上海地铁5号线","lat":31.00739453,"lon":121.41885497,"area_km2":1.5696,"D":0.2774,"C":0.8632,"T":0.0892,"U1":0.0441,"U2":0.1342,"couplingDegree":0.2774,"level":"中度失调","road_density":20.3012,"walk_accessibility":0.3147,"metro_line_density":2.4048,"station_count":1,"line_count":1,"population_density":8250.9033,"poi_density":12.7417,"poi_diversity":1.9468,"gdp_density":0.0,"P":8250.9033,"I":12.7417,"G":0.0},{"stationName":"上海西渡(地铁站)","station_id":"上海西渡(地铁站)_30.99134_121.42783","lineId":"上海地铁5号线","lat":30.991337,"lon":121.42783429,"area_km2":1.3446,"D":0.1384,"C":0.865,"T":0.0221,"U1":0.0332,"U2":0.011,"couplingDegree":0.1384,"level":"极度失调","road_density":18.2224,"walk_accessibility":0.2696,"metro_line_density":2.1234,"station_count":1,"line_count":1,"population_density":6361.1435,"poi_density":0.0,"poi_diversity":0.0,"gdp_density":0.0,"P":6361.1435,"I":0.0,"G":0.0},{"stationName":"上海萧塘(地铁站)","station_id":"上海萧塘(地铁站)_30.96790_121.43727","lineId":"上海地铁5号线","lat":30.96790283,"lon":121.43726984,"area_km2":1.4716,"D":0.146,"C":0.8704,"T":0.0245,"U1":0.0366,"U2":0.0124,"couplingDegree":0.146,"level":"极度失调","road_density":18.8616,"walk_accessibility":0.295,"metro_line_density":1.9383,"station_count":1,"line_count":1,"population_density":3220.3766,"poi_density":0.0,"poi_diversity":0.0,"gdp_density":11933.5372,"P":3220.3766,"I":0.0,"G":11933.5372},{"stationName":"上海奉浦大道(地铁站)","station_id":"上海奉浦大道(地铁站)_30.94410_121.44441","lineId":"上海地铁5号线","lat":30.94409721,"lon":121.44441493,"area_km2":1.1087,"D":0.0,"C":0.0,"T":0.0122,"U1":0.0243,"U2":0.0,"couplingDegree":0.0,"level":"极度失调","road_density":16.1657,"walk_accessibility":0.2223,"metro_line_density":2.4305,"station_count":1,"line_count":1,"population_density":0.0,"poi_density":0.0,"poi_diversity":0.0,"gdp_density":0.0,"P":0.0,"I":0.0,"G":0.0},{"stationName":"上海环城东路(地铁站)","station_id":"上海环城东路(地铁站)_30.93325_121.45867","lineId":"上海地铁5号线","lat":30.93324829,"lon":121.45867408,"area_km2":1.1811,"D":0.2161,"C":0.942,"T":0.0496,"U1":0.0329,"U2":0.0662,"couplingDegree":0.2161,"level":"中度失调","road_density":14.2141,"walk_accessibility":0.2368,"metro_line_density":6.1351,"station_count":1,"line_count":1,"population_density":6022.152,"poi_density":1.6933,"poi_diversity":0.6931,"gdp_density":32129.1503,"P":6022.152,"I":1.6933,"G":32129.1503},{"stationName":"上海望园路(地铁站)","station_id":"上海望园路(地铁站)_30.93444_121.47839","lineId":"上海上海南枫线(枫泾站--滴水湖北) / 上海地铁15号线 / 上海地铁5号线","lat":30.93443741666667,"lon":121.47838775999999,"area_km2":1.9953,"D":0.1752,"C":0.2082,"T":0.1474,"U1":0.2915,"U2":0.0032,"couplingDegree":0.1752,"level":"极度失调","road_density":20.6521,"walk_accessibility":0.4001,"metro_line_density":6.1711,"station_count":2,"line_count":3,"population_density":1320.5829,"poi_density":0.5012,"poi_diversity":0.0,"gdp_density":0.0,"P":1320.5829,"I":0.5012,"G":0.0},{"stationName":"上海金海湖(地铁站)","station_id":"上海金海湖(地铁站)_30.93097_121.48807","lineId":"上海地铁5号线","lat":30.93096841,"lon":121.48807425,"area_km2":1.683,"D":0.1788,"C":0.2271,"T":0.1408,"U1":0.278,"U2":0.0037,"couplingDegree":0.1788,"level":"极度失调","road_density":22.3848,"walk_accessibility":0.3374,"metro_line_density":2.3836,"station_count":2,"line_count":3,"population_density":1480.1096,"poi_density":0.5942,"poi_diversity":0.0,"gdp_density":0.0,"P":1480.1096,"I":0.5942,"G":0.0},{"stationName":"上海奉贤新城(地铁站)","station_id":"上海奉贤新城(地铁站)_30.91610_121.49187","lineId":"上海地铁5号线","lat":30.91609875,"lon":121.49187161,"area_km2":1.7155,"D":0.1557,"C":0.9211,"T":0.0263,"U1":0.0366,"U2":0.0161,"couplingDegree":0.1557,"level":"极度失调","road_density":18.8465,"walk_accessibility":0.3439,"metro_line_density":0.8355,"station_count":1,"line_count":1,"population_density":4369.6465,"poi_density":0.0,"poi_diversity":0.0,"gdp_density":14778.4521,"P":4369.6465,"I":0.0,"G":14778.4521},{"stationName":"上海东方体育中心(地铁站)","station_id":"上海东方体育中心(地铁站)_31.15658_121.47608","lineId":"上海地铁19号线 / 上海地铁6号线 / 上海地铁8号线","lat":31.156584353333333,"lon":121.47607742333332,"area_km2":2.1706,"D":0.3807,"C":0.843,"T":0.1719,"U1":0.2644,"U2":0.0794,"couplingDegree":0.3807,"level":"中度失调","road_density":24.7943,"walk_accessibility":0.4352,"metro_line_density":7.1867,"station_count":1,"line_count":3,"population_density":10611.7757,"poi_density":0.0,"poi_diversity":0.0,"gdp_density":106232.0104,"P":10611.7757,"I":0.0,"G":106232.0104},{"stationName":"上海灵岩南路(地铁站)","station_id":"上海灵岩南路(地铁站)_31.15071_121.49085","lineId":"上海地铁6号线","lat":31.15071059,"lon":121.49085397,"area_km2":2.3506,"D":0.4891,"C":0.9225,"T":0.2594,"U1":0.3595,"U2":0.1592,"couplingDegree":0.4891,"level":"勉强协调","road_density":28.3257,"walk_accessibility":0.4713,"metro_line_density":4.2466,"station_count":3,"line_count":3,"population_density":12751.8545,"poi_density":4.2542,"poi_diversity":1.6094,"gdp_density":86737.7102,"P":12751.8545,"I":4.2542,"G":86737.7102},{"stationName":"上海上南路(地铁站)","station_id":"上海上南路(地铁站)_31.15090_121.50205","lineId":"上海地铁6号线","lat":31.15089773,"lon":121.50204605,"area_km2":1.9552,"D":0.364,"C":0.7208,"T":0.1839,"U1":0.3113,"U2":0.0564,"couplingDegree":0.364,"level":"中度失调","road_density":27.9791,"walk_accessibility":0.392,"metro_line_density":5.124,"station_count":4,"line_count":2,"population_density":11729.3036,"poi_density":1.0229,"poi_diversity":0.6931,"gdp_density":0.0,"P":11729.3036,"I":1.0229,"G":0.0},{"stationName":"上海华夏西路(地铁站)","station_id":"上海华夏西路(地铁站)_31.15198_121.51017","lineId":"上海地铁6号线","lat":31.15198098,"lon":121.51016731,"area_km2":1.5525,"D":0.4218,"C":0.8288,"T":0.2146,"U1":0.3348,"U2":0.0945,"couplingDegree":0.4218,"level":"勉强协调","road_density":24.4967,"walk_accessibility":0.3113,"metro_line_density":3.5681,"station_count":5,"line_count":2,"population_density":11516.1277,"poi_density":0.0,"poi_diversity":0.0,"gdp_density":129789.1227,"P":11516.1277,"I":0.0,"G":129789.1227},{"stationName":"上海高青路(地铁站)","station_id":"上海高青路(地铁站)_31.16201_121.51142","lineId":"上海地铁6号线","lat":31.16200657,"lon":121.51141843,"area_km2":1.5325,"D":0.2155,"C":0.8107,"T":0.0573,"U1":0.0908,"U2":0.0238,"couplingDegree":0.2155,"level":"中度失调","road_density":20.0671,"walk_accessibility":0.3073,"metro_line_density":2.9453,"station_count":2,"line_count":1,"population_density":12292.7176,"poi_density":1.305,"poi_diversity":0.0,"gdp_density":0.0,"P":12292.7176,"I":1.305,"G":0.0},{"stationName":"上海东明路(地铁站)","station_id":"上海东明路(地铁站)_31.17480_121.50693","lineId":"上海地铁13号线 / 上海地铁6号线","lat":31.17479533,"lon":121.50693477666668,"area_km2":1.8727,"D":0.3569,"C":0.9974,"T":0.1277,"U1":0.1369,"U2":0.1186,"couplingDegree":0.3569,"level":"中度失调","road_density":17.1011,"walk_accessibility":0.3755,"metro_line_density":4.4794,"station_count":1,"line_count":2,"population_density":9591.4584,"poi_density":4.2719,"poi_diversity":1.9062,"gdp_density":0.0,"P":9591.4584,"I":4.2719,"G":0.0},{"stationName":"上海高科西路(地铁站)","station_id":"上海高科西路(地铁站)_31.18783_121.50545","lineId":"上海地铁6号线","lat":31.18783031,"lon":121.50545234,"area_km2":2.3571,"D":0.4391,"C":0.9613,"T":0.2006,"U1":0.2559,"U2":0.1453,"couplingDegree":0.4391,"level":"勉强协调","road_density":21.5364,"walk_accessibility":0.4726,"metro_line_density":6.0542,"station_count":3,"line_count":2,"population_density":11624.2374,"poi_density":8.0609,"poi_diversity":2.2327,"gdp_density":0.0,"P":11624.2374,"I":8.0609,"G":0.0},{"stationName":"上海临沂新村(地铁站)","station_id":"上海临沂新村(地铁站)_31.19529_121.51233","lineId":"上海地铁6号线","lat":31.19528786,"lon":121.51232588,"area_km2":1.8068,"D":0.4524,"C":0.9808,"T":0.2087,"U1":0.2493,"U2":0.168,"couplingDegree":0.4524,"level":"勉强协调","road_density":23.0859,"walk_accessibility":0.3623,"metro_line_density":5.4494,"station_count":3,"line_count":2,"population_density":5655.7232,"poi_density":6.6414,"poi_diversity":1.6988,"gdp_density":107964.0428,"P":5655.7232,"I":6.6414,"G":107964.0428},{"stationName":"上海上海儿童医学中心(地铁站)","station_id":"上海上海儿童医学中心(地铁站)_31.20538_121.51914","lineId":"上海地铁6号线","lat":31.20537817,"lon":121.51913574,"area_km2":1.9186,"D":0.4901,"C":0.9233,"T":0.2602,"U1":0.3602,"U2":0.1602,"couplingDegree":0.4901,"level":"勉强协调","road_density":29.7189,"walk_accessibility":0.3847,"metro_line_density":5.2543,"station_count":3,"line_count":3,"population_density":14072.4053,"poi_density":9.3816,"poi_diversity":2.3992,"gdp_density":0.0,"P":14072.4053,"I":9.3816,"G":0.0},{"stationName":"上海浦电路(地铁站)","station_id":"上海浦电路(地铁站)_31.22226_121.52502","lineId":"上海地铁6号线","lat":31.22226205,"lon":121.52502408,"area_km2":3.5274,"D":0.5131,"C":0.8834,"T":0.298,"U1":0.4377,"U2":0.1584,"couplingDegree":0.5131,"level":"勉强协调","road_density":30.6509,"walk_accessibility":0.7072,"metro_line_density":5.8811,"station_count":4,"line_count":3,"population_density":9129.5012,"poi_density":12.7574,"poi_diversity":2.4066,"gdp_density":0.0,"P":9129.5012,"I":12.7574,"G":0.0},{"stationName":"上海源深体育中心(地铁站)","station_id":"上海源深体育中心(地铁站)_31.23512_121.53033","lineId":"上海地铁6号线","lat":31.2351201,"lon":121.53033035,"area_km2":3.228,"D":0.5451,"C":0.756,"T":0.393,"U1":0.6503,"U2":0.1357,"couplingDegree":0.5451,"level":"勉强协调","road_density":28.6685,"walk_accessibility":0.6472,"metro_line_density":5.2135,"station_count":5,"line_count":5,"population_density":7792.6997,"poi_density":4.337,"poi_diversity":1.6308,"gdp_density":58693.5421,"P":7792.6997,"I":4.337,"G":58693.5421},{"stationName":"上海民生路(地铁站)","station_id":"上海民生路(地铁站)_31.23738_121.53996","lineId":"上海地铁18号线 / 上海地铁6号线","lat":31.237378485,"lon":121.53996086999999,"area_km2":2.6983,"D":0.5361,"C":0.8237,"T":0.3489,"U1":0.5468,"U2":0.1511,"couplingDegree":0.5361,"level":"勉强协调","road_density":27.0982,"walk_accessibility":0.541,"metro_line_density":5.1599,"station_count":5,"line_count":4,"population_density":6546.6078,"poi_density":3.3354,"poi_diversity":1.8892,"gdp_density":70214.916,"P":6546.6078,"I":3.3354,"G":70214.916},{"stationName":"上海北洋泾路(地铁站)","station_id":"上海北洋泾路(地铁站)_31.24130_121.54805","lineId":"上海地铁6号线","lat":31.24129757,"lon":121.54804977,"area_km2":2.5411,"D":0.5037,"C":0.9523,"T":0.2664,"U1":0.3478,"U2":0.1851,"couplingDegree":0.5037,"level":"勉强协调","road_density":24.0314,"walk_accessibility":0.5095,"metro_line_density":3.6914,"station_count":3,"line_count":3,"population_density":13963.8039,"poi_density":3.9354,"poi_diversity":2.164,"gdp_density":81553.8408,"P":13963.8039,"I":3.9354,"G":81553.8408},{"stationName":"上海德平路(地铁站)","station_id":"上海德平路(地铁站)_31.24757_121.56000","lineId":"上海地铁6号线","lat":31.24757182,"lon":121.55999933,"area_km2":2.0621,"D":0.3731,"C":0.9228,"T":0.1509,"U1":0.209,"U2":0.0928,"couplingDegree":0.3731,"level":"中度失调","road_density":25.1248,"walk_accessibility":0.4134,"metro_line_density":4.1938,"station_count":2,"line_count":2,"population_density":20697.3263,"poi_density":1.4548,"poi_diversity":1.0986,"gdp_density":0.0,"P":20697.3263,"I":1.4548,"G":0.0},{"stationName":"上海云山路(地铁站)","station_id":"上海云山路(地铁站)_31.25287_121.56774","lineId":"上海地铁14号线 / 上海地铁6号线","lat":31.25286957,"lon":121.56773864499999,"area_km2":2.2351,"D":0.5023,"C":0.9012,"T":0.28,"U1":0.4013,"U2":0.1586,"couplingDegree":0.5023,"level":"勉强协调","road_density":26.627,"walk_accessibility":0.4481,"metro_line_density":4.9999,"station_count":4,"line_count":3,"population_density":10759.4197,"poi_density":3.1319,"poi_diversity":1.7479,"gdp_density":83461.563,"P":10759.4197,"I":3.1319,"G":83461.563},{"stationName":"上海金桥路(地铁站)","station_id":"上海金桥路(地铁站)_31.25927_121.57760","lineId":"上海地铁6号线","lat":31.25926813,"lon":121.57760381,"area_km2":2.3315,"D":0.4619,"C":0.972,"T":0.2195,"U1":0.2711,"U2":0.1679,"couplingDegree":0.4619,"level":"勉强协调","road_density":30.9567,"walk_accessibility":0.4675,"metro_line_density":2.5563,"station_count":3,"line_count":2,"population_density":17693.6719,"poi_density":4.7181,"poi_diversity":1.6726,"gdp_density":80010.9799,"P":17693.6719,"I":4.7181,"G":80010.9799},{"stationName":"上海博兴路(地铁站)","station_id":"上海博兴路(地铁站)_31.26571_121.58248","lineId":"上海地铁6号线","lat":31.26570519,"lon":121.582479955,"area_km2":2.5521,"D":0.3826,"C":0.9916,"T":0.1476,"U1":0.1667,"U2":0.1285,"couplingDegree":0.3826,"level":"中度失调","road_density":25.2733,"walk_accessibility":0.5117,"metro_line_density":2.2492,"station_count":3,"line_count":1,"population_density":11161.7978,"poi_density":5.8775,"poi_diversity":1.9913,"gdp_density":0.0,"P":11161.7978,"I":5.8775,"G":0.0},{"stationName":"上海五莲路(地铁站)","station_id":"上海五莲路(地铁站)_31.27421_121.58366","lineId":"上海地铁6号线","lat":31.27420761,"lon":121.58365608,"area_km2":2.5665,"D":0.4165,"C":0.9999,"T":0.1735,"U1":0.1709,"U2":0.1761,"couplingDegree":0.4165,"level":"勉强协调","road_density":26.6698,"walk_accessibility":0.5146,"metro_line_density":2.1888,"station_count":3,"line_count":1,"population_density":10995.4628,"poi_density":5.8445,"poi_diversity":2.0838,"gdp_density":75540.2322,"P":10995.4628,"I":5.8445,"G":75540.2322},{"stationName":"上海巨峰路(地铁站)","station_id":"上海巨峰路(地铁站)_31.28286_121.58416","lineId":"上海地铁6号线","lat":31.28286335,"lon":121.58415516,"area_km2":2.0424,"D":0.3751,"C":0.9523,"T":0.1477,"U1":0.1928,"U2":0.1026,"couplingDegree":0.3751,"level":"中度失调","road_density":36.0094,"walk_accessibility":0.4095,"metro_line_density":2.8967,"station_count":3,"line_count":1,"population_density":5698.7724,"poi_density":4.8963,"poi_diversity":1.6957,"gdp_density":0.0,"P":5698.7724,"I":4.8963,"G":0.0},{"stationName":"上海东靖路(地铁站)","station_id":"上海东靖路(地铁站)_31.29286_121.58453","lineId":"上海地铁6号线","lat":31.29285883,"lon":121.5845257,"area_km2":1.8289,"D":0.34,"C":0.9865,"T":0.1171,"U1":0.1363,"U2":0.098,"couplingDegree":0.34,"level":"中度失调","road_density":33.3699,"walk_accessibility":0.3667,"metro_line_density":3.1721,"station_count":2,"line_count":1,"population_density":1860.6889,"poi_density":4.921,"poi_diversity":1.7351,"gdp_density":0.0,"P":1860.6889,"I":4.921,"G":0.0},{"stationName":"上海五洲大道(地铁站)","station_id":"上海五洲大道(地铁站)_31.30474_121.58500","lineId":"上海地铁6号线","lat":31.30473941,"lon":121.58500145,"area_km2":1.5003,"D":0.1463,"C":0.3737,"T":0.0573,"U1":0.1105,"U2":0.0042,"couplingDegree":0.1463,"level":"极度失调","road_density":25.7264,"walk_accessibility":0.3008,"metro_line_density":3.8411,"station_count":2,"line_count":1,"population_density":1674.2972,"poi_density":0.6665,"poi_diversity":0.0,"gdp_density":0.0,"P":1674.2972,"I":0.6665,"G":0.0},{"stationName":"上海洲海路(地铁站)","station_id":"上海洲海路(地铁站)_31.31440_121.58518","lineId":"上海地铁6号线","lat":31.314395570000002,"lon":121.585184605,"area_km2":1.6024,"D":0.1576,"C":0.4536,"T":0.0548,"U1":0.1036,"U2":0.006,"couplingDegree":0.1576,"level":"极度失调","road_density":20.5525,"walk_accessibility":0.3213,"metro_line_density":5.7799,"station_count":2,"line_count":1,"population_density":3438.058,"poi_density":0.0,"poi_diversity":0.0,"gdp_density":0.0,"P":3438.058,"I":0.0,"G":0.0},{"stationName":"上海外高桥保税区南(地铁站)","station_id":"上海外高桥保税区南(地铁站)_31.32374_121.59775","lineId":"上海地铁6号线","lat":31.32374186,"lon":121.59775472,"area_km2":1.5304,"D":0.1431,"C":0.6253,"T":0.0328,"U1":0.0583,"U2":0.0072,"couplingDegree":0.1431,"level":"极度失调","road_density":22.3189,"walk_accessibility":0.3068,"metro_line_density":4.8554,"station_count":1,"line_count":1,"population_density":3443.5214,"poi_density":0.6534,"poi_diversity":0.0,"gdp_density":0.0,"P":3443.5214,"I":0.6534,"G":0.0},{"stationName":"上海航津路(地铁站)","station_id":"上海航津路(地铁站)_31.33753_121.58976","lineId":"上海地铁6号线","lat":31.33752986,"lon":121.58976359,"area_km2":1.8542,"D":0.2674,"C":0.8582,"T":0.0833,"U1":0.0405,"U2":0.1261,"couplingDegree":0.2674,"level":"中度失调","road_density":16.9689,"walk_accessibility":0.3718,"metro_line_density":2.8817,"station_count":1,"line_count":1,"population_density":14417.7205,"poi_density":3.7751,"poi_diversity":0.7963,"gdp_density":95348.1924,"P":14417.7205,"I":3.7751,"G":95348.1924},{"stationName":"上海外高桥保税区北(地铁站)","station_id":"上海外高桥保税区北(地铁站)_31.34996_121.58271","lineId":"上海地铁6号线","lat":31.34995506,"lon":121.582710265,"area_km2":2.1018,"D":0.3499,"C":0.9232,"T":0.1326,"U1":0.1836,"U2":0.0816,"couplingDegree":0.3499,"level":"中度失调","road_density":18.7316,"walk_accessibility":0.4214,"metro_line_density":2.2528,"station_count":2,"line_count":2,"population_density":8674.799,"poi_density":2.8546,"poi_diversity":1.2425,"gdp_density":0.0,"P":8674.799,"I":2.8546,"G":0.0},{"stationName":"上海港城路(地铁站)","station_id":"上海港城路(地铁站)_31.35530_121.57079","lineId":"上海地铁10号线 / 上海地铁6号线","lat":31.355295995,"lon":121.5707851,"area_km2":1.9885,"D":0.3181,"C":0.8403,"T":0.1205,"U1":0.1858,"U2":0.0552,"couplingDegree":0.3181,"level":"中度失调","road_density":19.4051,"walk_accessibility":0.3987,"metro_line_density":2.8116,"station_count":2,"line_count":2,"population_density":13148.0694,"poi_density":1.0058,"poi_diversity":0.0,"gdp_density":53038.8443,"P":13148.0694,"I":1.0058,"G":53038.8443},{"stationName":"上海花木路(地铁站)","station_id":"上海花木路(地铁站)_31.21340_121.55852","lineId":"上海地铁7号线","lat":31.21339679,"lon":121.55851518,"area_km2":1.8708,"D":0.5778,"C":0.9632,"T":0.3466,"U1":0.4398,"U2":0.2535,"couplingDegree":0.5778,"level":"勉强协调","road_density":29.261,"walk_accessibility":0.3751,"metro_line_density":2.975,"station_count":3,"line_count":4,"population_density":3141.921,"poi_density":18.7083,"poi_diversity":2.969,"gdp_density":116005.7326,"P":3141.921,"I":18.7083,"G":116005.7326},{"stationName":"上海芳华路(地铁站)","station_id":"上海芳华路(地铁站)_31.19528_121.54585","lineId":"上海地铁7号线","lat":31.1952816,"lon":121.54584928,"area_km2":2.279,"D":0.5245,"C":0.8637,"T":0.3185,"U1":0.4791,"U2":0.158,"couplingDegree":0.5245,"level":"勉强协调","road_density":24.3698,"walk_accessibility":0.4569,"metro_line_density":3.3057,"station_count":4,"line_count":4,"population_density":7806.4664,"poi_density":3.9491,"poi_diversity":1.831,"gdp_density":81506.0735,"P":7806.4664,"I":3.9491,"G":81506.0735},{"stationName":"上海锦绣路(地铁站)","station_id":"上海锦绣路(地铁站)_31.18974_121.53575","lineId":"上海地铁7号线","lat":31.1897437,"lon":121.53574792,"area_km2":2.4042,"D":0.4329,"C":0.9585,"T":0.1955,"U1":0.2512,"U2":0.1398,"couplingDegree":0.4329,"level":"勉强协调","road_density":23.9416,"walk_accessibility":0.482,"metro_line_density":2.5412,"station_count":3,"line_count":2,"population_density":5102.6998,"poi_density":2.0797,"poi_diversity":1.6094,"gdp_density":83032.8373,"P":5102.6998,"I":2.0797,"G":83032.8373},{"stationName":"上海杨高南路(地铁站)","station_id":"上海杨高南路(地铁站)_31.18972_121.52020","lineId":"上海地铁7号线","lat":31.18972497,"lon":121.52019868,"area_km2":1.8952,"D":0.3872,"C":0.969,"T":0.1547,"U1":0.1929,"U2":0.1165,"couplingDegree":0.3872,"level":"中度失调","road_density":22.3395,"walk_accessibility":0.38,"metro_line_density":2.7912,"station_count":2,"line_count":2,"population_density":7260.9332,"poi_density":8.4423,"poi_diversity":1.7868,"gdp_density":0.0,"P":7260.9332,"I":8.4423,"G":0.0},{"stationName":"上海云台路(地铁站)","station_id":"上海云台路(地铁站)_31.18426_121.49601","lineId":"上海地铁7号线","lat":31.18425516,"lon":121.49601432,"area_km2":2.4971,"D":0.5048,"C":0.9131,"T":0.2791,"U1":0.3928,"U2":0.1653,"couplingDegree":0.5048,"level":"勉强协调","road_density":21.1259,"walk_accessibility":0.5007,"metro_line_density":6.0357,"station_count":4,"line_count":3,"population_density":11166.9521,"poi_density":19.2223,"poi_diversity":2.2289,"gdp_density":0.0,"P":11166.9521,"I":19.2223,"G":0.0},{"stationName":"上海耀华路(地铁站)","station_id":"上海耀华路(地铁站)_31.18054_121.49016","lineId":"上海地铁7号线","lat":31.18053985,"lon":121.49015965,"area_km2":2.3653,"D":0.5862,"C":0.8816,"T":0.3898,"U1":0.5739,"U2":0.2058,"couplingDegree":0.5862,"level":"勉强协调","road_density":20.1862,"walk_accessibility":0.4742,"metro_line_density":7.1442,"station_count":6,"line_count":4,"population_density":8573.4956,"poi_density":20.7161,"poi_diversity":2.1301,"gdp_density":82014.9409,"P":8573.4956,"I":20.7161,"G":82014.9409},{"stationName":"上海长清路(地铁站)","station_id":"上海长清路(地铁站)_31.17642_121.48245","lineId":"上海地铁13号线 / 上海地铁7号线","lat":31.176417263333335,"lon":121.48244611333332,"area_km2":2.0638,"D":0.576,"C":0.8931,"T":0.3714,"U1":0.5385,"U2":0.2044,"couplingDegree":0.576,"level":"勉强协调","road_density":25.844,"walk_accessibility":0.4138,"metro_line_density":6.7768,"station_count":5,"line_count":4,"population_density":11346.5712,"poi_density":6.7836,"poi_diversity":2.3046,"gdp_density":101614.7304,"P":11346.5712,"I":6.7836,"G":101614.7304},{"stationName":"上海后滩(地铁站)","station_id":"上海后滩(地铁站)_31.17376_121.46987","lineId":"上海地铁19号线 / 上海地铁7号线","lat":31.17376228,"lon":121.46987039000001,"area_km2":2.041,"D":0.3963,"C":0.8175,"T":0.1921,"U1":0.3027,"U2":0.0815,"couplingDegree":0.3963,"level":"中度失调","road_density":27.0465,"walk_accessibility":0.4092,"metro_line_density":3.7482,"station_count":2,"line_count":3,"population_density":12411.1683,"poi_density":0.49,"poi_diversity":0.0,"gdp_density":102750.4218,"P":12411.1683,"I":0.49,"G":102750.4218},{"stationName":"上海龙华中路(地铁站)","station_id":"上海龙华中路(地铁站)_31.18630_121.45249","lineId":"上海地铁7号线","lat":31.18630232,"lon":121.45249428,"area_km2":2.111,"D":0.493,"C":0.9982,"T":0.2435,"U1":0.258,"U2":0.229,"couplingDegree":0.493,"level":"勉强协调","road_density":26.9708,"walk_accessibility":0.4232,"metro_line_density":3.2408,"station_count":3,"line_count":2,"population_density":28702.9347,"poi_density":24.1595,"poi_diversity":2.7176,"gdp_density":0.0,"P":28702.9347,"I":24.1595,"G":0.0},{"stationName":"上海肇嘉浜路(地铁站)","station_id":"上海肇嘉浜路(地铁站)_31.20084_121.44576","lineId":"上海地铁7号线 / 上海地铁9号线","lat":31.200835186666666,"lon":121.44575531666668,"area_km2":2.6178,"D":0.6925,"C":0.9685,"T":0.4951,"U1":0.6183,"U2":0.3719,"couplingDegree":0.6925,"level":"良好协调","road_density":19.953,"walk_accessibility":0.5249,"metro_line_density":6.3588,"station_count":5,"line_count":5,"population_density":37011.4962,"poi_density":82.5135,"poi_diversity":3.1032,"gdp_density":0.0,"P":37011.4962,"I":82.5135,"G":0.0},{"stationName":"上海昌平路(地铁站)","station_id":"上海昌平路(地铁站)_31.23562_121.43801","lineId":"上海地铁7号线","lat":31.23561909,"lon":121.43800961,"area_km2":3.0264,"D":0.6761,"C":0.9985,"T":0.4577,"U1":0.4327,"U2":0.4828,"couplingDegree":0.6761,"level":"良好协调","road_density":20.0002,"walk_accessibility":0.6068,"metro_line_density":2.8372,"station_count":5,"line_count":3,"population_density":31840.7027,"poi_density":84.2583,"poi_diversity":3.032,"gdp_density":208983.6267,"P":31840.7027,"I":84.2583,"G":208983.6267},{"stationName":"上海长寿路(地铁站)","station_id":"上海长寿路(地铁站)_31.24209_121.43363","lineId":"上海地铁13号线 / 上海地铁7号线","lat":31.242089399999998,"lon":121.43362850999999,"area_km2":3.1141,"D":0.6731,"C":0.9872,"T":0.459,"U1":0.5322,"U2":0.3857,"couplingDegree":0.6731,"level":"良好协调","road_density":22.1261,"walk_accessibility":0.6244,"metro_line_density":3.3369,"station_count":5,"line_count":4,"population_density":34070.694,"poi_density":34.6815,"poi_diversity":2.9398,"gdp_density":203101.7722,"P":34070.694,"I":34.6815,"G":203101.7722},{"stationName":"上海岚皋路(地铁站)","station_id":"上海岚皋路(地铁站)_31.25803_121.41730","lineId":"上海地铁7号线","lat":31.2580297,"lon":121.41729656,"area_km2":2.2768,"D":0.4353,"C":0.9988,"T":0.1897,"U1":0.1989,"U2":0.1806,"couplingDegree":0.4353,"level":"勉强协调","road_density":22.7327,"walk_accessibility":0.4565,"metro_line_density":2.3725,"station_count":2,"line_count":2,"population_density":12830.5633,"poi_density":3.953,"poi_diversity":2.0432,"gdp_density":87424.5735,"P":12830.5633,"I":3.953,"G":87424.5735},{"stationName":"上海新村路(地铁站)","station_id":"上海新村路(地铁站)_31.26608_121.41857","lineId":"上海地铁20号线 / 上海地铁7号线","lat":31.266079615000002,"lon":121.4185655425,"area_km2":2.2304,"D":0.4427,"C":0.9754,"T":0.2009,"U1":0.2452,"U2":0.1566,"couplingDegree":0.4427,"level":"勉强协调","road_density":20.9538,"walk_accessibility":0.4472,"metro_line_density":4.1516,"station_count":3,"line_count":2,"population_density":28064.2331,"poi_density":6.7252,"poi_diversity":1.9338,"gdp_density":0.0,"P":28064.2331,"I":6.7252,"G":0.0},{"stationName":"上海大华三路(地铁站)","station_id":"上海大华三路(地铁站)_31.27587_121.41831","lineId":"上海地铁7号线","lat":31.275872955,"lon":121.41830529500001,"area_km2":2.2901,"D":0.5142,"C":0.9944,"T":0.2658,"U1":0.2377,"U2":0.294,"couplingDegree":0.5142,"level":"勉强协调","road_density":19.5591,"walk_accessibility":0.4592,"metro_line_density":2.9491,"station_count":3,"line_count":2,"population_density":25481.3441,"poi_density":5.24,"poi_diversity":1.8637,"gdp_density":257798.5062,"P":25481.3441,"I":5.24,"G":257798.5062},{"stationName":"上海行知路(地铁站)","station_id":"上海行知路(地铁站)_31.28632_121.41712","lineId":"上海地铁7号线","lat":31.28631582,"lon":121.41712329,"area_km2":2.7478,"D":0.3619,"C":0.9716,"T":0.1348,"U1":0.1667,"U2":0.1029,"couplingDegree":0.3619,"level":"中度失调","road_density":24.4951,"walk_accessibility":0.5509,"metro_line_density":2.0149,"station_count":3,"line_count":1,"population_density":19505.2215,"poi_density":1.8196,"poi_diversity":1.3322,"gdp_density":0.0,"P":19505.2215,"I":1.8196,"G":0.0},{"stationName":"上海大场镇(地铁站)","station_id":"上海大场镇(地铁站)_31.29507_121.41150","lineId":"上海地铁7号线","lat":31.29507086,"lon":121.41150494,"area_km2":1.9064,"D":0.2967,"C":0.8656,"T":0.1017,"U1":0.1526,"U2":0.0508,"couplingDegree":0.2967,"level":"中度失调","road_density":23.2473,"walk_accessibility":0.3822,"metro_line_density":2.958,"station_count":3,"line_count":1,"population_density":16614.0651,"poi_density":0.5245,"poi_diversity":0.0,"gdp_density":36544.3339,"P":16614.0651,"I":0.5245,"G":36544.3339},{"stationName":"上海场中路(地铁站)","station_id":"上海场中路(地铁站)_31.30549_121.40880","lineId":"上海地铁7号线","lat":31.30548945,"lon":121.4088032,"area_km2":1.5628,"D":0.1773,"C":0.6089,"T":0.0517,"U1":0.0926,"U2":0.0107,"couplingDegree":0.1773,"level":"极度失调","road_density":19.7351,"walk_accessibility":0.3133,"metro_line_density":3.5821,"station_count":2,"line_count":1,"population_density":5468.4026,"poi_density":0.6399,"poi_diversity":0.0,"gdp_density":0.0,"P":5468.4026,"I":0.6399,"G":0.0},{"stationName":"上海上大路(地铁站)","station_id":"上海上大路(地铁站)_31.31677_121.40403","lineId":"上海地铁7号线","lat":31.31676912,"lon":121.40402802,"area_km2":1.0955,"D":0.1771,"C":0.6584,"T":0.0476,"U1":0.0835,"U2":0.0118,"couplingDegree":0.1771,"level":"极度失调","road_density":17.5321,"walk_accessibility":0.2196,"metro_line_density":5.0116,"station_count":2,"line_count":1,"population_density":5811.9161,"poi_density":0.9128,"poi_diversity":0.0,"gdp_density":0.0,"P":5811.9161,"I":0.9128,"G":0.0},{"stationName":"上海南陈路(地铁站)","station_id":"上海南陈路(地铁站)_31.32354_121.39376","lineId":"上海地铁7号线","lat":31.32353684,"lon":121.39376006,"area_km2":2.2493,"D":0.3353,"C":0.9617,"T":0.1169,"U1":0.149,"U2":0.0849,"couplingDegree":0.3353,"level":"中度失调","road_density":20.7983,"walk_accessibility":0.451,"metro_line_density":2.427,"station_count":3,"line_count":1,"population_density":6119.8151,"poi_density":1.3338,"poi_diversity":1.0986,"gdp_density":30655.5386,"P":6119.8151,"I":1.3338,"G":30655.5386},{"stationName":"上海上海大学(地铁站)","station_id":"上海上海大学(地铁站)_31.32239_121.38423","lineId":"上海地铁7号线","lat":31.32238707,"lon":121.38422864,"area_km2":2.6458,"D":0.4068,"C":0.9224,"T":0.1794,"U1":0.2487,"U2":0.1101,"couplingDegree":0.4068,"level":"勉强协调","road_density":21.804,"walk_accessibility":0.5305,"metro_line_density":2.5061,"station_count":3,"line_count":2,"population_density":5907.8932,"poi_density":4.9135,"poi_diversity":1.8393,"gdp_density":0.0,"P":5907.8932,"I":4.9135,"G":0.0},{"stationName":"上海祁华路(地铁站)","station_id":"上海祁华路(地铁站)_31.32420_121.36889","lineId":"上海地铁7号线","lat":31.32420121,"lon":121.36888862,"area_km2":1.3678,"D":0.2259,"C":0.5512,"T":0.0926,"U1":0.1698,"U2":0.0153,"couplingDegree":0.2259,"level":"中度失调","road_density":16.6482,"walk_accessibility":0.2742,"metro_line_density":3.4999,"station_count":2,"line_count":2,"population_density":8845.3519,"poi_density":0.0,"poi_diversity":0.0,"gdp_density":0.0,"P":8845.3519,"I":0.0,"G":0.0},{"stationName":"上海顾村公园(地铁站)","station_id":"上海顾村公园(地铁站)_31.34640_121.36837","lineId":"上海地铁7号线","lat":31.34639976,"lon":121.36836777,"area_km2":1.9249,"D":0.2522,"C":0.9672,"T":0.0658,"U1":0.0491,"U2":0.0825,"couplingDegree":0.2522,"level":"中度失调","road_density":19.3946,"walk_accessibility":0.3859,"metro_line_density":2.9131,"station_count":1,"line_count":1,"population_density":4656.2674,"poi_density":7.273,"poi_diversity":1.2326,"gdp_density":0.0,"P":4656.2674,"I":7.273,"G":0.0},{"stationName":"上海刘行(地铁站)","station_id":"上海刘行(地铁站)_31.35940_121.35775","lineId":"上海地铁7号线","lat":31.35940234,"lon":121.35775099,"area_km2":1.7835,"D":0.2184,"C":0.8256,"T":0.0578,"U1":0.0904,"U2":0.0252,"couplingDegree":0.2184,"level":"中度失调","road_density":18.1877,"walk_accessibility":0.3576,"metro_line_density":3.2385,"station_count":2,"line_count":1,"population_density":6395.3721,"poi_density":0.0,"poi_diversity":0.0,"gdp_density":24528.4891,"P":6395.3721,"I":0.0,"G":24528.4891},{"stationName":"上海潘广路(地铁站)","station_id":"上海潘广路(地铁站)_31.36601_121.35123","lineId":"上海地铁7号线","lat":31.36600519,"lon":121.35123053,"area_km2":1.5898,"D":0.1516,"C":0.4289,"T":0.0535,"U1":0.1019,"U2":0.0052,"couplingDegree":0.1516,"level":"极度失调","road_density":24.3117,"walk_accessibility":0.3188,"metro_line_density":2.2318,"station_count":2,"line_count":1,"population_density":2986.4764,"poi_density":0.0,"poi_diversity":0.0,"gdp_density":0.0,"P":2986.4764,"I":0.0,"G":0.0},{"stationName":"上海罗南新村(地铁站)","station_id":"上海罗南新村(地铁站)_31.39065_121.35285","lineId":"上海地铁7号线","lat":31.39064592,"lon":121.35285116,"area_km2":1.6836,"D":0.1462,"C":0.7035,"T":0.0304,"U1":0.052,"U2":0.0088,"couplingDegree":0.1462,"level":"极度失调","road_density":21.442,"walk_accessibility":0.3375,"metro_line_density":3.1222,"station_count":1,"line_count":1,"population_density":4430.4894,"poi_density":0.594,"poi_diversity":0.0,"gdp_density":0.0,"P":4430.4894,"I":0.594,"G":0.0},{"stationName":"上海美兰湖(地铁站)","station_id":"上海美兰湖(地铁站)_31.40371_121.34529","lineId":"上海地铁7号线","lat":31.40371282,"lon":121.34528727,"area_km2":2.0314,"D":0.2043,"C":0.9981,"T":0.0418,"U1":0.0444,"U2":0.0392,"couplingDegree":0.2043,"level":"中度失调","road_density":19.0009,"walk_accessibility":0.4073,"metro_line_density":1.4482,"station_count":1,"line_count":1,"population_density":1854.3511,"poi_density":0.9845,"poi_diversity":0.6931,"gdp_density":0.0,"P":1854.3511,"I":0.9845,"G":0.0},{"stationName":"上海沈杜公路(地铁站)","station_id":"上海沈杜公路(地铁站)_31.06329_121.50803","lineId":"上海上海轨道交通浦江线(汇臻路--沈杜公路) / 上海上海轨道交通浦江线(沈杜公路--汇臻路) / 上海地铁8号线","lat":31.06329439,"lon":121.50802977666667,"area_km2":1.9034,"D":0.344,"C":0.8161,"T":0.145,"U1":0.2287,"U2":0.0612,"couplingDegree":0.344,"level":"中度失调","road_density":19.7658,"walk_accessibility":0.3816,"metro_line_density":2.6618,"station_count":1,"line_count":3,"population_density":2766.0549,"poi_density":3.6776,"poi_diversity":1.0042,"gdp_density":0.0,"P":2766.0549,"I":3.6776,"G":0.0},{"stationName":"上海联航路(地铁站)","station_id":"上海联航路(地铁站)_31.07570_121.50621","lineId":"上海地铁8号线","lat":31.07569844,"lon":121.50621353,"area_km2":2.453,"D":0.3544,"C":0.9885,"T":0.127,"U1":0.1078,"U2":0.1462,"couplingDegree":0.3544,"level":"中度失调","road_density":21.4697,"walk_accessibility":0.4918,"metro_line_density":2.3021,"station_count":2,"line_count":1,"population_density":10722.761,"poi_density":11.4146,"poi_diversity":2.1557,"gdp_density":0.0,"P":10722.761,"I":11.4146,"G":0.0},{"stationName":"上海江月路(地铁站)","station_id":"上海江月路(地铁站)_31.08637_121.50422","lineId":"上海地铁8号线","lat":31.08637366,"lon":121.50421528000001,"area_km2":2.3797,"D":0.3735,"C":0.9627,"T":0.1449,"U1":0.1057,"U2":0.1841,"couplingDegree":0.3735,"level":"中度失调","road_density":21.0974,"walk_accessibility":0.4771,"metro_line_density":2.3611,"station_count":2,"line_count":1,"population_density":3151.6243,"poi_density":24.7928,"poi_diversity":2.6815,"gdp_density":0.0,"P":3151.6243,"I":24.7928,"G":0.0},{"stationName":"上海浦江镇(地铁站)","station_id":"上海浦江镇(地铁站)_31.09870_121.50187","lineId":"上海地铁8号线","lat":31.09869707,"lon":121.50187481,"area_km2":2.1311,"D":0.3089,"C":0.8176,"T":0.1167,"U1":0.0495,"U2":0.1839,"couplingDegree":0.3089,"level":"中度失调","road_density":19.7048,"walk_accessibility":0.4273,"metro_line_density":1.8296,"station_count":1,"line_count":1,"population_density":9947.2038,"poi_density":19.2393,"poi_diversity":2.3531,"gdp_density":25320.8377,"P":9947.2038,"I":19.2393,"G":25320.8377},{"stationName":"上海芦恒路(地铁站)","station_id":"上海芦恒路(地铁站)_31.12113_121.49380","lineId":"上海地铁8号线","lat":31.12112846,"lon":121.49379766,"area_km2":1.9116,"D":0.2418,"C":0.9988,"T":0.0585,"U1":0.0614,"U2":0.0557,"couplingDegree":0.2418,"level":"中度失调","road_density":23.9106,"walk_accessibility":0.3833,"metro_line_density":2.6441,"station_count":1,"line_count":1,"population_density":3542.1205,"poi_density":1.5694,"poi_diversity":0.6365,"gdp_density":26519.0832,"P":3542.1205,"I":1.5694,"G":26519.0832},{"stationName":"上海凌兆新村(地铁站)","station_id":"上海凌兆新村(地铁站)_31.14296_121.48393","lineId":"上海地铁19号线 / 上海地铁8号线","lat":31.142961285,"lon":121.48392774,"area_km2":2.1316,"D":0.4507,"C":0.9182,"T":0.2212,"U1":0.3088,"U2":0.1336,"couplingDegree":0.4507,"level":"勉强协调","road_density":27.1382,"walk_accessibility":0.4274,"metro_line_density":4.9542,"station_count":2,"line_count":3,"population_density":24815.227,"poi_density":4.2223,"poi_diversity":1.677,"gdp_density":0.0,"P":24815.227,"I":4.2223,"G":0.0},{"stationName":"上海杨思(地铁站)","station_id":"上海杨思(地铁站)_31.16309_121.48899","lineId":"上海地铁8号线","lat":31.16308806,"lon":121.48899317,"area_km2":1.5984,"D":0.3671,"C":0.9742,"T":0.1383,"U1":0.1695,"U2":0.1071,"couplingDegree":0.3671,"level":"中度失调","road_density":15.7331,"walk_accessibility":0.3205,"metro_line_density":3.1212,"station_count":2,"line_count":2,"population_density":13890.021,"poi_density":5.005,"poi_diversity":1.4942,"gdp_density":0.0,"P":13890.021,"I":5.005,"G":0.0},{"stationName":"上海成山路(地铁站)","station_id":"上海成山路(地铁站)_31.17302_121.49230","lineId":"上海地铁13号线 / 上海地铁8号线","lat":31.173015470000003,"lon":121.492296005,"area_km2":1.7549,"D":0.4801,"C":0.9035,"T":0.2551,"U1":0.3644,"U2":0.1457,"couplingDegree":0.4801,"level":"勉强协调","road_density":16.9118,"walk_accessibility":0.3518,"metro_line_density":5.016,"station_count":4,"line_count":3,"population_density":6807.9556,"poi_density":3.9889,"poi_diversity":1.277,"gdp_density":110545.0837,"P":6807.9556,"I":3.9889,"G":110545.0837},{"stationName":"上海中华艺术宫(地铁站)","station_id":"上海中华艺术宫(地铁站)_31.18726_121.48918","lineId":"上海地铁8号线","lat":31.1872639,"lon":121.48917574,"area_km2":2.3299,"D":0.7023,"C":0.9998,"T":0.4933,"U1":0.4832,"U2":0.5034,"couplingDegree":0.7023,"level":"良好协调","road_density":22.2419,"walk_accessibility":0.4671,"metro_line_density":5.9999,"station_count":4,"line_count":4,"population_density":7470.7113,"poi_density":24.0354,"poi_diversity":2.1732,"gdp_density":588735.9115,"P":7470.7113,"I":24.0354,"G":588735.9115},{"stationName":"上海陆家浜路(地铁站)","station_id":"上海陆家浜路(地铁站)_31.21378_121.48164","lineId":"上海地铁8号线","lat":31.213775425,"lon":121.48163531,"area_km2":3.6408,"D":0.7357,"C":0.987,"T":0.5483,"U1":0.6364,"U2":0.4602,"couplingDegree":0.7357,"level":"良好协调","road_density":23.2047,"walk_accessibility":0.73,"metro_line_density":4.0091,"station_count":5,"line_count":5,"population_density":41242.3849,"poi_density":16.4797,"poi_diversity":2.7338,"gdp_density":388292.6163,"P":41242.3849,"I":16.4797,"G":388292.6163},{"stationName":"上海老西门(地铁站)","station_id":"上海老西门(地铁站)_31.22087_121.47890","lineId":"上海地铁10号线 / 上海地铁8号线","lat":31.220867165,"lon":121.47890408,"area_km2":3.7962,"D":0.8088,"C":0.9718,"T":0.6731,"U1":0.8319,"U2":0.5143,"couplingDegree":0.8088,"level":"优质协调","road_density":25.9341,"walk_accessibility":0.7611,"metro_line_density":4.7906,"station_count":7,"line_count":6,"population_density":30532.8327,"poi_density":55.3188,"poi_diversity":2.9151,"gdp_density":372404.252,"P":30532.8327,"I":55.3188,"G":372404.252},{"stationName":"上海大世界(地铁站)","station_id":"上海大世界(地铁站)_31.22911_121.47523","lineId":"上海地铁14号线 / 上海地铁8号线","lat":31.229105465,"lon":121.4752349,"area_km2":4.0319,"D":0.8187,"C":0.9968,"T":0.6724,"U1":0.726,"U2":0.6187,"couplingDegree":0.8187,"level":"优质协调","road_density":33.8766,"walk_accessibility":0.8084,"metro_line_density":5.4774,"station_count":6,"line_count":5,"population_density":29475.629,"poi_density":94.9915,"poi_diversity":3.0672,"gdp_density":414745.1455,"P":29475.629,"I":94.9915,"G":414745.1455},{"stationName":"上海曲阜路(地铁站)","station_id":"上海曲阜路(地铁站)_31.24424_121.46701","lineId":"上海地铁8号线","lat":31.24423809,"lon":121.46701185,"area_km2":3.5113,"D":0.6963,"C":0.8463,"T":0.5729,"U1":0.8781,"U2":0.2677,"couplingDegree":0.6963,"level":"良好协调","road_density":28.5897,"walk_accessibility":0.704,"metro_line_density":3.9146,"station_count":8,"line_count":6,"population_density":25171.1282,"poi_density":41.8645,"poi_diversity":2.9531,"gdp_density":0.0,"P":25171.1282,"I":41.8645,"G":0.0},{"stationName":"上海中兴路(地铁站)","station_id":"上海中兴路(地铁站)_31.25515_121.46449","lineId":"上海地铁8号线","lat":31.25514782,"lon":121.46448545,"area_km2":2.6416,"D":0.6432,"C":0.9971,"T":0.4149,"U1":0.4463,"U2":0.3836,"couplingDegree":0.6432,"level":"良好协调","road_density":24.6901,"walk_accessibility":0.5296,"metro_line_density":4.4617,"station_count":5,"line_count":3,"population_density":51943.3892,"poi_density":12.4925,"poi_diversity":2.5741,"gdp_density":249311.0816,"P":51943.3892,"I":12.4925,"G":249311.0816},{"stationName":"上海西藏北路(地铁站)","station_id":"上海西藏北路(地铁站)_31.26537_121.46428","lineId":"上海地铁8号线","lat":31.26536738,"lon":121.46427653,"area_km2":2.7645,"D":0.5325,"C":0.9523,"T":0.2978,"U1":0.3886,"U2":0.2069,"couplingDegree":0.5325,"level":"勉强协调","road_density":23.0797,"walk_accessibility":0.5543,"metro_line_density":2.0127,"station_count":4,"line_count":3,"population_density":44121.2249,"poi_density":5.7878,"poi_diversity":2.426,"gdp_density":0.0,"P":44121.2249,"I":5.7878,"G":0.0},{"stationName":"上海曲阳路(地铁站)","station_id":"上海曲阳路(地铁站)_31.27850_121.48667","lineId":"上海地铁8号线","lat":31.27849665,"lon":121.48667163,"area_km2":3.2734,"D":0.5633,"C":0.9541,"T":0.3325,"U1":0.4322,"U2":0.2329,"couplingDegree":0.5633,"level":"勉强协调","road_density":32.62,"walk_accessibility":0.6563,"metro_line_density":3.8666,"station_count":4,"line_count":3,"population_density":37537.8235,"poi_density":2.4439,"poi_diversity":1.7329,"gdp_density":135538.6218,"P":37537.8235,"I":2.4439,"G":135538.6218},{"stationName":"上海四平路(地铁站)","station_id":"上海四平路(地铁站)_31.27688_121.49706","lineId":"上海地铁8号线","lat":31.27688415,"lon":121.49705802,"area_km2":3.3571,"D":0.5701,"C":0.989,"T":0.3286,"U1":0.3773,"U2":0.2799,"couplingDegree":0.5701,"level":"勉强协调","road_density":29.1243,"walk_accessibility":0.6731,"metro_line_density":3.319,"station_count":5,"line_count":2,"population_density":42363.5928,"poi_density":5.6597,"poi_diversity":2.4337,"gdp_density":132159.766,"P":42363.5928,"I":5.6597,"G":132159.766},{"stationName":"上海鞍山新村(地铁站)","station_id":"上海鞍山新村(地铁站)_31.27527_121.50528","lineId":"上海地铁8号线","lat":31.27527032,"lon":121.50528451,"area_km2":2.8775,"D":0.5375,"C":0.9481,"T":0.3047,"U1":0.4015,"U2":0.2078,"couplingDegree":0.5375,"level":"勉强协调","road_density":24.9554,"walk_accessibility":0.5769,"metro_line_density":3.5302,"station_count":4,"line_count":3,"population_density":16703.8711,"poi_density":3.1277,"poi_diversity":2.0432,"gdp_density":125786.4116,"P":16703.8711,"I":3.1277,"G":125786.4116},{"stationName":"上海江浦路(地铁站)","station_id":"上海江浦路(地铁站)_31.27640_121.51429","lineId":"上海地铁18号线 / 上海地铁8号线","lat":31.276395450000003,"lon":121.51428757,"area_km2":2.5623,"D":0.5083,"C":0.953,"T":0.2711,"U1":0.3533,"U2":0.1889,"couplingDegree":0.5083,"level":"勉强协调","road_density":24.1941,"walk_accessibility":0.5137,"metro_line_density":4.3641,"station_count":5,"line_count":2,"population_density":30053.2264,"poi_density":1.9514,"poi_diversity":1.0549,"gdp_density":141262.4579,"P":30053.2264,"I":1.9514,"G":141262.4579},{"stationName":"上海黄兴路(地铁站)","station_id":"上海黄兴路(地铁站)_31.28089_121.52406","lineId":"上海地铁8号线","lat":31.280893405,"lon":121.52406494,"area_km2":2.3872,"D":0.3853,"C":0.8811,"T":0.1685,"U1":0.2482,"U2":0.0888,"couplingDegree":0.3853,"level":"中度失调","road_density":22.7077,"walk_accessibility":0.4786,"metro_line_density":2.7884,"station_count":3,"line_count":2,"population_density":30612.6609,"poi_density":0.8378,"poi_diversity":0.6931,"gdp_density":0.0,"P":30612.6609,"I":0.8378,"G":0.0},{"stationName":"上海延吉中路(地铁站)","station_id":"上海延吉中路(地铁站)_31.29064_121.53062","lineId":"上海地铁8号线","lat":31.29063633,"lon":121.5306242,"area_km2":2.309,"D":0.3749,"C":0.9999,"T":0.1405,"U1":0.1429,"U2":0.1382,"couplingDegree":0.3749,"level":"中度失调","road_density":18.4816,"walk_accessibility":0.4629,"metro_line_density":2.3789,"station_count":3,"line_count":1,"population_density":27771.7528,"poi_density":0.4331,"poi_diversity":0.0,"gdp_density":155384.5268,"P":27771.7528,"I":0.4331,"G":155384.5268},{"stationName":"上海黄兴公园(地铁站)","station_id":"上海黄兴公园(地铁站)_31.29748_121.52906","lineId":"上海地铁8号线","lat":31.297475249999998,"lon":121.52906191,"area_km2":2.0047,"D":0.2883,"C":0.8601,"T":0.0967,"U1":0.146,"U2":0.0473,"couplingDegree":0.2883,"level":"中度失调","road_density":20.6544,"walk_accessibility":0.4019,"metro_line_density":2.8202,"station_count":3,"line_count":1,"population_density":26774.8221,"poi_density":0.4988,"poi_diversity":0.0,"gdp_density":0.0,"P":26774.8221,"I":0.4988,"G":0.0},{"stationName":"上海翔殷路(地铁站)","station_id":"上海翔殷路(地铁站)_31.30708_121.52765","lineId":"上海地铁8号线","lat":31.30708029,"lon":121.52764644,"area_km2":2.2193,"D":0.4244,"C":0.9556,"T":0.1885,"U1":0.244,"U2":0.133,"couplingDegree":0.4244,"level":"勉强协调","road_density":21.9071,"walk_accessibility":0.445,"metro_line_density":3.0631,"station_count":3,"line_count":2,"population_density":29223.5535,"poi_density":3.1541,"poi_diversity":1.5498,"gdp_density":0.0,"P":29223.5535,"I":3.1541,"G":0.0},{"stationName":"上海嫩江路(地铁站)","station_id":"上海嫩江路(地铁站)_31.31682_121.52763","lineId":"上海地铁20号线 / 上海地铁8号线","lat":31.316820865,"lon":121.52763156500001,"area_km2":2.7628,"D":0.4664,"C":0.9776,"T":0.2225,"U1":0.2693,"U2":0.1757,"couplingDegree":0.4664,"level":"勉强协调","road_density":26.6957,"walk_accessibility":0.5539,"metro_line_density":3.6514,"station_count":3,"line_count":2,"population_density":13086.2072,"poi_density":10.1345,"poi_diversity":2.7194,"gdp_density":0.0,"P":13086.2072,"I":10.1345,"G":0.0},{"stationName":"上海市光路(地铁站)","station_id":"上海市光路(地铁站)_31.32480_121.52760","lineId":"上海地铁8号线","lat":31.32479686,"lon":121.52760498,"area_km2":3.0928,"D":0.4565,"C":0.9923,"T":0.21,"U1":0.236,"U2":0.184,"couplingDegree":0.4565,"level":"勉强协调","road_density":31.6403,"walk_accessibility":0.6201,"metro_line_density":1.5745,"station_count":2,"line_count":2,"population_density":22876.8618,"poi_density":10.0234,"poi_diversity":2.5474,"gdp_density":0.0,"P":22876.8618,"I":10.0234,"G":0.0},{"stationName":"上海上海松江站(地铁站)","station_id":"上海上海松江站(地铁站)_30.98697_121.22647","lineId":"上海地铁9号线","lat":30.98696657,"lon":121.22647377,"area_km2":1.2,"D":0.126,"C":0.7155,"T":0.0222,"U1":0.0377,"U2":0.0067,"couplingDegree":0.126,"level":"极度失调","road_density":20.3385,"walk_accessibility":0.2406,"metro_line_density":2.2699,"station_count":1,"line_count":1,"population_density":3860.7036,"poi_density":0.0,"poi_diversity":0.0,"gdp_density":0.0,"P":3860.7036,"I":0.0,"G":0.0},{"stationName":"上海醉白池(地铁站)","station_id":"上海醉白池(地铁站)_31.00326_121.22495","lineId":"上海地铁9号线","lat":31.00326411,"lon":121.22494796,"area_km2":1.4468,"D":0.1678,"C":0.9879,"T":0.0285,"U1":0.0241,"U2":0.0329,"couplingDegree":0.1678,"level":"极度失调","road_density":14.2777,"walk_accessibility":0.2901,"metro_line_density":2.3933,"station_count":1,"line_count":1,"population_density":0.0,"poi_density":2.7647,"poi_diversity":0.5623,"gdp_density":0.0,"P":0.0,"I":2.7647,"G":0.0},{"stationName":"上海松江体育中心(地铁站)","station_id":"上海松江体育中心(地铁站)_31.01814_121.22613","lineId":"上海地铁9号线","lat":31.01813752,"lon":121.22613289,"area_km2":1.6322,"D":0.2204,"C":0.9975,"T":0.0487,"U1":0.0453,"U2":0.0521,"couplingDegree":0.2204,"level":"中度失调","road_density":20.4853,"walk_accessibility":0.3272,"metro_line_density":2.2791,"station_count":1,"line_count":1,"population_density":11430.0613,"poi_density":2.4507,"poi_diversity":0.5623,"gdp_density":0.0,"P":11430.0613,"I":2.4507,"G":0.0},{"stationName":"上海松江新城(地铁站)","station_id":"上海松江新城(地铁站)_31.03242_121.22632","lineId":"上海地铁9号线","lat":31.032417995,"lon":121.226324765,"area_km2":2.2249,"D":0.2377,"C":0.9934,"T":0.0569,"U1":0.0504,"U2":0.0634,"couplingDegree":0.2377,"level":"中度失调","road_density":18.9058,"walk_accessibility":0.4461,"metro_line_density":2.3077,"station_count":1,"line_count":1,"population_density":5602.0531,"poi_density":4.0451,"poi_diversity":0.6837,"gdp_density":21510.1939,"P":5602.0531,"I":4.0451,"G":21510.1939},{"stationName":"上海松江大学城(地铁站)","station_id":"上海松江大学城(地铁站)_31.05609_121.22816","lineId":"上海地铁9号线","lat":31.0560943,"lon":121.22816102,"area_km2":1.1224,"D":0.1303,"C":0.7238,"T":0.0235,"U1":0.0396,"U2":0.0073,"couplingDegree":0.1303,"level":"极度失调","road_density":18.4722,"walk_accessibility":0.225,"metro_line_density":4.715,"station_count":1,"line_count":1,"population_density":4194.7153,"poi_density":0.0,"poi_diversity":0.0,"gdp_density":0.0,"P":4194.7153,"I":0.0,"G":0.0},{"stationName":"上海洞泾(地铁站)","station_id":"上海洞泾(地铁站)_31.08755_121.22653","lineId":"上海地铁12号线 / 上海地铁9号线","lat":31.087548495,"lon":121.226528635,"area_km2":1.3544,"D":0.1828,"C":0.4521,"T":0.0739,"U1":0.1399,"U2":0.008,"couplingDegree":0.1828,"level":"极度失调","road_density":17.9555,"walk_accessibility":0.2715,"metro_line_density":6.9769,"station_count":1,"line_count":2,"population_density":4608.8453,"poi_density":0.0,"poi_diversity":0.0,"gdp_density":0.0,"P":4608.8453,"I":0.0,"G":0.0},{"stationName":"上海佘山(地铁站)","station_id":"上海佘山(地铁站)_31.10618_121.22526","lineId":"上海地铁9号线","lat":31.10617731,"lon":121.22526439,"area_km2":1.0185,"D":0.0,"C":0.0,"T":0.0148,"U1":0.0296,"U2":0.0,"couplingDegree":0.0,"level":"极度失调","road_density":17.73,"walk_accessibility":0.2042,"metro_line_density":3.0154,"station_count":1,"line_count":1,"population_density":0.0,"poi_density":0.0,"poi_diversity":0.0,"gdp_density":0.0,"P":0.0,"I":0.0,"G":0.0},