{"cityCode":"110000","year":2017,"stations":[{"stationName":"北京环球度假区(地铁站)","station_id":"北京环球度假区(地铁站)_39.84801_116.67316","lineId":"北京地铁1号线","lat":39.84800964,"lon":116.67315754,"area_km2":2.0677,"D":0.1381,"C":0.4751,"T":0.0401,"U1":0.0754,"U2":0.0048,"couplingDegree":0.1381,"level":"极度失调","road_density":38.0489,"walk_accessibility":0.4146,"metro_line_density":1.3888,"station_count":1,"line_count":1,"population_density":2056.8893,"poi_density":0.0,"poi_diversity":0.0,"gdp_density":0.0,"P":2056.8893,"I":0.0,"G":0.0},{"stationName":"北京花庄(地铁站)","station_id":"北京花庄(地铁站)_39.85555_116.68951","lineId":"北京地铁1号线","lat":39.85555015,"lon":116.68950889,"area_km2":2.3043,"D":0.1624,"C":0.2073,"T":0.1272,"U1":0.2516,"U2":0.0028,"couplingDegree":0.1624,"level":"极度失调","road_density":30.8062,"walk_accessibility":0.462,"metro_line_density":4.5734,"station_count":2,"line_count":2,"population_density":1179.5244,"poi_density":0.0,"poi_diversity":0.0,"gdp_density":0.0,"P":1179.5244,"I":0.0,"G":0.0},{"stationName":"北京土桥(地铁站)","station_id":"北京土桥(地铁站)_39.87077_116.68039","lineId":"北京地铁1号线","lat":39.87076864,"lon":116.68038605,"area_km2":1.7638,"D":0.2096,"C":0.2827,"T":0.1553,"U1":0.3043,"U2":0.0063,"couplingDegree":0.2096,"level":"中度失调","road_density":28.2233,"walk_accessibility":0.3536,"metro_line_density":3.747,"station_count":3,"line_count":2,"population_density":2706.0248,"poi_density":0.0,"poi_diversity":0.0,"gdp_density":0.0,"P":2706.0248,"I":0.0,"G":0.0},{"stationName":"北京临河里(地铁站)","station_id":"北京临河里(地铁站)_39.87435_116.67287","lineId":"北京地铁1号线","lat":39.87435269,"lon":116.67286862,"area_km2":1.8452,"D":0.254,"C":0.5755,"T":0.1121,"U1":0.2039,"U2":0.0204,"couplingDegree":0.254,"level":"中度失调","road_density":27.1937,"walk_accessibility":0.37,"metro_line_density":3.4878,"station_count":3,"line_count":1,"population_density":1058.3984,"poi_density":0.0,"poi_diversity":0.0,"gdp_density":9254.3472,"P":1058.3984,"I":0.0,"G":9254.3472},{"stationName":"北京梨园(地铁站)","station_id":"北京梨园(地铁站)_39.88255_116.66280","lineId":"北京地铁1号线","lat":39.88255308,"lon":116.6628048,"area_km2":2.0685,"D":0.294,"C":0.7134,"T":0.1211,"U1":0.206,"U2":0.0363,"couplingDegree":0.294,"level":"中度失调","road_density":28.2457,"walk_accessibility":0.4147,"metro_line_density":3.0464,"station_count":3,"line_count":1,"population_density":8195.3885,"poi_density":0.4834,"poi_diversity":0.0,"gdp_density":8255.5776,"P":8195.3885,"I":0.4834,"G":8255.5776},{"stationName":"北京九棵树(地铁站)","station_id":"北京九棵树(地铁站)_39.88917_116.65165","lineId":"北京地铁1号线","lat":39.88917482,"lon":116.6516474,"area_km2":2.5061,"D":0.3543,"C":0.8711,"T":0.1441,"U1":0.2149,"U2":0.0733,"couplingDegree":0.3543,"level":"中度失调","road_density":31.6124,"walk_accessibility":0.5025,"metro_line_density":2.5238,"station_count":3,"line_count":1,"population_density":4075.9745,"poi_density":2.3941,"poi_diversity":1.2425,"gdp_density":0.0,"P":4075.9745,"I":2.3941,"G":0.0},{"stationName":"北京果园(地铁站)","station_id":"北京果园(地铁站)_39.89225_116.64076","lineId":"北京地铁1号线","lat":39.89224577,"lon":116.64076483,"area_km2":2.2972,"D":0.3155,"C":0.9306,"T":0.107,"U1":0.1461,"U2":0.0678,"couplingDegree":0.3155,"level":"中度失调","road_density":32.396,"walk_accessibility":0.4606,"metro_line_density":2.8587,"station_count":2,"line_count":1,"population_density":7805.7189,"poi_density":2.1766,"poi_diversity":0.9503,"gdp_density":0.0,"P":7805.7189,"I":2.1766,"G":0.0},{"stationName":"北京通州北苑(地铁站)","station_id":"北京通州北苑(地铁站)_39.90279_116.63142","lineId":"北京地铁1号线","lat":39.90279433,"lon":116.631416,"area_km2":1.9621,"D":0.217,"C":0.9664,"T":0.0487,"U1":0.0613,"U2":0.0362,"couplingDegree":0.217,"level":"中度失调","road_density":25.6805,"walk_accessibility":0.3934,"metro_line_density":3.2334,"station_count":1,"line_count":1,"population_density":7440.5045,"poi_density":0.0,"poi_diversity":0.0,"gdp_density":9678.1601,"P":7440.5045,"I":0.0,"G":9678.1601},{"stationName":"北京八里桥(地铁站)","station_id":"北京八里桥(地铁站)_39.90507_116.61286","lineId":"北京地铁1号线","lat":39.90507299,"lon":116.61285555,"area_km2":1.9573,"D":0.3228,"C":0.9016,"T":0.1156,"U1":0.0656,"U2":0.1656,"couplingDegree":0.3228,"level":"中度失调","road_density":20.3,"walk_accessibility":0.3924,"metro_line_density":5.6412,"station_count":1,"line_count":1,"population_density":10263.0031,"poi_density":0.0,"poi_diversity":0.0,"gdp_density":72981.1002,"P":10263.0031,"I":0.0,"G":72981.1002},{"stationName":"北京管庄(地铁站)","station_id":"北京管庄(地铁站)_39.90803_116.59313","lineId":"北京地铁1号线 / 北京地铁22号线","lat":39.908028335,"lon":116.59312795,"area_km2":2.5021,"D":0.3752,"C":0.9838,"T":0.1431,"U1":0.1688,"U2":0.1174,"couplingDegree":0.3752,"level":"中度失调","road_density":22.7424,"walk_accessibility":0.5017,"metro_line_density":4.6255,"station_count":1,"line_count":2,"population_density":2844.0642,"poi_density":0.0,"poi_diversity":0.0,"gdp_density":57092.1108,"P":2844.0642,"I":0.0,"G":57092.1108},{"stationName":"北京双桥(地铁站)","station_id":"北京双桥(地铁站)_39.90909_116.57096","lineId":"北京地铁1号线","lat":39.9090938,"lon":116.57096023,"area_km2":2.9269,"D":0.3355,"C":0.8742,"T":0.1288,"U1":0.0662,"U2":0.1913,"couplingDegree":0.3355,"level":"中度失调","road_density":21.4926,"walk_accessibility":0.5868,"metro_line_density":3.4012,"station_count":1,"line_count":1,"population_density":8915.2076,"poi_density":2.3916,"poi_diversity":1.5498,"gdp_density":47490.7173,"P":8915.2076,"I":2.3916,"G":47490.7173},{"stationName":"北京传媒大学(地铁站)","station_id":"北京传媒大学(地铁站)_39.90814_116.54881","lineId":"北京地铁1号线","lat":39.90813539,"lon":116.5488103,"area_km2":2.8283,"D":0.3265,"C":0.854,"T":0.1248,"U1":0.0599,"U2":0.1898,"couplingDegree":0.3265,"level":"中度失调","road_density":20.0299,"walk_accessibility":0.5671,"metro_line_density":3.0389,"station_count":1,"line_count":1,"population_density":9229.3412,"poi_density":1.7679,"poi_diversity":1.3322,"gdp_density":52309.1465,"P":9229.3412,"I":1.7679,"G":52309.1465},{"stationName":"北京高碑店(地铁站)","station_id":"北京高碑店(地铁站)_39.90832_116.52553","lineId":"北京地铁1号线","lat":39.90831553,"lon":116.52552782,"area_km2":2.8891,"D":0.262,"C":0.9954,"T":0.0689,"U1":0.0624,"U2":0.0755,"couplingDegree":0.262,"level":"中度失调","road_density":22.0198,"walk_accessibility":0.5793,"metro_line_density":2.6857,"station_count":1,"line_count":1,"population_density":9153.388,"poi_density":1.0384,"poi_diversity":1.0986,"gdp_density":0.0,"P":9153.388,"I":1.0384,"G":0.0},{"stationName":"北京四惠东(地铁站)","station_id":"北京四惠东(地铁站)_39.90732_116.50972","lineId":"北京地铁1号线","lat":39.90731937,"lon":116.50971598,"area_km2":2.8478,"D":0.2875,"C":0.9473,"T":0.0872,"U1":0.0593,"U2":0.1152,"couplingDegree":0.2875,"level":"中度失调","road_density":21.4999,"walk_accessibility":0.571,"metro_line_density":2.4388,"station_count":1,"line_count":1,"population_density":6431.6114,"poi_density":0.3511,"poi_diversity":0.0,"gdp_density":51211.1261,"P":6431.6114,"I":0.3511,"G":51211.1261},{"stationName":"北京四惠(地铁站)","station_id":"北京四惠(地铁站)_39.90751_116.48943","lineId":"北京地铁1号线","lat":39.90751336,"lon":116.48943115,"area_km2":2.6535,"D":0.3608,"C":0.8793,"T":0.148,"U1":0.0775,"U2":0.2186,"couplingDegree":0.3608,"level":"中度失调","road_density":32.088,"walk_accessibility":0.532,"metro_line_density":2.4254,"station_count":1,"line_count":1,"population_density":9386.8025,"poi_density":4.1454,"poi_diversity":1.4206,"gdp_density":62171.1729,"P":9386.8025,"I":4.1454,"G":62171.1729},{"stationName":"北京大望路(地铁站)","station_id":"北京大望路(地铁站)_39.90731_116.47022","lineId":"北京地铁14号线 / 北京地铁1号线 / 北京地铁28号线","lat":39.907310545,"lon":116.470221045,"area_km2":3.2643,"D":0.5346,"C":0.8908,"T":0.3209,"U1":0.4667,"U2":0.1751,"couplingDegree":0.5346,"level":"勉强协调","road_density":29.1489,"walk_accessibility":0.6545,"metro_line_density":6.2836,"station_count":2,"line_count":4,"population_density":15609.8754,"poi_density":8.5775,"poi_diversity":2.5431,"gdp_density":0.0,"P":15609.8754,"I":8.5775,"G":0.0},{"stationName":"北京国贸(地铁站)","station_id":"北京国贸(地铁站)_39.90743_116.45463","lineId":"北京地铁10号线 / 北京地铁1号线","lat":39.90743234,"lon":116.454626935,"area_km2":3.5147,"D":0.6734,"C":0.9454,"T":0.4796,"U1":0.6358,"U2":0.3234,"couplingDegree":0.6734,"level":"良好协调","road_density":31.697,"walk_accessibility":0.7047,"metro_line_density":5.2167,"station_count":3,"line_count":5,"population_density":24472.0411,"poi_density":20.4854,"poi_diversity":2.703,"gdp_density":48603.9398,"P":24472.0411,"I":20.4854,"G":48603.9398},{"stationName":"北京永安里(地铁站)","station_id":"北京永安里(地铁站)_39.90712_116.44414","lineId":"北京地铁17号线 / 北京地铁1号线","lat":39.907116145,"lon":116.4441439,"area_km2":3.4313,"D":0.5965,"C":0.9999,"T":0.3559,"U1":0.3599,"U2":0.3519,"couplingDegree":0.5965,"level":"勉强协调","road_density":28.5775,"walk_accessibility":0.688,"metro_line_density":4.6829,"station_count":2,"line_count":3,"population_density":27030.4145,"poi_density":26.229,"poi_diversity":2.869,"gdp_density":49785.0692,"P":27030.4145,"I":26.229,"G":49785.0692},{"stationName":"北京建国门(地铁站)","station_id":"北京建国门(地铁站)_39.90718_116.42900","lineId":"北京地铁1号线 / 北京地铁2号线","lat":39.907178425,"lon":116.42900401,"area_km2":3.6693,"D":0.6146,"C":0.9445,"T":0.4,"U1":0.2686,"U2":0.5314,"couplingDegree":0.6146,"level":"良好协调","road_density":28.7287,"walk_accessibility":0.7357,"metro_line_density":5.195,"station_count":2,"line_count":2,"population_density":20391.1363,"poi_density":13.6264,"poi_diversity":2.7442,"gdp_density":167390.4845,"P":20391.1363,"I":13.6264,"G":167390.4845},{"stationName":"北京东单(地铁站)","station_id":"北京东单(地铁站)_39.90692_116.41286","lineId":"北京地铁1号线 / 北京地铁5号线","lat":39.906924186666664,"lon":116.41286102333333,"area_km2":3.6488,"D":0.6222,"C":0.8207,"T":0.4717,"U1":0.7413,"U2":0.2022,"couplingDegree":0.6222,"level":"良好协调","road_density":24.066,"walk_accessibility":0.7316,"metro_line_density":6.3931,"station_count":6,"line_count":4,"population_density":12323.5666,"poi_density":19.4586,"poi_diversity":2.7833,"gdp_density":0.0,"P":12323.5666,"I":19.4586,"G":0.0},{"stationName":"北京王府井(地铁站)","station_id":"北京王府井(地铁站)_39.90733_116.40522","lineId":"北京地铁1号线 / 北京地铁8号线","lat":39.907334565,"lon":116.405216115,"area_km2":3.821,"D":0.6195,"C":0.82,"T":0.4679,"U1":0.7357,"U2":0.2001,"couplingDegree":0.6195,"level":"良好协调","road_density":22.8988,"walk_accessibility":0.7661,"metro_line_density":5.5191,"station_count":6,"line_count":4,"population_density":14429.5686,"poi_density":17.0114,"poi_diversity":2.7469,"gdp_density":0.0,"P":14429.5686,"I":17.0114,"G":0.0},{"stationName":"北京天安门东(地铁站)","station_id":"北京天安门东(地铁站)_39.90638_116.39497","lineId":"北京地铁1号线","lat":39.90637578,"lon":116.39497219,"area_km2":3.7633,"D":0.7549,"C":0.99,"T":0.5756,"U1":0.4946,"U2":0.6566,"couplingDegree":0.7549,"level":"良好协调","road_density":27.7532,"walk_accessibility":0.7545,"metro_line_density":3.4932,"station_count":4,"line_count":3,"population_density":10951.426,"poi_density":12.4889,"poi_diversity":2.707,"gdp_density":245548.9396,"P":10951.426,"I":12.4889,"G":245548.9396},{"stationName":"北京天安门西(地铁站)","station_id":"北京天安门西(地铁站)_39.90607_116.38504","lineId":"北京地铁1号线","lat":39.90607009,"lon":116.38503632,"area_km2":3.6935,"D":0.7546,"C":0.9891,"T":0.5757,"U1":0.4909,"U2":0.6605,"couplingDegree":0.7546,"level":"良好协调","road_density":27.7263,"walk_accessibility":0.7405,"metro_line_density":3.0536,"station_count":4,"line_count":3,"population_density":10536.858,"poi_density":9.2053,"poi_diversity":2.7696,"gdp_density":250191.6268,"P":10536.858,"I":9.2053,"G":250191.6268},{"stationName":"北京西单(地铁站)","station_id":"北京西单(地铁站)_39.90590_116.36902","lineId":"北京地铁1号线 / 北京地铁4号线","lat":39.905897895,"lon":116.36902326,"area_km2":3.9957,"D":0.7469,"C":0.9958,"T":0.5602,"U1":0.5092,"U2":0.6112,"couplingDegree":0.7469,"level":"良好协调","road_density":30.6563,"walk_accessibility":0.8011,"metro_line_density":4.4522,"station_count":4,"line_count":3,"population_density":14821.6664,"poi_density":5.0054,"poi_diversity":1.9123,"gdp_density":245119.224,"P":14821.6664,"I":5.0054,"G":245119.224},{"stationName":"北京复兴门(地铁站)","station_id":"北京复兴门(地铁站)_39.90584_116.35113","lineId":"北京地铁1号线 / 北京地铁2号线","lat":39.905843565,"lon":116.351132115,"area_km2":3.6028,"D":0.5126,"C":0.9652,"T":0.2723,"U1":0.3435,"U2":0.201,"couplingDegree":0.5126,"level":"勉强协调","road_density":27.0003,"walk_accessibility":0.7223,"metro_line_density":6.7051,"station_count":3,"line_count":2,"population_density":24529.7811,"poi_density":8.8821,"poi_diversity":2.6369,"gdp_density":0.0,"P":24529.7811,"I":8.8821,"G":0.0},{"stationName":"北京南礼士路(地铁站)","station_id":"北京南礼士路(地铁站)_39.90588_116.34640","lineId":"北京地铁1号线","lat":39.90587754,"lon":116.34639530000001,"area_km2":3.4212,"D":0.4708,"C":0.9877,"T":0.2244,"U1":0.2595,"U2":0.1894,"couplingDegree":0.4708,"level":"勉强协调","road_density":25.1947,"walk_accessibility":0.6859,"metro_line_density":5.3555,"station_count":2,"line_count":2,"population_density":22123.4038,"poi_density":8.4766,"poi_diversity":2.5279,"gdp_density":0.0,"P":22123.4038,"I":8.4766,"G":0.0},{"stationName":"北京木樨地(地铁站)","station_id":"北京木樨地(地铁站)_39.90703_116.32963","lineId":"北京地铁16号线 / 北京地铁1号线","lat":39.90703202,"lon":116.32962928500001,"area_km2":2.8043,"D":0.6617,"C":0.9971,"T":0.439,"U1":0.4059,"U2":0.4722,"couplingDegree":0.6617,"level":"良好协调","road_density":21.4198,"walk_accessibility":0.5622,"metro_line_density":4.3887,"station_count":3,"line_count":3,"population_density":11262.8108,"poi_density":3.2094,"poi_diversity":1.8892,"gdp_density":180304.2848,"P":11262.8108,"I":3.2094,"G":180304.2848},{"stationName":"北京军事博物馆(地铁站)","station_id":"北京军事博物馆(地铁站)_39.90612_116.31630","lineId":"北京地铁1号线 / 北京地铁9号线","lat":39.906120994999995,"lon":116.31630097,"area_km2":2.4966,"D":0.6387,"C":0.9756,"T":0.4181,"U1":0.5099,"U2":0.3263,"couplingDegree":0.6387,"level":"良好协调","road_density":23.2785,"walk_accessibility":0.5006,"metro_line_density":5.4167,"station_count":3,"line_count":4,"population_density":23478.5985,"poi_density":2.8038,"poi_diversity":1.7479,"gdp_density":94236.23,"P":23478.5985,"I":2.8038,"G":94236.23},{"stationName":"北京公主坟(地铁站)","station_id":"北京公主坟(地铁站)_39.90620_116.30420","lineId":"北京地铁10号线 / 北京地铁1号线","lat":39.90619958,"lon":116.30419570999999,"area_km2":2.8029,"D":0.6065,"C":0.992,"T":0.3709,"U1":0.4178,"U2":0.324,"couplingDegree":0.6065,"level":"良好协调","road_density":25.7154,"walk_accessibility":0.562,"metro_line_density":4.9468,"station_count":3,"line_count":3,"population_density":19455.3871,"poi_density":4.2813,"poi_diversity":2.2539,"gdp_density":83939.3757,"P":19455.3871,"I":4.2813,"G":83939.3757},{"stationName":"北京万寿路(地铁站)","station_id":"北京万寿路(地铁站)_39.90622_116.28870","lineId":"北京地铁1号线","lat":39.90622098,"lon":116.28870022,"area_km2":2.8749,"D":0.2848,"C":0.946,"T":0.0857,"U1":0.0579,"U2":0.1135,"couplingDegree":0.2848,"level":"中度失调","road_density":21.3955,"walk_accessibility":0.5764,"metro_line_density":2.1997,"station_count":1,"line_count":1,"population_density":12150.9284,"poi_density":3.4784,"poi_diversity":1.6434,"gdp_density":0.0,"P":12150.9284,"I":3.4784,"G":0.0},{"stationName":"北京五棵松(地铁站)","station_id":"北京五棵松(地铁站)_39.90623_116.26795","lineId":"北京地铁1号线","lat":39.90623005,"lon":116.26794898,"area_km2":2.4903,"D":0.3604,"C":0.7814,"T":0.1662,"U1":0.0625,"U2":0.2699,"couplingDegree":0.3604,"level":"中度失调","road_density":24.8974,"walk_accessibility":0.4993,"metro_line_density":2.6041,"station_count":1,"line_count":1,"population_density":10770.0677,"poi_density":3.2124,"poi_diversity":1.3209,"gdp_density":90440.9014,"P":10770.0677,"I":3.2124,"G":90440.9014},{"stationName":"北京玉泉路(地铁站)","station_id":"北京玉泉路(地铁站)_39.90622_116.24686","lineId":"北京地铁1号线","lat":39.90621796,"lon":116.24685843,"area_km2":2.5928,"D":0.3467,"C":0.7979,"T":0.1507,"U1":0.0598,"U2":0.2415,"couplingDegree":0.3467,"level":"中度失调","road_density":23.6016,"walk_accessibility":0.5198,"metro_line_density":2.3819,"station_count":1,"line_count":1,"population_density":11955.2281,"poi_density":5.7853,"poi_diversity":1.8763,"gdp_density":57977.0903,"P":11955.2281,"I":5.7853,"G":57977.0903},{"stationName":"北京八宝山(地铁站)","station_id":"北京八宝山(地铁站)_39.90620_116.22987","lineId":"北京地铁1号线","lat":39.90619866,"lon":116.22986889,"area_km2":2.8626,"D":0.2163,"C":0.954,"T":0.049,"U1":0.0637,"U2":0.0343,"couplingDegree":0.2163,"level":"中度失调","road_density":24.138,"walk_accessibility":0.5739,"metro_line_density":2.2868,"station_count":1,"line_count":1,"population_density":14656.4741,"poi_density":0.0,"poi_diversity":0.0,"gdp_density":0.0,"P":14656.4741,"I":0.0,"G":0.0},{"stationName":"北京八角游乐园(地铁站)","station_id":"北京八角游乐园(地铁站)_39.90620_116.20678","lineId":"北京地铁1号线","lat":39.906202304999994,"lon":116.20678491999999,"area_km2":2.7879,"D":0.3257,"C":0.9052,"T":0.1172,"U1":0.0674,"U2":0.167,"couplingDegree":0.3257,"level":"中度失调","road_density":23.1062,"walk_accessibility":0.559,"metro_line_density":3.3559,"station_count":1,"line_count":1,"population_density":10582.428,"poi_density":1.4348,"poi_diversity":1.3863,"gdp_density":37972.3471,"P":10582.428,"I":1.4348,"G":37972.3471},{"stationName":"北京古城(地铁站)","station_id":"北京古城(地铁站)_39.90618_116.18421","lineId":"北京地铁1号线","lat":39.90617559,"lon":116.1842117,"area_km2":2.4431,"D":0.3139,"C":0.8321,"T":0.1184,"U1":0.0527,"U2":0.184,"couplingDegree":0.3139,"level":"中度失调","road_density":20.2471,"walk_accessibility":0.4898,"metro_line_density":2.6,"station_count":1,"line_count":1,"population_density":14032.3219,"poi_density":1.6373,"poi_diversity":1.3863,"gdp_density":42391.6763,"P":14032.3219,"I":1.6373,"G":42391.6763},{"stationName":"北京苹果园(地铁站)","station_id":"北京苹果园(地铁站)_39.92449_116.17224","lineId":"北京地铁1号线","lat":39.92449224,"lon":116.17223959,"area_km2":2.3904,"D":0.1543,"C":0.7423,"T":0.0321,"U1":0.0536,"U2":0.0106,"couplingDegree":0.1543,"level":"极度失调","road_density":26.17,"walk_accessibility":0.4793,"metro_line_density":0.9727,"station_count":1,"line_count":1,"population_density":4134.0044,"poi_density":0.4183,"poi_diversity":0.0,"gdp_density":0.0,"P":4134.0044,"I":0.4183,"G":0.0},{"stationName":"北京福寿岭(地铁站)","station_id":"北京福寿岭(地铁站)_39.93874_116.16497","lineId":"北京地铁1号线","lat":39.93873974,"lon":116.16497423,"area_km2":2.2947,"D":0.2286,"C":0.9436,"T":0.0554,"U1":0.037,"U2":0.0737,"couplingDegree":0.2286,"level":"中度失调","road_density":19.268,"walk_accessibility":0.4601,"metro_line_density":0.683,"station_count":1,"line_count":1,"population_density":8127.7931,"poi_density":1.3073,"poi_diversity":1.0986,"gdp_density":0.0,"P":8127.7931,"I":1.3073,"G":0.0},{"stationName":"北京体育场南街(地铁站)","station_id":"北京体育场南街(地铁站)_39.89169_116.19704","lineId":"北京地铁1号线","lat":39.89168669,"lon":116.19703968,"area_km2":2.0885,"D":0.2038,"C":0.9959,"T":0.0417,"U1":0.0455,"U2":0.0379,"couplingDegree":0.2038,"level":"中度失调","road_density":22.2167,"walk_accessibility":0.4187,"metro_line_density":1.5312,"station_count":1,"line_count":1,"population_density":16191.6902,"poi_density":0.0,"poi_diversity":0.0,"gdp_density":0.0,"P":16191.6902,"I":0.0,"G":0.0},{"stationName":"北京园博园西门(地铁站)","station_id":"北京园博园西门(地铁站)_39.86921_116.18661","lineId":"北京地铁1号线","lat":39.86920673,"lon":116.18661128,"area_km2":2.3562,"D":0.2142,"C":0.9687,"T":0.0474,"U1":0.0591,"U2":0.0356,"couplingDegree":0.2142,"level":"中度失调","road_density":25.0701,"walk_accessibility":0.4724,"metro_line_density":2.2814,"station_count":1,"line_count":1,"population_density":14808.1453,"poi_density":0.4244,"poi_diversity":0.0,"gdp_density":0.0,"P":14808.1453,"I":0.4244,"G":0.0},{"stationName":"北京张郭庄(地铁站)","station_id":"北京张郭庄(地铁站)_39.85682_116.18107","lineId":"北京地铁1号线","lat":39.85682242,"lon":116.181065005,"area_km2":1.6625,"D":0.089,"C":0.3049,"T":0.026,"U1":0.0508,"U2":0.0012,"couplingDegree":0.089,"level":"极度失调","road_density":18.2609,"walk_accessibility":0.3333,"metro_line_density":4.4957,"station_count":1,"line_count":1,"population_density":528.711,"poi_density":0.0,"poi_diversity":0.0,"gdp_density":0.0,"P":528.711,"I":0.0,"G":0.0},{"stationName":"北京西二区(地铁站)","station_id":"北京西二区(地铁站)_39.84771_116.15500","lineId":"北京地铁1号线","lat":39.84771116,"lon":116.15500443,"area_km2":1.7649,"D":0.2046,"C":0.9859,"T":0.0424,"U1":0.0354,"U2":0.0495,"couplingDegree":0.2046,"level":"中度失调","road_density":16.0777,"walk_accessibility":0.3539,"metro_line_density":2.4971,"station_count":1,"line_count":1,"population_density":154.6823,"poi_density":0.0,"poi_diversity":0.0,"gdp_density":25353.4455,"P":154.6823,"I":0.0,"G":25353.4455},{"stationName":"北京后吕村(地铁站)","station_id":"北京后吕村(地铁站)_39.82696_116.16591","lineId":"北京地铁1号线","lat":39.82696008,"lon":116.16591237,"area_km2":1.3813,"D":0.0827,"C":0.8793,"T":0.0078,"U1":0.0115,"U2":0.0041,"couplingDegree":0.0827,"level":"极度失调","road_density":12.4527,"walk_accessibility":0.277,"metro_line_density":0.5772,"station_count":1,"line_count":1,"population_density":1738.924,"poi_density":0.0,"poi_diversity":0.0,"gdp_density":0.0,"P":1738.924,"I":0.0,"G":0.0},{"stationName":"北京云岗(地铁站)","station_id":"北京云岗(地铁站)_39.80876_116.15281","lineId":"北京地铁1号线","lat":39.80875963,"lon":116.15281228,"area_km2":2.7667,"D":0.2123,"C":0.9993,"T":0.0451,"U1":0.0435,"U2":0.0467,"couplingDegree":0.2123,"level":"中度失调","road_density":14.7173,"walk_accessibility":0.5547,"metro_line_density":2.1976,"station_count":1,"line_count":1,"population_density":10130.3601,"poi_density":0.3614,"poi_diversity":0.0,"gdp_density":11454.8465,"P":10130.3601,"I":0.3614,"G":11454.8465},{"stationName":"北京王佐(地铁站)","station_id":"北京王佐(地铁站)_39.80826_116.12665","lineId":"北京地铁1号线","lat":39.80826184,"lon":116.1266468,"area_km2":1.3109,"D":0.1317,"C":0.6753,"T":0.0257,"U1":0.0447,"U2":0.0067,"couplingDegree":0.1317,"level":"极度失调","road_density":16.4552,"walk_accessibility":0.2628,"metro_line_density":4.797,"station_count":1,"line_count":1,"population_density":2880.3802,"poi_density":0.0,"poi_diversity":0.0,"gdp_density":0.0,"P":2880.3802,"I":0.0,"G":0.0},{"stationName":"北京民族大学(地铁站)","station_id":"北京民族大学(地铁站)_39.80524_116.10527","lineId":"北京地铁1号线","lat":39.80523643,"lon":116.10527306,"area_km2":1.8957,"D":0.1474,"C":0.6735,"T":0.0323,"U1":0.0561,"U2":0.0084,"couplingDegree":0.1474,"level":"极度失调","road_density":22.9548,"walk_accessibility":0.3801,"metro_line_density":3.4053,"station_count":1,"line_count":1,"population_density":3594.4027,"poi_density":0.0,"poi_diversity":0.0,"gdp_density":0.0,"P":3594.4027,"I":0.0,"G":0.0},{"stationName":"北京青龙湖东(地铁站)","station_id":"北京青龙湖东(地铁站)_39.80529_116.08906","lineId":"北京地铁1号线","lat":39.80529198,"lon":116.08905708,"area_km2":1.4982,"D":0.1018,"C":0.5339,"T":0.0194,"U1":0.0358,"U2":0.003,"couplingDegree":0.1018,"level":"极度失调","road_density":19.0694,"walk_accessibility":0.3004,"metro_line_density":2.165,"station_count":1,"line_count":1,"population_density":1279.5179,"poi_density":0.0,"poi_diversity":0.0,"gdp_density":0.0,"P":1279.5179,"I":0.0,"G":0.0},{"stationName":"北京积水潭(地铁站)","station_id":"北京积水潭(地铁站)_39.94656_116.36623","lineId":"北京地铁19号线 / 北京地铁2号线","lat":39.946563575,"lon":116.366230905,"area_km2":3.6303,"D":0.5054,"C":0.9439,"T":0.2706,"U1":0.36,"U2":0.1813,"couplingDegree":0.5054,"level":"勉强协调","road_density":26.9792,"walk_accessibility":0.7279,"metro_line_density":4.8,"station_count":2,"line_count":3,"population_density":20995.0486,"poi_density":8.2637,"poi_diversity":2.4214,"gdp_density":0.0,"P":20995.0486,"I":8.2637,"G":0.0},{"stationName":"北京鼓楼大街(地铁站)","station_id":"北京鼓楼大街(地铁站)_39.94686_116.38759","lineId":"北京地铁2号线 / 北京地铁8号线","lat":39.946858335,"lon":116.38759394499999,"area_km2":3.7252,"D":0.5307,"C":0.947,"T":0.2974,"U1":0.393,"U2":0.2019,"couplingDegree":0.5307,"level":"勉强协调","road_density":21.8484,"walk_accessibility":0.7469,"metro_line_density":4.8215,"station_count":4,"line_count":2,"population_density":22522.0851,"poi_density":16.9117,"poi_diversity":2.388,"gdp_density":0.0,"P":22522.0851,"I":16.9117,"G":0.0},{"stationName":"北京安定门(地铁站)","station_id":"北京安定门(地铁站)_39.94768_116.40198","lineId":"北京地铁2号线","lat":39.94768258,"lon":116.4019787,"area_km2":3.6951,"D":0.6126,"C":0.9047,"T":0.4148,"U1":0.5915,"U2":0.2381,"couplingDegree":0.6126,"level":"良好协调","road_density":24.7675,"walk_accessibility":0.7409,"metro_line_density":4.4294,"station_count":4,"line_count":4,"population_density":13694.0319,"poi_density":30.3103,"poi_diversity":2.9794,"gdp_density":0.0,"P":13694.0319,"I":30.3103,"G":0.0},{"stationName":"北京雍和宫(地铁站)","station_id":"北京雍和宫(地铁站)_39.94768_116.41095","lineId":"北京地铁2号线 / 北京地铁5号线","lat":39.947683266666665,"lon":116.41094894666666,"area_km2":3.5745,"D":0.5975,"C":0.9455,"T":0.3776,"U1":0.5005,"U2":0.2547,"couplingDegree":0.5975,"level":"勉强协调","road_density":25.18,"walk_accessibility":0.7167,"metro_line_density":5.6349,"station_count":4,"line_count":3,"population_density":20551.5051,"poi_density":29.0947,"poi_diversity":3.0463,"gdp_density":0.0,"P":20551.5051,"I":29.0947,"G":0.0},{"stationName":"北京东直门(地铁站)","station_id":"北京东直门(地铁站)_39.94034_116.42887","lineId":"北京北京地铁13B号线(马连洼--东直门) / 北京北京首都机场线(3号航站楼--北新桥) / 北京北京首都机场线(北新桥--2号航站楼) / 北京地铁2号线","lat":39.9403378925,"lon":116.428868765,"area_km2":3.3235,"D":0.7312,"C":0.9919,"T":0.539,"U1":0.4708,"U2":0.6073,"couplingDegree":0.7312,"level":"良好协调","road_density":27.5548,"walk_accessibility":0.6663,"metro_line_density":7.3245,"station_count":2,"line_count":4,"population_density":20721.7923,"poi_density":37.3105,"poi_diversity":2.86,"gdp_density":176974.7221,"P":20721.7923,"I":37.3105,"G":176974.7221},{"stationName":"北京东四十条(地铁站)","station_id":"北京东四十条(地铁站)_39.93237_116.42792","lineId":"北京地铁2号线","lat":39.932369255,"lon":116.427919215,"area_km2":3.7501,"D":0.752,"C":0.9969,"T":0.5672,"U1":0.5228,"U2":0.6117,"couplingDegree":0.752,"level":"良好协调","road_density":26.2386,"walk_accessibility":0.7519,"metro_line_density":4.0106,"station_count":3,"line_count":4,"population_density":16191.5117,"poi_density":59.4659,"poi_diversity":2.9925,"gdp_density":156842.6527,"P":16191.5117,"I":59.4659,"G":156842.6527},{"stationName":"北京朝阳门(地铁站)","station_id":"北京朝阳门(地铁站)_39.92311_116.42829","lineId":"北京地铁2号线","lat":39.923105074999995,"lon":116.428294025,"area_km2":3.7714,"D":0.4492,"C":0.966,"T":0.2089,"U1":0.1549,"U2":0.2629,"couplingDegree":0.4492,"level":"勉强协调","road_density":25.5415,"walk_accessibility":0.7562,"metro_line_density":3.4459,"station_count":2,"line_count":1,"population_density":24753.3463,"poi_density":32.349,"poi_diversity":2.8638,"gdp_density":0.0,"P":24753.3463,"I":32.349,"G":0.0},{"stationName":"北京北京站(地铁站)","station_id":"北京北京站(地铁站)_39.90359_116.42106","lineId":"北京地铁2号线","lat":39.90359251,"lon":116.42106293,"area_km2":2.9365,"D":0.7419,"C":0.9962,"T":0.5525,"U1":0.5045,"U2":0.6004,"couplingDegree":0.7419,"level":"良好协调","road_density":27.6918,"walk_accessibility":0.5888,"metro_line_density":6.7913,"station_count":4,"line_count":3,"population_density":18898.6319,"poi_density":11.5786,"poi_diversity":2.6573,"gdp_density":209167.9606,"P":18898.6319,"I":11.5786,"G":209167.9606},{"stationName":"北京崇文门(地铁站)","station_id":"北京崇文门(地铁站)_39.89951_116.41151","lineId":"北京地铁2号线 / 北京地铁5号线","lat":39.89950931,"lon":116.411513985,"area_km2":3.9634,"D":0.6468,"C":0.7946,"T":0.5265,"U1":0.8461,"U2":0.2069,"couplingDegree":0.6468,"level":"良好协调","road_density":24.3115,"walk_accessibility":0.7947,"metro_line_density":6.797,"station_count":6,"line_count":5,"population_density":22580.3813,"poi_density":10.3445,"poi_diversity":2.79,"gdp_density":0.0,"P":22580.3813,"I":10.3445,"G":0.0},{"stationName":"北京前门(地铁站)","station_id":"北京前门(地铁站)_39.89818_116.39258","lineId":"北京地铁2号线 / 北京地铁8号线","lat":39.8981820075,"lon":116.3925803075,"area_km2":4.5298,"D":0.8132,"C":0.9929,"T":0.666,"U1":0.7451,"U2":0.5869,"couplingDegree":0.8132,"level":"优质协调","road_density":25.3332,"walk_accessibility":0.9082,"metro_line_density":4.8168,"station_count":6,"line_count":4,"population_density":15667.516,"poi_density":14.5701,"poi_diversity":2.6082,"gdp_density":204000.5693,"P":15667.516,"I":14.5701,"G":204000.5693},{"stationName":"北京和平门(地铁站)","station_id":"北京和平门(地铁站)_39.89870_116.37797","lineId":"北京地铁2号线","lat":39.89870226,"lon":116.37797399,"area_km2":4.2017,"D":0.6287,"C":0.7737,"T":0.511,"U1":0.8347,"U2":0.1872,"couplingDegree":0.6287,"level":"良好协调","road_density":24.835,"walk_accessibility":0.8424,"metro_line_density":4.3145,"station_count":6,"line_count":5,"population_density":20185.3026,"poi_density":9.282,"poi_diversity":2.541,"gdp_density":0.0,"P":20185.3026,"I":9.282,"G":0.0},{"stationName":"北京宣武门(地铁站)","station_id":"北京宣武门(地铁站)_39.89840_116.36813","lineId":"北京地铁2号线","lat":39.89839593,"lon":116.36813067,"area_km2":4.1688,"D":0.7753,"C":0.9995,"T":0.6015,"U1":0.5821,"U2":0.6208,"couplingDegree":0.7753,"level":"良好协调","road_density":26.6319,"walk_accessibility":0.8358,"metro_line_density":5.8839,"station_count":5,"line_count":3,"population_density":18392.9068,"poi_density":5.997,"poi_diversity":2.3107,"gdp_density":234942.5418,"P":18392.9068,"I":5.997,"G":234942.5418},{"stationName":"北京长椿街(地铁站)","station_id":"北京长椿街(地铁站)_39.89806_116.35715","lineId":"北京地铁2号线","lat":39.89805898,"lon":116.35714731,"area_km2":4.0156,"D":0.5396,"C":0.8616,"T":0.3379,"U1":0.5095,"U2":0.1664,"couplingDegree":0.5396,"level":"勉强协调","road_density":25.4901,"walk_accessibility":0.8051,"metro_line_density":6.0873,"station_count":4,"line_count":3,"population_density":19623.576,"poi_density":5.9767,"poi_diversity":2.2793,"gdp_density":0.0,"P":19623.576,"I":5.9767,"G":0.0},{"stationName":"北京阜成门(地铁站)","station_id":"北京阜成门(地铁站)_39.92231_116.35002","lineId":"北京地铁2号线","lat":39.92231433,"lon":116.35001838,"area_km2":3.4745,"D":0.4412,"C":0.9663,"T":0.2014,"U1":0.2532,"U2":0.1496,"couplingDegree":0.4412,"level":"勉强协调","road_density":24.4268,"walk_accessibility":0.6966,"metro_line_density":4.4805,"station_count":2,"line_count":2,"population_density":12973.3177,"poi_density":4.0293,"poi_diversity":2.342,"gdp_density":0.0,"P":12973.3177,"I":4.0293,"G":0.0},{"stationName":"北京车公庄(地铁站)","station_id":"北京车公庄(地铁站)_39.93115_116.34843","lineId":"北京北京地铁13A号线(车公庄--天通苑东) / 北京地铁2号线","lat":39.931151185,"lon":116.34842879,"area_km2":3.4683,"D":0.5122,"C":0.8865,"T":0.296,"U1":0.4329,"U2":0.159,"couplingDegree":0.5122,"level":"勉强协调","road_density":28.7058,"walk_accessibility":0.6954,"metro_line_density":5.0896,"station_count":3,"line_count":3,"population_density":19997.3346,"poi_density":4.6133,"poi_diversity":2.1661,"gdp_density":0.0,"P":19997.3346,"I":4.6133,"G":0.0},{"stationName":"北京西直门(地铁站)","station_id":"北京西直门(地铁站)_39.93987_116.34739","lineId":"北京北京地铁13A号线(车公庄--天通苑东) / 北京地铁13号线 / 北京地铁2号线","lat":39.93986700333333,"lon":116.34738996,"area_km2":3.6222,"D":0.5622,"C":0.8741,"T":0.3616,"U1":0.5372,"U2":0.1859,"couplingDegree":0.5622,"level":"勉强协调","road_density":29.6218,"walk_accessibility":0.7262,"metro_line_density":5.527,"station_count":3,"line_count":4,"population_density":27055.693,"poi_density":6.3497,"poi_diversity":2.3064,"gdp_density":0.0,"P":27055.693,"I":6.3497,"G":0.0},{"stationName":"北京安河桥北(地铁站)","station_id":"北京安河桥北(地铁站)_40.01097_116.26391","lineId":"北京地铁4号线","lat":40.01096706,"lon":116.26390934,"area_km2":1.7454,"D":0.2851,"C":0.9594,"T":0.0847,"U1":0.1086,"U2":0.0608,"couplingDegree":0.2851,"level":"中度失调","road_density":20.1144,"walk_accessibility":0.35,"metro_line_density":1.827,"station_count":2,"line_count":1,"population_density":11568.6244,"poi_density":1.7188,"poi_diversity":0.6365,"gdp_density":0.0,"P":11568.6244,"I":1.7188,"G":0.0},{"stationName":"北京北宫门(地铁站)","station_id":"北京北宫门(地铁站)_40.00118_116.27129","lineId":"北京地铁4号线","lat":40.00118235,"lon":116.27129476,"area_km2":2.9466,"D":0.3584,"C":0.9995,"T":0.1285,"U1":0.1243,"U2":0.1327,"couplingDegree":0.3584,"level":"中度失调","road_density":20.423,"walk_accessibility":0.5908,"metro_line_density":1.8152,"station_count":2,"line_count":1,"population_density":9652.5302,"poi_density":5.7694,"poi_diversity":2.0685,"gdp_density":0.0,"P":9652.5302,"I":5.7694,"G":0.0},{"stationName":"北京西苑(地铁站)","station_id":"北京西苑(地铁站)_39.99769_116.28543","lineId":"北京地铁16号线 / 北京地铁4号线","lat":39.997691165,"lon":116.28543085000001,"area_km2":2.672,"D":0.3598,"C":0.9609,"T":0.1348,"U1":0.1721,"U2":0.0974,"couplingDegree":0.3598,"level":"中度失调","road_density":25.2967,"walk_accessibility":0.5357,"metro_line_density":4.0067,"station_count":1,"line_count":2,"population_density":9356.0072,"poi_density":4.8653,"poi_diversity":1.3778,"gdp_density":0.0,"P":9356.0072,"I":4.8653,"G":0.0},{"stationName":"北京圆明园(地铁站)","station_id":"北京圆明园(地铁站)_39.99830_116.30377","lineId":"北京地铁4号线","lat":39.99829899,"lon":116.3037747,"area_km2":3.741,"D":0.4438,"C":0.9529,"T":0.2067,"U1":0.144,"U2":0.2694,"couplingDegree":0.4438,"level":"勉强协调","road_density":25.9283,"walk_accessibility":0.7501,"metro_line_density":1.6334,"station_count":2,"line_count":1,"population_density":8114.4795,"poi_density":8.8212,"poi_diversity":2.5218,"gdp_density":57951.3263,"P":8114.4795,"I":8.8212,"G":57951.3263},{"stationName":"北京北京大学东门(地铁站)","station_id":"北京北京大学东门(地铁站)_39.99084_116.30969","lineId":"北京地铁4号线","lat":39.990835329999996,"lon":116.309693915,"area_km2":4.3632,"D":0.5103,"C":0.9902,"T":0.263,"U1":0.2263,"U2":0.2996,"couplingDegree":0.5103,"level":"勉强协调","road_density":28.872,"walk_accessibility":0.8748,"metro_line_density":1.4628,"station_count":3,"line_count":1,"population_density":10907.3551,"poi_density":17.6476,"poi_diversity":2.959,"gdp_density":49686.8975,"P":10907.3551,"I":17.6476,"G":49686.8975},{"stationName":"北京中关村(地铁站)","station_id":"北京中关村(地铁站)_39.98270_116.31035","lineId":"北京地铁4号线","lat":39.98269844,"lon":116.31034931,"area_km2":4.1381,"D":0.4677,"C":0.9975,"T":0.2193,"U1":0.2347,"U2":0.2039,"couplingDegree":0.4677,"level":"勉强协调","road_density":31.2503,"walk_accessibility":0.8297,"metro_line_density":2.5128,"station_count":3,"line_count":1,"population_density":12655.366,"poi_density":22.9575,"poi_diversity":2.6436,"gdp_density":0.0,"P":12655.366,"I":22.9575,"G":0.0},{"stationName":"北京海淀黄庄(地铁站)","station_id":"北京海淀黄庄(地铁站)_39.97470_116.31145","lineId":"北京地铁4号线","lat":39.974701659999994,"lon":116.3114453,"area_km2":4.146,"D":0.5687,"C":0.8572,"T":0.3772,"U1":0.5715,"U2":0.183,"couplingDegree":0.5687,"level":"勉强协调","road_density":27.7459,"walk_accessibility":0.8313,"metro_line_density":3.8641,"station_count":5,"line_count":3,"population_density":13473.0168,"poi_density":10.8539,"poi_diversity":2.7127,"gdp_density":0.0,"P":13473.0168,"I":10.8539,"G":0.0},{"stationName":"北京人民大学(地铁站)","station_id":"北京人民大学(地铁站)_39.96568_116.31625","lineId":"北京地铁12号线 / 北京地铁4号线","lat":39.965683935,"lon":116.3162508925,"area_km2":3.6043,"D":0.5631,"C":0.9151,"T":0.3464,"U1":0.4861,"U2":0.2068,"couplingDegree":0.5631,"level":"勉强协调","road_density":23.7834,"walk_accessibility":0.7226,"metro_line_density":3.7034,"station_count":4,"line_count":3,"population_density":20643.3477,"poi_density":14.4274,"poi_diversity":2.6977,"gdp_density":0.0,"P":20643.3477,"I":14.4274,"G":0.0},{"stationName":"北京魏公村(地铁站)","station_id":"北京魏公村(地铁站)_39.95660_116.31709","lineId":"北京地铁4号线","lat":39.95660038,"lon":116.31709131,"area_km2":3.0011,"D":0.4594,"C":0.9962,"T":0.2118,"U1":0.2302,"U2":0.1935,"couplingDegree":0.4594,"level":"勉强协调","road_density":21.1081,"walk_accessibility":0.6017,"metro_line_density":2.7829,"station_count":2,"line_count":2,"population_density":17198.9177,"poi_density":11.9955,"poi_diversity":2.6975,"gdp_density":0.0,"P":17198.9177,"I":11.9955,"G":0.0},{"stationName":"北京国家图书馆(地铁站)","station_id":"北京国家图书馆(地铁站)_39.94121_116.31825","lineId":"北京地铁16号线 / 北京地铁4号线","lat":39.941212379999996,"lon":116.318246475,"area_km2":3.0594,"D":0.4845,"C":0.9267,"T":0.2533,"U1":0.3486,"U2":0.1581,"couplingDegree":0.4845,"level":"勉强协调","road_density":24.7985,"walk_accessibility":0.6134,"metro_line_density":4.8041,"station_count":2,"line_count":3,"population_density":10866.2156,"poi_density":13.0745,"poi_diversity":2.2136,"gdp_density":0.0,"P":10866.2156,"I":13.0745,"G":0.0},{"stationName":"北京动物园(地铁站)","station_id":"北京动物园(地铁站)_39.93692_116.33287","lineId":"北京地铁4号线","lat":39.93691647,"lon":116.33286818,"area_km2":3.6505,"D":0.6318,"C":0.9019,"T":0.4426,"U1":0.2514,"U2":0.6339,"couplingDegree":0.6318,"level":"良好协调","road_density":27.0671,"walk_accessibility":0.7319,"metro_line_density":2.9999,"station_count":2,"line_count":2,"population_density":10852.7131,"poi_density":9.5877,"poi_diversity":2.515,"gdp_density":241824.7347,"P":10852.7131,"I":9.5877,"G":241824.7347},{"stationName":"北京新街口(地铁站)","station_id":"北京新街口(地铁站)_39.93930_116.36137","lineId":"北京地铁4号线","lat":39.93930279,"lon":116.36136746,"area_km2":3.5799,"D":0.8085,"C":0.9984,"T":0.6548,"U1":0.6922,"U2":0.6173,"couplingDegree":0.8085,"level":"优质协调","road_density":24.8868,"walk_accessibility":0.7178,"metro_line_density":5.0778,"station_count":4,"line_count":5,"population_density":16826.5161,"poi_density":5.5867,"poi_diversity":2.1548,"gdp_density":239305.3605,"P":16826.5161,"I":5.5867,"G":239305.3605},{"stationName":"北京平安里(地铁站)","station_id":"北京平安里(地铁站)_39.93227_116.36427","lineId":"北京地铁19号线 / 北京地铁4号线","lat":39.93226757,"lon":116.364273705,"area_km2":3.8548,"D":0.6588,"C":0.9461,"T":0.4587,"U1":0.3102,"U2":0.6072,"couplingDegree":0.6588,"level":"良好协调","road_density":19.716,"walk_accessibility":0.7729,"metro_line_density":3.137,"station_count":3,"line_count":2,"population_density":25094.7318,"poi_density":5.1883,"poi_diversity":2.2503,"gdp_density":222242.7943,"P":25094.7318,"I":5.1883,"G":222242.7943},{"stationName":"北京西四(地铁站)","station_id":"北京西四(地铁站)_39.92282_116.36711","lineId":"北京地铁4号线","lat":39.92281814,"lon":116.36710643,"area_km2":3.7255,"D":0.4952,"C":0.9743,"T":0.2517,"U1":0.3085,"U2":0.195,"couplingDegree":0.4952,"level":"勉强协调","road_density":20.9826,"walk_accessibility":0.747,"metro_line_density":2.7234,"station_count":3,"line_count":2,"population_density":24921.7447,"poi_density":6.4421,"poi_diversity":2.6004,"gdp_density":0.0,"P":24921.7447,"I":6.4421,"G":0.0},{"stationName":"北京灵境胡同(地铁站)","station_id":"北京灵境胡同(地铁站)_39.91467_116.36747","lineId":"北京地铁4号线","lat":39.91466706,"lon":116.36747094,"area_km2":3.7655,"D":0.4817,"C":0.9487,"T":0.2445,"U1":0.3218,"U2":0.1672,"couplingDegree":0.4817,"level":"勉强协调","road_density":27.2251,"walk_accessibility":0.755,"metro_line_density":2.8212,"station_count":3,"line_count":2,"population_density":22037.1779,"poi_density":6.108,"poi_diversity":2.1711,"gdp_density":0.0,"P":22037.1779,"I":6.108,"G":0.0},{"stationName":"北京菜市口(地铁站)","station_id":"北京菜市口(地铁站)_39.88791_116.36820","lineId":"北京地铁4号线","lat":39.88791012,"lon":116.36820207,"area_km2":4.0872,"D":0.5073,"C":0.8212,"T":0.3133,"U1":0.4921,"U2":0.1346,"couplingDegree":0.5073,"level":"勉强协调","road_density":23.0015,"walk_accessibility":0.8195,"metro_line_density":3.94,"station_count":4,"line_count":3,"population_density":9409.2845,"poi_density":4.404,"poi_diversity":2.1832,"gdp_density":0.0,"P":9409.2845,"I":4.404,"G":0.0},{"stationName":"北京陶然亭(地铁站)","station_id":"北京陶然亭(地铁站)_39.87708_116.36816","lineId":"北京地铁4号线","lat":39.87708289,"lon":116.36816223,"area_km2":3.705,"D":0.5294,"C":0.8119,"T":0.3452,"U1":0.1437,"U2":0.5467,"couplingDegree":0.5294,"level":"勉强协调","road_density":24.3232,"walk_accessibility":0.7428,"metro_line_density":2.1612,"station_count":2,"line_count":1,"population_density":9136.5355,"poi_density":2.1592,"poi_diversity":1.4942,"gdp_density":232036.7202,"P":9136.5355,"I":2.1592,"G":232036.7202},{"stationName":"北京北京南站(地铁站)","station_id":"北京北京南站(地铁站)_39.86364_116.37274","lineId":"北京地铁4号线","lat":39.86363771,"lon":116.37273769,"area_km2":2.4778,"D":0.4057,"C":0.6803,"T":0.2419,"U1":0.4192,"U2":0.0646,"couplingDegree":0.4057,"level":"勉强协调","road_density":32.3477,"walk_accessibility":0.4968,"metro_line_density":3.7361,"station_count":3,"line_count":3,"population_density":12875.6994,"poi_density":0.8072,"poi_diversity":0.6931,"gdp_density":0.0,"P":12875.6994,"I":0.8072,"G":0.0},{"stationName":"北京马家堡(地铁站)","station_id":"北京马家堡(地铁站)_39.85205_116.36519","lineId":"北京地铁4号线","lat":39.85204598,"lon":116.36518746,"area_km2":2.5397,"D":0.5164,"C":0.9205,"T":0.2897,"U1":0.4029,"U2":0.1765,"couplingDegree":0.5164,"level":"勉强协调","road_density":24.7372,"walk_accessibility":0.5092,"metro_line_density":3.3991,"station_count":3,"line_count":3,"population_density":16061.1126,"poi_density":3.15,"poi_diversity":1.7329,"gdp_density":25923.0058,"P":16061.1126,"I":3.15,"G":25923.0058},{"stationName":"北京角门西(地铁站)","station_id":"北京角门西(地铁站)_39.84447_116.36494","lineId":"北京地铁4号线","lat":39.84446936,"lon":116.36494051,"area_km2":2.908,"D":0.4626,"C":0.8628,"T":0.248,"U1":0.3734,"U2":0.1226,"couplingDegree":0.4626,"level":"勉强协调","road_density":20.1621,"walk_accessibility":0.583,"metro_line_density":3.8633,"station_count":4,"line_count":2,"population_density":5650.6743,"poi_density":2.4072,"poi_diversity":1.277,"gdp_density":22639.8366,"P":5650.6743,"I":2.4072,"G":22639.8366},{"stationName":"北京公益西桥(地铁站)","station_id":"北京公益西桥(地铁站)_39.83560_116.36462","lineId":"北京地铁4号线","lat":39.83560069,"lon":116.364624815,"area_km2":2.3942,"D":0.3389,"C":0.9932,"T":0.1156,"U1":0.129,"U2":0.1022,"couplingDegree":0.3389,"level":"中度失调","road_density":22.1036,"walk_accessibility":0.48,"metro_line_density":3.1682,"station_count":2,"line_count":1,"population_density":6122.2626,"poi_density":0.8353,"poi_diversity":0.6931,"gdp_density":27497.9724,"P":6122.2626,"I":0.8353,"G":27497.9724},{"stationName":"北京新宫(地铁站)","station_id":"北京新宫(地铁站)_39.81110_116.36053","lineId":"北京地铁19号线 / 北京地铁4号线","lat":39.811095865,"lon":116.360533335,"area_km2":2.2257,"D":0.3197,"C":0.9279,"T":0.1101,"U1":0.1512,"U2":0.0691,"couplingDegree":0.3197,"level":"中度失调","road_density":18.6059,"walk_accessibility":0.4462,"metro_line_density":3.6556,"station_count":1,"line_count":2,"population_density":7290.3917,"poi_density":0.0,"poi_diversity":0.0,"gdp_density":26805.1967,"P":7290.3917,"I":0.0,"G":26805.1967},{"stationName":"北京西红门(地铁站)","station_id":"北京西红门(地铁站)_39.78849_116.32257","lineId":"北京地铁4号线","lat":39.78849495,"lon":116.32256772,"area_km2":2.6055,"D":0.2329,"C":0.9686,"T":0.056,"U1":0.0699,"U2":0.0421,"couplingDegree":0.2329,"level":"中度失调","road_density":28.3379,"walk_accessibility":0.5224,"metro_line_density":2.4856,"station_count":1,"line_count":1,"population_density":3297.6907,"poi_density":0.7676,"poi_diversity":0.6931,"gdp_density":0.0,"P":3297.6907,"I":0.7676,"G":0.0},{"stationName":"北京高米店北(地铁站)","station_id":"北京高米店北(地铁站)_39.77224_116.32466","lineId":"北京地铁4号线","lat":39.77223949,"lon":116.32466397,"area_km2":3.4184,"D":0.1532,"C":0.3238,"T":0.0725,"U1":0.141,"U2":0.0039,"couplingDegree":0.1532,"level":"极度失调","road_density":25.8845,"walk_accessibility":0.6854,"metro_line_density":1.8224,"station_count":2,"line_count":1,"population_density":1667.138,"poi_density":0.0,"poi_diversity":0.0,"gdp_density":0.0,"P":1667.138,"I":0.0,"G":0.0},{"stationName":"北京高米店南(地铁站)","station_id":"北京高米店南(地铁站)_39.76218_116.32548","lineId":"北京地铁4号线","lat":39.76217953,"lon":116.3254801,"area_km2":3.2138,"D":0.3026,"C":0.7361,"T":0.1244,"U1":0.2086,"U2":0.0402,"couplingDegree":0.3026,"level":"中度失调","road_density":25.4687,"walk_accessibility":0.6444,"metro_line_density":2.0195,"station_count":3,"line_count":1,"population_density":2622.4284,"poi_density":0.6223,"poi_diversity":0.6931,"gdp_density":0.0,"P":2622.4284,"I":0.6223,"G":0.0},{"stationName":"北京枣园(地铁站)","station_id":"北京枣园(地铁站)_39.75215_116.32608","lineId":"北京地铁4号线","lat":39.75215002,"lon":116.32608054,"area_km2":2.4952,"D":0.3446,"C":0.8882,"T":0.1337,"U1":0.1952,"U2":0.0723,"couplingDegree":0.3446,"level":"中度失调","road_density":21.6428,"walk_accessibility":0.5003,"metro_line_density":2.5227,"station_count":3,"line_count":1,"population_density":4238.9921,"poi_density":1.2023,"poi_diversity":0.6365,"gdp_density":15323.8143,"P":4238.9921,"I":1.2023,"G":15323.8143},{"stationName":"北京清源路(地铁站)","station_id":"北京清源路(地铁站)_39.74142_116.32639","lineId":"北京地铁4号线","lat":39.741415575,"lon":116.32638975,"area_km2":2.6758,"D":0.3353,"C":0.8553,"T":0.1314,"U1":0.1995,"U2":0.0633,"couplingDegree":0.3353,"level":"中度失调","road_density":23.1035,"walk_accessibility":0.5365,"metro_line_density":2.3937,"station_count":3,"line_count":1,"population_density":4710.691,"poi_density":1.4949,"poi_diversity":1.0397,"gdp_density":0.0,"P":4710.691,"I":1.4949,"G":0.0},{"stationName":"北京黄村西大街(地铁站)","station_id":"北京黄村西大街(地铁站)_39.73046_116.32651","lineId":"北京地铁4号线","lat":39.73046207,"lon":116.32650872,"area_km2":2.6262,"D":0.3753,"C":0.9466,"T":0.1488,"U1":0.1968,"U2":0.1008,"couplingDegree":0.3753,"level":"中度失调","road_density":21.7553,"walk_accessibility":0.5265,"metro_line_density":2.4758,"station_count":3,"line_count":1,"population_density":10861.2701,"poi_density":2.6654,"poi_diversity":1.4751,"gdp_density":0.0,"P":10861.2701,"I":2.6654,"G":0.0},{"stationName":"北京黄村火车站(地铁站)","station_id":"北京黄村火车站(地铁站)_39.72166_116.32649","lineId":"北京地铁4号线","lat":39.72166095,"lon":116.32648997,"area_km2":1.8206,"D":0.347,"C":0.9996,"T":0.1205,"U1":0.1169,"U2":0.124,"couplingDegree":0.347,"level":"中度失调","road_density":21.129,"walk_accessibility":0.365,"metro_line_density":2.6877,"station_count":2,"line_count":1,"population_density":11568.5631,"poi_density":1.6478,"poi_diversity":1.0986,"gdp_density":21418.759,"P":11568.5631,"I":1.6478,"G":21418.759},{"stationName":"北京义和庄(地铁站)","station_id":"北京义和庄(地铁站)_39.71111_116.31299","lineId":"北京地铁4号线","lat":39.71110932,"lon":116.31299041,"area_km2":2.0648,"D":0.1178,"C":0.541,"T":0.0256,"U1":0.0472,"U2":0.0041,"couplingDegree":0.1178,"level":"极度失调","road_density":19.0962,"walk_accessibility":0.414,"metro_line_density":2.8437,"station_count":1,"line_count":1,"population_density":1741.0569,"poi_density":0.0,"poi_diversity":0.0,"gdp_density":0.0,"P":1741.0569,"I":0.0,"G":0.0},{"stationName":"北京生物医药基地(地铁站)","station_id":"北京生物医药基地(地铁站)_39.68523_116.31557","lineId":"北京地铁4号线","lat":39.68523023,"lon":116.31557012,"area_km2":1.9068,"D":0.132,"C":0.5631,"T":0.0309,"U1":0.0565,"U2":0.0054,"couplingDegree":0.132,"level":"极度失调","road_density":24.0617,"walk_accessibility":0.3823,"metro_line_density":3.0917,"station_count":1,"line_count":1,"population_density":2293.3668,"poi_density":0.0,"poi_diversity":0.0,"gdp_density":0.0,"P":2293.3668,"I":0.0,"G":0.0},{"stationName":"北京天宫院(地铁站)","station_id":"北京天宫院(地铁站)_39.66907_116.31385","lineId":"北京地铁4号线","lat":39.66906896,"lon":116.31384701,"area_km2":2.0194,"D":0.2166,"C":0.9956,"T":0.0471,"U1":0.0515,"U2":0.0427,"couplingDegree":0.2166,"level":"中度失调","road_density":25.3578,"walk_accessibility":0.4049,"metro_line_density":1.6525,"station_count":1,"line_count":1,"population_density":3675.3048,"poi_density":0.0,"poi_diversity":0.0,"gdp_density":17562.1829,"P":3675.3048,"I":0.0,"G":17562.1829},{"stationName":"北京天通苑北(地铁站)","station_id":"北京天通苑北(地铁站)_40.08226_116.40663","lineId":"北京地铁5号线","lat":40.08225789,"lon":116.40662522,"area_km2":1.4887,"D":0.3655,"C":0.8972,"T":0.1489,"U1":0.2146,"U2":0.0831,"couplingDegree":0.3655,"level":"中度失调","road_density":24.8832,"walk_accessibility":0.2985,"metro_line_density":2.1514,"station_count":2,"line_count":2,"population_density":11497.8991,"poi_density":2.0152,"poi_diversity":1.0986,"gdp_density":0.0,"P":11497.8991,"I":2.0152,"G":0.0},{"stationName":"北京天通苑(地铁站)","station_id":"北京天通苑(地铁站)_40.07330_116.40670","lineId":"北京北京地铁13A号线(车公庄--天通苑东) / 北京地铁5号线","lat":40.07330092,"lon":116.40670434,"area_km2":2.7874,"D":0.4293,"C":0.8825,"T":0.2088,"U1":0.3071,"U2":0.1106,"couplingDegree":0.4293,"level":"勉强协调","road_density":23.509,"walk_accessibility":0.5589,"metro_line_density":3.6044,"station_count":3,"line_count":2,"population_density":6592.4755,"poi_density":4.3051,"poi_diversity":1.8201,"gdp_density":0.0,"P":6592.4755,"I":4.3051,"G":0.0},{"stationName":"北京天通苑南(地铁站)","station_id":"北京天通苑南(地铁站)_40.06520_116.40642","lineId":"北京地铁5号线","lat":40.06520323,"lon":116.40642287,"area_km2":2.418,"D":0.4436,"C":0.9866,"T":0.1994,"U1":0.232,"U2":0.1669,"couplingDegree":0.4436,"level":"勉强协调","road_density":24.4147,"walk_accessibility":0.4848,"metro_line_density":3.2079,"station_count":2,"line_count":2,"population_density":4885.0915,"poi_density":18.1971,"poi_diversity":2.4626,"gdp_density":0.0,"P":4885.0915,"I":18.1971,"G":0.0},{"stationName":"北京立水桥(地铁站)","station_id":"北京立水桥(地铁站)_40.05150_116.40549","lineId":"北京北京地铁13B号线(马连洼--东直门) / 北京地铁5号线","lat":40.05150289,"lon":116.40548945,"area_km2":2.6383,"D":0.4911,"C":1.0,"T":0.2412,"U1":0.2428,"U2":0.2396,"couplingDegree":0.4911,"level":"勉强协调","road_density":22.9361,"walk_accessibility":0.529,"metro_line_density":4.9724,"station_count":2,"line_count":2,"population_density":8502.3543,"poi_density":44.7253,"poi_diversity":2.6096,"gdp_density":0.0,"P":8502.3543,"I":44.7253,"G":0.0},{"stationName":"北京立水桥南(地铁站)","station_id":"北京立水桥南(地铁站)_40.04055_116.40824","lineId":"北京地铁5号线","lat":40.04054998,"lon":116.40823958,"area_km2":3.2103,"D":0.4631,"C":0.9914,"T":0.2163,"U1":0.2446,"U2":0.188,"couplingDegree":0.4631,"level":"勉强协调","road_density":26.6701,"walk_accessibility":0.6437,"metro_line_density":2.9139,"station_count":2,"line_count":2,"population_density":5276.4535,"poi_density":23.0508,"poi_diversity":2.6686,"gdp_density":0.0,"P":5276.4535,"I":23.0508,"G":0.0},{"stationName":"北京北苑路北(地铁站)","station_id":"北京北苑路北(地铁站)_40.02903_116.41184","lineId":"北京地铁5号线","lat":40.02903149,"lon":116.4118377,"area_km2":3.1353,"D":0.3249,"C":0.9056,"T":0.1166,"U1":0.0671,"U2":0.166,"couplingDegree":0.3249,"level":"中度失调","road_density":24.7084,"walk_accessibility":0.6286,"metro_line_density":2.1066,"station_count":1,"line_count":1,"population_density":6774.531,"poi_density":13.077,"poi_diversity":2.5844,"gdp_density":0.0,"P":6774.531,"I":13.077,"G":0.0},{"stationName":"北京大屯路东(地铁站)","station_id":"北京大屯路东(地铁站)_40.00208_116.41178","lineId":"北京地铁15号线 / 北京地铁5号线","lat":40.002081430000004,"lon":116.411780315,"area_km2":2.9219,"D":0.4686,"C":0.9475,"T":0.2318,"U1":0.3059,"U2":0.1576,"couplingDegree":0.4686,"level":"勉强协调","road_density":20.0391,"walk_accessibility":0.5858,"metro_line_density":4.2421,"station_count":3,"line_count":2,"population_density":6613.7598,"poi_density":20.8766,"poi_diversity":2.0574,"gdp_density":0.0,"P":6613.7598,"I":20.8766,"G":0.0},{"stationName":"北京惠新西街北口(地铁站)","station_id":"北京惠新西街北口(地铁站)_39.98643_116.41078","lineId":"北京地铁5号线","lat":39.98643254,"lon":116.41078098,"area_km2":3.2078,"D":0.3495,"C":0.9928,"T":0.123,"U1":0.1377,"U2":0.1083,"couplingDegree":0.3495,"level":"中度失调","road_density":24.5332,"walk_accessibility":0.6432,"metro_line_density":2.1487,"station_count":2,"line_count":1,"population_density":9879.6187,"poi_density":7.17,"poi_diversity":1.4774,"gdp_density":0.0,"P":9879.6187,"I":7.17,"G":0.0},{"stationName":"北京惠新西街南口(地铁站)","station_id":"北京惠新西街南口(地铁站)_39.97572_116.41129","lineId":"北京地铁5号线","lat":39.97571918,"lon":116.41129263,"area_km2":3.5617,"D":0.4882,"C":0.7748,"T":0.3076,"U1":0.5021,"U2":0.1132,"couplingDegree":0.4882,"level":"勉强协调","road_density":30.6283,"walk_accessibility":0.7141,"metro_line_density":4.2027,"station_count":4,"line_count":3,"population_density":10046.2497,"poi_density":3.6499,"poi_diversity":1.7327,"gdp_density":0.0,"P":10046.2497,"I":3.6499,"G":0.0},{"stationName":"北京和平西桥(地铁站)","station_id":"北京和平西桥(地铁站)_39.96731_116.41173","lineId":"北京地铁12号线 / 北京地铁5号线","lat":39.9673059,"lon":116.41172969499999,"area_km2":3.5985,"D":0.4679,"C":0.9171,"T":0.2387,"U1":0.3339,"U2":0.1435,"couplingDegree":0.4679,"level":"勉强协调","road_density":29.5954,"walk_accessibility":0.7215,"metro_line_density":4.349,"station_count":3,"line_count":2,"population_density":18238.6233,"poi_density":5.0021,"poi_diversity":1.908,"gdp_density":0.0,"P":18238.6233,"I":5.0021,"G":0.0},{"stationName":"北京和平里北街(地铁站)","station_id":"北京和平里北街(地铁站)_39.95733_116.41226","lineId":"北京地铁5号线","lat":39.95733325,"lon":116.41226237,"area_km2":2.9274,"D":0.4614,"C":0.8287,"T":0.2569,"U1":0.4007,"U2":0.1131,"couplingDegree":0.4614,"level":"勉强协调","road_density":23.1034,"walk_accessibility":0.5869,"metro_line_density":2.7775,"station_count":3,"line_count":3,"population_density":9932.81,"poi_density":3.416,"poi_diversity":1.7481,"gdp_density":0.0,"P":9932.81,"I":3.416,"G":0.0},{"stationName":"北京北新桥(地铁站)","station_id":"北京北新桥(地铁站)_39.93949_116.41013","lineId":"北京北京首都机场线(3号航站楼--北新桥) / 北京地铁5号线","lat":39.93948625,"lon":116.41013218500001,"area_km2":3.9454,"D":0.6041,"C":0.9629,"T":0.379,"U1":0.4813,"U2":0.2767,"couplingDegree":0.6041,"level":"良好协调","road_density":20.4869,"walk_accessibility":0.791,"metro_line_density":3.2717,"station_count":4,"line_count":3,"population_density":21257.4471,"poi_density":40.3002,"poi_diversity":2.9646,"gdp_density":0.0,"P":21257.4471,"I":40.3002,"G":0.0},{"stationName":"北京张自忠路(地铁站)","station_id":"北京张自忠路(地铁站)_39.93223_116.41116","lineId":"北京地铁5号线","lat":39.93223467,"lon":116.41116327,"area_km2":4.0523,"D":0.607,"C":0.9287,"T":0.3968,"U1":0.5439,"U2":0.2496,"couplingDegree":0.607,"level":"良好协调","road_density":19.0259,"walk_accessibility":0.8125,"metro_line_density":2.3706,"station_count":5,"line_count":3,"population_density":16485.8724,"poi_density":30.6002,"poi_diversity":3.0722,"gdp_density":0.0,"P":16485.8724,"I":30.6002,"G":0.0},{"stationName":"北京东四(地铁站)","station_id":"北京东四(地铁站)_39.92297_116.41125","lineId":"北京地铁5号线","lat":39.922969635,"lon":116.41125493,"area_km2":3.9965,"D":0.5824,"C":0.9627,"T":0.3523,"U1":0.4477,"U2":0.257,"couplingDegree":0.5824,"level":"勉强协调","road_density":20.2685,"walk_accessibility":0.8013,"metro_line_density":2.3495,"station_count":5,"line_count":2,"population_density":20946.5041,"poi_density":31.7777,"poi_diversity":2.9533,"gdp_density":0.0,"P":20946.5041,"I":31.7777,"G":0.0},{"stationName":"北京灯市口(地铁站)","station_id":"北京灯市口(地铁站)_39.91571_116.41155","lineId":"北京地铁5号线","lat":39.915714,"lon":116.41154568,"area_km2":4.0781,"D":0.6121,"C":0.8853,"T":0.4232,"U1":0.6199,"U2":0.2264,"couplingDegree":0.6121,"level":"良好协调","road_density":20.4871,"walk_accessibility":0.8177,"metro_line_density":2.8638,"station_count":6,"line_count":3,"population_density":15219.5205,"poi_density":28.1993,"poi_diversity":2.7533,"gdp_density":0.0,"P":15219.5205,"I":28.1993,"G":0.0},{"stationName":"北京磁器口(地铁站)","station_id":"北京磁器口(地铁站)_39.89171_116.41299","lineId":"北京地铁5号线 / 北京地铁7号线","lat":39.891711826666665,"lon":116.41299282,"area_km2":4.2768,"D":0.5761,"C":0.8742,"T":0.3797,"U1":0.5641,"U2":0.1953,"couplingDegree":0.5761,"level":"勉强协调","road_density":23.5325,"walk_accessibility":0.8575,"metro_line_density":3.7415,"station_count":5,"line_count":3,"population_density":24942.5452,"poi_density":9.119,"poi_diversity":2.4845,"gdp_density":0.0,"P":24942.5452,"I":9.119,"G":0.0},{"stationName":"北京天坛东门(地铁站)","station_id":"北京天坛东门(地铁站)_39.88116_116.41460","lineId":"北京地铁5号线","lat":39.88116352,"lon":116.41460329,"area_km2":3.6332,"D":0.4394,"C":0.9763,"T":0.1978,"U1":0.2406,"U2":0.155,"couplingDegree":0.4394,"level":"勉强协调","road_density":25.0555,"walk_accessibility":0.7284,"metro_line_density":1.9214,"station_count":2,"line_count":2,"population_density":15989.6441,"poi_density":4.9544,"poi_diversity":2.264,"gdp_density":0.0,"P":15989.6441,"I":4.9544,"G":0.0},{"stationName":"北京蒲黄榆(地铁站)","station_id":"北京蒲黄榆(地铁站)_39.86422_116.41615","lineId":"北京地铁14号线 / 北京地铁5号线","lat":39.86422005,"lon":116.416150725,"area_km2":3.005,"D":0.4705,"C":0.9432,"T":0.2347,"U1":0.3127,"U2":0.1567,"couplingDegree":0.4705,"level":"勉强协调","road_density":23.2202,"walk_accessibility":0.6025,"metro_line_density":4.1573,"station_count":3,"line_count":2,"population_density":11720.605,"poi_density":16.3063,"poi_diversity":1.9933,"gdp_density":0.0,"P":11720.605,"I":16.3063,"G":0.0},{"stationName":"北京刘家窑(地铁站)","station_id":"北京刘家窑(地铁站)_39.85613_116.41589","lineId":"北京地铁5号线","lat":39.85612865,"lon":116.41589348,"area_km2":2.6725,"D":0.4477,"C":0.9898,"T":0.2025,"U1":0.2313,"U2":0.1737,"couplingDegree":0.4477,"level":"勉强协调","road_density":22.4152,"walk_accessibility":0.5358,"metro_line_density":3.2135,"station_count":2,"line_count":2,"population_density":32947.0029,"poi_density":5.9868,"poi_diversity":1.771,"gdp_density":0.0,"P":32947.0029,"I":5.9868,"G":0.0},{"stationName":"北京宋家庄(地铁站)","station_id":"北京宋家庄(地铁站)_39.84389_116.42216","lineId":"北京地铁5号线 / 北京地铁亦庄线","lat":39.84389135666667,"lon":116.42216049333335,"area_km2":2.6134,"D":0.387,"C":0.755,"T":0.1983,"U1":0.3284,"U2":0.0683,"couplingDegree":0.387,"level":"中度失调","road_density":18.7239,"walk_accessibility":0.524,"metro_line_density":4.3828,"station_count":2,"line_count":3,"population_density":7481.7303,"poi_density":0.0,"poi_diversity":0.0,"gdp_density":26170.5593,"P":7481.7303,"I":0.0,"G":26170.5593},{"stationName":"北京潞城(地铁站)","station_id":"北京潞城(地铁站)_39.90160_116.74143","lineId":"北京地铁6号线","lat":39.901600245,"lon":116.741425155,"area_km2":2.4572,"D":0.1091,"C":0.3796,"T":0.0314,"U1":0.0604,"U2":0.0023,"couplingDegree":0.1091,"level":"极度失调","road_density":25.3715,"walk_accessibility":0.4927,"metro_line_density":2.185,"station_count":1,"line_count":1,"population_density":1002.3537,"poi_density":0.0,"poi_diversity":0.0,"gdp_density":0.0,"P":1002.3537,"I":0.0,"G":0.0},{"stationName":"北京潞阳(地铁站)","station_id":"北京潞阳(地铁站)_39.88965_116.75078","lineId":"北京地铁6号线","lat":39.889647565000004,"lon":116.75078451499999,"area_km2":1.9788,"D":0.1017,"C":0.3981,"T":0.026,"U1":0.0498,"U2":0.0021,"couplingDegree":0.1017,"level":"极度失调","road_density":21.159,"walk_accessibility":0.3967,"metro_line_density":2.7896,"station_count":1,"line_count":1,"population_density":917.2347,"poi_density":0.0,"poi_diversity":0.0,"gdp_density":0.0,"P":917.2347,"I":0.0,"G":0.0},{"stationName":"北京北京西站(地铁站)","station_id":"北京北京西站(地铁站)_39.89341_116.31510","lineId":"北京地铁7号线","lat":39.8934089,"lon":116.31510123,"area_km2":2.8946,"D":0.5084,"C":0.8311,"T":0.311,"U1":0.4839,"U2":0.138,"couplingDegree":0.5084,"level":"勉强协调","road_density":28.8251,"walk_accessibility":0.5804,"metro_line_density":3.1912,"station_count":4,"line_count":3,"population_density":17980.6706,"poi_density":2.7638,"poi_diversity":1.9062,"gdp_density":0.0,"P":17980.6706,"I":2.7638,"G":0.0},{"stationName":"北京湾子(地铁站)","station_id":"北京湾子(地铁站)_39.88864_116.32162","lineId":"北京地铁7号线","lat":39.88864308,"lon":116.32162096,"area_km2":2.6897,"D":0.5087,"C":0.8341,"T":0.3102,"U1":0.4813,"U2":0.1391,"couplingDegree":0.5087,"level":"勉强协调","road_density":24.2462,"walk_accessibility":0.5393,"metro_line_density":4.6436,"station_count":4,"line_count":3,"population_density":21235.0587,"poi_density":2.2308,"poi_diversity":1.7918,"gdp_density":0.0,"P":21235.0587,"I":2.2308,"G":0.0},{"stationName":"北京达官营(地铁站)","station_id":"北京达官营(地铁站)_39.88933_116.32899","lineId":"北京地铁16号线 / 北京地铁7号线","lat":39.889333740000005,"lon":116.32898711666667,"area_km2":2.6958,"D":0.3769,"C":0.8884,"T":0.1599,"U1":0.2333,"U2":0.0865,"couplingDegree":0.3769,"level":"中度失调","road_density":20.8525,"walk_accessibility":0.5405,"metro_line_density":3.9828,"station_count":2,"line_count":2,"population_density":13771.6676,"poi_density":1.1128,"poi_diversity":1.0986,"gdp_density":0.0,"P":13771.6676,"I":1.1128,"G":0.0},{"stationName":"北京广安门内(地铁站)","station_id":"北京广安门内(地铁站)_39.88805_116.35204","lineId":"北京地铁7号线","lat":39.88805209,"lon":116.35204256,"area_km2":3.7239,"D":0.4388,"C":0.9733,"T":0.1979,"U1":0.2433,"U2":0.1525,"couplingDegree":0.4388,"level":"勉强协调","road_density":22.886,"walk_accessibility":0.7466,"metro_line_density":2.8611,"station_count":2,"line_count":2,"population_density":15796.8858,"poi_density":5.9078,"poi_diversity":2.1767,"gdp_density":0.0,"P":15796.8858,"I":5.9078,"G":0.0},{"stationName":"北京虎坊桥(地铁站)","station_id":"北京虎坊桥(地铁站)_39.88809_116.37836","lineId":"北京地铁7号线","lat":39.88809009,"lon":116.37836253,"area_km2":4.2988,"D":0.5492,"C":0.8186,"T":0.3685,"U1":0.5801,"U2":0.1568,"couplingDegree":0.5492,"level":"勉强协调","road_density":21.6622,"walk_accessibility":0.8619,"metro_line_density":2.349,"station_count":4,"line_count":4,"population_density":12814.516,"poi_density":5.8156,"poi_diversity":2.4216,"gdp_density":0.0,"P":12814.516,"I":5.8156,"G":0.0},{"stationName":"北京珠市口(地铁站)","station_id":"北京珠市口(地铁站)_39.88924_116.39213","lineId":"北京地铁7号线 / 北京地铁8号线","lat":39.889244225,"lon":116.392132485,"area_km2":4.4471,"D":0.5731,"C":0.8722,"T":0.3766,"U1":0.5608,"U2":0.1924,"couplingDegree":0.5731,"level":"勉强协调","road_density":23.3063,"walk_accessibility":0.8916,"metro_line_density":2.939,"station_count":5,"line_count":3,"population_density":17846.4691,"poi_density":12.5925,"poi_diversity":2.6158,"gdp_density":0.0,"P":17846.4691,"I":12.5925,"G":0.0},{"stationName":"北京桥湾(地铁站)","station_id":"北京桥湾(地铁站)_39.89132_116.40222","lineId":"北京地铁7号线","lat":39.89132299,"lon":116.4022245,"area_km2":4.1717,"D":0.5539,"C":0.7611,"T":0.4031,"U1":0.6645,"U2":0.1416,"couplingDegree":0.5539,"level":"勉强协调","road_density":24.5889,"walk_accessibility":0.8364,"metro_line_density":4.0378,"station_count":5,"line_count":4,"population_density":21948.8381,"poi_density":4.3148,"poi_diversity":1.7147,"gdp_density":0.0,"P":21948.8381,"I":4.3148,"G":0.0},{"stationName":"北京广渠门内(地铁站)","station_id":"北京广渠门内(地铁站)_39.89229_116.42767","lineId":"北京地铁7号线","lat":39.89229245,"lon":116.42766518,"area_km2":3.4738,"D":0.44,"C":0.98,"T":0.1975,"U1":0.2369,"U2":0.1582,"couplingDegree":0.44,"level":"勉强协调","road_density":24.2868,"walk_accessibility":0.6965,"metro_line_density":1.8923,"station_count":2,"line_count":2,"population_density":12951.3547,"poi_density":12.0903,"poi_diversity":2.1571,"gdp_density":0.0,"P":12951.3547,"I":12.0903,"G":0.0},{"stationName":"北京广渠门外(地铁站)","station_id":"北京广渠门外(地铁站)_39.89229_116.44350","lineId":"北京地铁17号线 / 北京地铁7号线","lat":39.89228746,"lon":116.44350406000001,"area_km2":2.9416,"D":0.4828,"C":0.9327,"T":0.25,"U1":0.3401,"U2":0.1598,"couplingDegree":0.4828,"level":"勉强协调","road_density":23.0206,"walk_accessibility":0.5898,"metro_line_density":4.245,"station_count":2,"line_count":3,"population_density":26077.596,"poi_density":5.0992,"poi_diversity":1.8594,"gdp_density":0.0,"P":26077.596,"I":5.0992,"G":0.0},{"stationName":"北京双井(地铁站)","station_id":"北京双井(地铁站)_39.89211_116.45665","lineId":"北京地铁10号线 / 北京地铁7号线","lat":39.892106534999996,"lon":116.456647525,"area_km2":3.0662,"D":0.5007,"C":0.8934,"T":0.2806,"U1":0.4067,"U2":0.1546,"couplingDegree":0.5007,"level":"勉强协调","road_density":19.8899,"walk_accessibility":0.6148,"metro_line_density":4.4763,"station_count":3,"line_count":3,"population_density":20415.6432,"poi_density":3.5875,"poi_diversity":2.0983,"gdp_density":0.0,"P":20415.6432,"I":3.5875,"G":0.0},{"stationName":"北京九龙山(地铁站)","station_id":"北京九龙山(地铁站)_39.89202_116.47210","lineId":"北京地铁14号线 / 北京地铁7号线","lat":39.892017895,"lon":116.47209979,"area_km2":2.5703,"D":0.4721,"C":0.8323,"T":0.2678,"U1":0.4162,"U2":0.1193,"couplingDegree":0.4721,"level":"勉强协调","road_density":21.2664,"walk_accessibility":0.5153,"metro_line_density":6.5694,"station_count":3,"line_count":3,"population_density":17361.0877,"poi_density":2.3343,"poi_diversity":1.5607,"gdp_density":0.0,"P":17361.0877,"I":2.3343,"G":0.0},{"stationName":"北京大郊亭(地铁站)","station_id":"北京大郊亭(地铁站)_39.89192_116.48189","lineId":"北京地铁28号线 / 北京地铁7号线","lat":39.8919233,"lon":116.481891255,"area_km2":2.5148,"D":0.4485,"C":0.7856,"T":0.256,"U1":0.4144,"U2":0.0976,"couplingDegree":0.4485,"level":"勉强协调","road_density":24.3094,"walk_accessibility":0.5042,"metro_line_density":5.4396,"station_count":3,"line_count":3,"population_density":13005.1835,"poi_density":1.9883,"poi_diversity":1.3322,"gdp_density":0.0,"P":13005.1835,"I":1.9883,"G":0.0},{"stationName":"北京百子湾(地铁站)","station_id":"北京百子湾(地铁站)_39.89130_116.49175","lineId":"北京地铁7号线","lat":39.891302495000005,"lon":116.491754835,"area_km2":2.1476,"D":0.3714,"C":0.7451,"T":0.1851,"U1":0.3086,"U2":0.0617,"couplingDegree":0.3714,"level":"中度失调","road_density":22.0586,"walk_accessibility":0.4306,"metro_line_density":5.6049,"station_count":3,"line_count":2,"population_density":11504.1978,"poi_density":0.9313,"poi_diversity":0.6931,"gdp_density":0.0,"P":11504.1978,"I":0.9313,"G":0.0},{"stationName":"北京化工(地铁站)","station_id":"北京化工(地铁站)_39.88616_116.49753","lineId":"北京地铁7号线","lat":39.88615868,"lon":116.49753333,"area_km2":1.5584,"D":0.2671,"C":0.8163,"T":0.0874,"U1":0.1379,"U2":0.0369,"couplingDegree":0.2671,"level":"中度失调","road_density":21.7552,"walk_accessibility":0.3125,"metro_line_density":6.3937,"station_count":2,"line_count":1,"population_density":15757.1231,"poi_density":0.0,"poi_diversity":0.0,"gdp_density":0.0,"P":15757.1231,"I":0.0,"G":0.0},{"stationName":"北京南楼梓庄(地铁站)","station_id":"北京南楼梓庄(地铁站)_39.87336_116.49508","lineId":"北京地铁7号线","lat":39.87336083,"lon":116.49508466,"area_km2":2.8667,"D":0.3781,"C":0.9959,"T":0.1435,"U1":0.1305,"U2":0.1565,"couplingDegree":0.3781,"level":"中度失调","road_density":23.9709,"walk_accessibility":0.5748,"metro_line_density":1.8608,"station_count":2,"line_count":1,"population_density":6883.767,"poi_density":0.6977,"poi_diversity":0.6931,"gdp_density":54725.8426,"P":6883.767,"I":0.6977,"G":54725.8426},{"stationName":"北京欢乐谷景区(地铁站)","station_id":"北京欢乐谷景区(地铁站)_39.86534_116.49317","lineId":"北京地铁7号线","lat":39.86534368,"lon":116.49316902,"area_km2":2.6873,"D":0.2154,"C":0.6511,"T":0.0712,"U1":0.1253,"U2":0.0172,"couplingDegree":0.2154,"level":"中度失调","road_density":22.4508,"walk_accessibility":0.5388,"metro_line_density":1.8611,"station_count":2,"line_count":1,"population_density":6988.3216,"poi_density":0.3721,"poi_diversity":0.0,"gdp_density":0.0,"P":6988.3216,"I":0.3721,"G":0.0},{"stationName":"北京垡头(地铁站)","station_id":"北京垡头(地铁站)_39.85954_116.50587","lineId":"北京地铁7号线","lat":39.85954473,"lon":116.50586509,"area_km2":2.5708,"D":0.1562,"C":0.808,"T":0.0302,"U1":0.048,"U2":0.0124,"couplingDegree":0.1562,"level":"极度失调","road_density":19.5636,"walk_accessibility":0.5154,"metro_line_density":1.7922,"station_count":1,"line_count":1,"population_density":5296.0197,"poi_density":0.0,"poi_diversity":0.0,"gdp_density":0.0,"P":5296.0197,"I":0.0,"G":0.0},{"stationName":"北京双合(地铁站)","station_id":"北京双合(地铁站)_39.85855_116.52093","lineId":"北京地铁7号线","lat":39.85854891,"lon":116.52093403,"area_km2":0.9575,"D":0.1231,"C":0.2911,"T":0.052,"U1":0.1018,"U2":0.0023,"couplingDegree":0.1231,"level":"极度失调","road_density":17.7173,"walk_accessibility":0.192,"metro_line_density":3.0908,"station_count":2,"line_count":1,"population_density":0.0,"poi_density":1.0444,"poi_diversity":0.0,"gdp_density":0.0,"P":0.0,"I":1.0444,"G":0.0},{"stationName":"北京焦化厂(地铁站)","station_id":"北京焦化厂(地铁站)_39.85437_116.53138","lineId":"北京地铁7号线","lat":39.85437428,"lon":116.53137752,"area_km2":1.2685,"D":0.1876,"C":0.6157,"T":0.0572,"U1":0.1022,"U2":0.0121,"couplingDegree":0.1876,"level":"极度失调","road_density":17.5286,"walk_accessibility":0.2543,"metro_line_density":2.5748,"station_count":2,"line_count":1,"population_density":4446.3154,"poi_density":0.7884,"poi_diversity":0.0,"gdp_density":0.0,"P":4446.3154,"I":0.7884,"G":0.0},{"stationName":"北京黄厂(地铁站)","station_id":"北京黄厂(地铁站)_39.84790_116.54794","lineId":"北京地铁7号线","lat":39.847900339999995,"lon":116.547935055,"area_km2":1.4705,"D":0.268,"C":0.6426,"T":0.1117,"U1":0.0261,"U2":0.1973,"couplingDegree":0.268,"level":"中度失调","road_density":16.6338,"walk_accessibility":0.2948,"metro_line_density":1.4334,"station_count":1,"line_count":1,"population_density":6637.4104,"poi_density":0.6801,"poi_diversity":0.0,"gdp_density":92967.61,"P":6637.4104,"I":0.6801,"G":92967.61},{"stationName":"北京郎辛庄(地铁站)","station_id":"北京郎辛庄(地铁站)_39.85544_116.56403","lineId":"北京地铁7号线","lat":39.85544322,"lon":116.56403165,"area_km2":1.8657,"D":0.1036,"C":0.528,"T":0.0203,"U1":0.0376,"U2":0.0031,"couplingDegree":0.1036,"level":"极度失调","road_density":16.9051,"walk_accessibility":0.3741,"metro_line_density":2.3854,"station_count":1,"line_count":1,"population_density":1307.3117,"poi_density":0.0,"poi_diversity":0.0,"gdp_density":0.0,"P":1307.3117,"I":0.0,"G":0.0},{"stationName":"北京黑庄户(地铁站)","station_id":"北京黑庄户(地铁站)_39.85769_116.59334","lineId":"北京地铁7号线","lat":39.85768766,"lon":116.59333847,"area_km2":1.2921,"D":0.1556,"C":0.8203,"T":0.0295,"U1":0.0464,"U2":0.0126,"couplingDegree":0.1556,"level":"极度失调","road_density":18.5853,"walk_accessibility":0.2591,"metro_line_density":4.4449,"station_count":1,"line_count":1,"population_density":5396.4604,"poi_density":0.0,"poi_diversity":0.0,"gdp_density":0.0,"P":5396.4604,"I":0.0,"G":0.0},{"stationName":"北京万盛西(地铁站)","station_id":"北京万盛西(地铁站)_39.86227_116.62634","lineId":"北京地铁7号线","lat":39.86226628,"lon":116.62633882,"area_km2":1.9286,"D":0.0696,"C":0.1698,"T":0.0285,"U1":0.0566,"U2":0.0004,"couplingDegree":0.0696,"level":"极度失调","road_density":27.0034,"walk_accessibility":0.3867,"metro_line_density":2.1344,"station_count":1,"line_count":1,"population_density":176.8144,"poi_density":0.0,"poi_diversity":0.0,"gdp_density":0.0,"P":176.8144,"I":0.0,"G":0.0},{"stationName":"北京万盛东(地铁站)","station_id":"北京万盛东(地铁站)_39.86239_116.65150","lineId":"北京地铁7号线","lat":39.8623891,"lon":116.65149746,"area_km2":2.7933,"D":0.1313,"C":0.2323,"T":0.0742,"U1":0.1463,"U2":0.002,"couplingDegree":0.1313,"level":"极度失调","road_density":31.0236,"walk_accessibility":0.5601,"metro_line_density":2.3241,"station_count":2,"line_count":1,"population_density":866.7076,"poi_density":0.0,"poi_diversity":0.0,"gdp_density":0.0,"P":866.7076,"I":0.0,"G":0.0},{"stationName":"北京群芳(地铁站)","station_id":"北京群芳(地铁站)_39.86239_116.66487","lineId":"北京地铁7号线","lat":39.86238773,"lon":116.66487208,"area_km2":2.1864,"D":0.1646,"C":0.2512,"T":0.1078,"U1":0.2122,"U2":0.0035,"couplingDegree":0.1646,"level":"极度失调","road_density":30.771,"walk_accessibility":0.4384,"metro_line_density":3.009,"station_count":3,"line_count":1,"population_density":1055.175,"poi_density":0.4574,"poi_diversity":0.0,"gdp_density":0.0,"P":1055.175,"I":0.4574,"G":0.0},{"stationName":"北京高楼金(地铁站)","station_id":"北京高楼金(地铁站)_39.86200_116.67838","lineId":"北京地铁7号线","lat":39.86200064,"lon":116.67838339,"area_km2":2.1582,"D":0.2059,"C":0.2214,"T":0.1914,"U1":0.3781,"U2":0.0047,"couplingDegree":0.2059,"level":"中度失调","road_density":30.2601,"walk_accessibility":0.4327,"metro_line_density":2.9499,"station_count":4,"line_count":2,"population_density":746.9043,"poi_density":1.39,"poi_diversity":0.0,"gdp_density":0.0,"P":746.9043,"I":1.39,"G":0.0},{"stationName":"北京瀛海(地铁站)","station_id":"北京瀛海(地铁站)_39.75937_116.44282","lineId":"北京地铁8号线","lat":39.75936684,"lon":116.44282139,"area_km2":2.2642,"D":0.1145,"C":0.5605,"T":0.0234,"U1":0.0428,"U2":0.004,"couplingDegree":0.1145,"level":"极度失调","road_density":20.11,"walk_accessibility":0.454,"metro_line_density":1.4028,"station_count":1,"line_count":1,"population_density":1716.6898,"poi_density":0.0,"poi_diversity":0.0,"gdp_density":0.0,"P":1716.6898,"I":0.0,"G":0.0},{"stationName":"北京德茂(地铁站)","station_id":"北京德茂(地铁站)_39.77127_116.43559","lineId":"北京地铁8号线","lat":39.77127448,"lon":116.43559148,"area_km2":2.277,"D":0.1158,"C":0.4688,"T":0.0286,"U1":0.0539,"U2":0.0033,"couplingDegree":0.1158,"level":"极度失调","road_density":21.4886,"walk_accessibility":0.4565,"metro_line_density":2.7261,"station_count":1,"line_count":1,"population_density":1424.691,"poi_density":0.0,"poi_diversity":0.0,"gdp_density":0.0,"P":1424.691,"I":0.0,"G":0.0},{"stationName":"北京五福堂(地铁站)","station_id":"北京五福堂(地铁站)_39.78366_116.41769","lineId":"北京地铁8号线","lat":39.78365991,"lon":116.41768961,"area_km2":1.6652,"D":0.1578,"C":0.7305,"T":0.0341,"U1":0.0574,"U2":0.0108,"couplingDegree":0.1578,"level":"极度失调","road_density":24.4415,"walk_accessibility":0.3339,"metro_line_density":3.6039,"station_count":1,"line_count":1,"population_density":4616.1714,"poi_density":0.0,"poi_diversity":0.0,"gdp_density":0.0,"P":4616.1714,"I":0.0,"G":0.0},{"stationName":"北京火箭万源(地铁站)","station_id":"北京火箭万源(地铁站)_39.79789_116.41241","lineId":"北京地铁8号线","lat":39.79789437,"lon":116.41240509,"area_km2":1.758,"D":0.3365,"C":0.9995,"T":0.1133,"U1":0.1096,"U2":0.117,"couplingDegree":0.3365,"level":"中度失调","road_density":15.7613,"walk_accessibility":0.3525,"metro_line_density":3.3333,"station_count":2,"line_count":1,"population_density":11466.2727,"poi_density":5.1194,"poi_diversity":1.677,"gdp_density":0.0,"P":11466.2727,"I":5.1194,"G":0.0},{"stationName":"北京东高地(地铁站)","station_id":"北京东高地(地铁站)_39.80368_116.40320","lineId":"北京地铁8号线","lat":39.80367658,"lon":116.40319838,"area_km2":1.8041,"D":0.3869,"C":0.9831,"T":0.1523,"U1":0.1802,"U2":0.1244,"couplingDegree":0.3869,"level":"中度失调","road_density":16.2738,"walk_accessibility":0.3617,"metro_line_density":3.213,"station_count":3,"line_count":1,"population_density":7342.7842,"poi_density":4.9887,"poi_diversity":2.0432,"gdp_density":0.0,"P":7342.7842,"I":4.9887,"G":0.0},{"stationName":"北京和义(地铁站)","station_id":"北京和义(地铁站)_39.81344_116.39584","lineId":"北京地铁8号线","lat":39.81343826,"lon":116.39584148,"area_km2":1.8222,"D":0.323,"C":0.9898,"T":0.1054,"U1":0.1205,"U2":0.0904,"couplingDegree":0.323,"level":"中度失调","road_density":20.9136,"walk_accessibility":0.3654,"metro_line_density":3.3227,"station_count":2,"line_count":1,"population_density":11205.9341,"poi_density":0.0,"poi_diversity":0.0,"gdp_density":33061.0727,"P":11205.9341,"I":0.0,"G":33061.0727},{"stationName":"北京大红门南(地铁站)","station_id":"北京大红门南(地铁站)_39.83532_116.39481","lineId":"北京地铁8号线","lat":39.835315235,"lon":116.39480971500001,"area_km2":2.4478,"D":0.4622,"C":0.9974,"T":0.2142,"U1":0.2296,"U2":0.1988,"couplingDegree":0.4622,"level":"勉强协调","road_density":22.8422,"walk_accessibility":0.4908,"metro_line_density":3.2701,"station_count":2,"line_count":2,"population_density":6734.1577,"poi_density":8.5791,"poi_diversity":2.3973,"gdp_density":26480.5105,"P":6734.1577,"I":8.5791,"G":26480.5105},{"stationName":"北京大红门(地铁站)","station_id":"北京大红门(地铁站)_39.84344_116.39369","lineId":"北京地铁10号线 / 北京地铁8号线","lat":39.843435334999995,"lon":116.39368515999999,"area_km2":2.8557,"D":0.5359,"C":0.9098,"T":0.3157,"U1":0.4467,"U2":0.1846,"couplingDegree":0.5359,"level":"勉强协调","road_density":21.4336,"walk_accessibility":0.5726,"metro_line_density":4.1391,"station_count":5,"line_count":2,"population_density":9882.3285,"poi_density":7.3537,"poi_diversity":2.1527,"gdp_density":22698.2599,"P":9882.3285,"I":7.3537,"G":22698.2599},{"stationName":"北京海户屯(地铁站)","station_id":"北京海户屯(地铁站)_39.85040_116.39407","lineId":"北京地铁8号线","lat":39.850403725,"lon":116.394065055,"area_km2":2.7411,"D":0.4787,"C":0.9599,"T":0.2387,"U1":0.3056,"U2":0.1717,"couplingDegree":0.4787,"level":"勉强协调","road_density":23.9544,"walk_accessibility":0.5496,"metro_line_density":3.3268,"station_count":3,"line_count":2,"population_density":12849.2377,"poi_density":4.013,"poi_diversity":1.8462,"gdp_density":23647.289,"P":12849.2377,"I":4.013,"G":23647.289},{"stationName":"北京木樨园(地铁站)","station_id":"北京木樨园(地铁站)_39.85786_116.39360","lineId":"北京地铁8号线","lat":39.85786103,"lon":116.39360151,"area_km2":2.8358,"D":0.4486,"C":0.8376,"T":0.2403,"U1":0.3715,"U2":0.109,"couplingDegree":0.4486,"level":"勉强协调","road_density":22.7839,"walk_accessibility":0.5686,"metro_line_density":2.8839,"station_count":4,"line_count":2,"population_density":18092.4015,"poi_density":1.7632,"poi_diversity":1.3322,"gdp_density":0.0,"P":18092.4015,"I":1.7632,"G":0.0},{"stationName":"北京永定门外(地铁站)","station_id":"北京永定门外(地铁站)_39.86537_116.39309","lineId":"北京地铁14号线 / 北京地铁8号线","lat":39.86537305666667,"lon":116.39309484,"area_km2":2.9728,"D":0.6456,"C":0.9969,"T":0.4181,"U1":0.3851,"U2":0.4512,"couplingDegree":0.6456,"level":"良好协调","road_density":26.7967,"walk_accessibility":0.596,"metro_line_density":3.5146,"station_count":4,"line_count":2,"population_density":14198.3931,"poi_density":1.3455,"poi_diversity":1.3863,"gdp_density":180233.0412,"P":14198.3931,"I":1.3455,"G":180233.0412},{"stationName":"北京天桥(地铁站)","station_id":"北京天桥(地铁站)_39.88052_116.39247","lineId":"北京地铁8号线","lat":39.88051744,"lon":116.39247254,"area_km2":3.5702,"D":0.5656,"C":0.9631,"T":0.3322,"U1":0.2428,"U2":0.4215,"couplingDegree":0.5656,"level":"勉强协调","road_density":26.4338,"walk_accessibility":0.7158,"metro_line_density":1.977,"station_count":2,"line_count":2,"population_density":10759.5212,"poi_density":6.1621,"poi_diversity":1.9485,"gdp_density":150073.3889,"P":10759.5212,"I":6.1621,"G":150073.3889},{"stationName":"北京金鱼胡同(地铁站)","station_id":"北京金鱼胡同(地铁站)_39.91497_116.40494","lineId":"北京地铁8号线","lat":39.9149685,"lon":116.40494464,"area_km2":4.0244,"D":0.6099,"C":0.8814,"T":0.4221,"U1":0.6214,"U2":0.2227,"couplingDegree":0.6099,"level":"良好协调","road_density":21.069,"walk_accessibility":0.8069,"metro_line_density":3.0321,"station_count":6,"line_count":3,"population_density":16474.9271,"poi_density":26.5877,"poi_diversity":2.6854,"gdp_density":0.0,"P":16474.9271,"I":26.5877,"G":0.0},{"stationName":"北京中国美术馆(地铁站)","station_id":"北京中国美术馆(地铁站)_39.92276_116.40455","lineId":"北京地铁8号线","lat":39.92275512,"lon":116.40455477,"area_km2":3.8893,"D":0.5966,"C":0.9335,"T":0.3813,"U1":0.518,"U2":0.2446,"couplingDegree":0.5966,"level":"勉强协调","road_density":20.8723,"walk_accessibility":0.7798,"metro_line_density":2.4628,"station_count":6,"line_count":2,"population_density":18503.2959,"poi_density":30.34,"poi_diversity":2.8775,"gdp_density":0.0,"P":18503.2959,"I":30.34,"G":0.0},{"stationName":"北京南锣鼓巷(地铁站)","station_id":"北京南锣鼓巷(地铁站)_39.93244_116.39795","lineId":"北京地铁8号线","lat":39.93244276,"lon":116.397945075,"area_km2":4.0828,"D":0.6419,"C":0.9948,"T":0.4142,"U1":0.3721,"U2":0.4562,"couplingDegree":0.6419,"level":"良好协调","road_density":18.8603,"walk_accessibility":0.8186,"metro_line_density":1.6883,"station_count":4,"line_count":2,"population_density":18515.6243,"poi_density":20.574,"poi_diversity":2.6251,"gdp_density":126086.8066,"P":18515.6243,"I":20.574,"G":126086.8066},{"stationName":"北京什刹海(地铁站)","station_id":"北京什刹海(地铁站)_39.93618_116.38997","lineId":"北京地铁8号线","lat":39.9361778,"lon":116.38997138,"area_km2":4.286,"D":0.6038,"C":0.9822,"T":0.3712,"U1":0.3014,"U2":0.4409,"couplingDegree":0.6038,"level":"良好协调","road_density":18.0999,"walk_accessibility":0.8593,"metro_line_density":1.3669,"station_count":3,"line_count":2,"population_density":19148.6158,"poi_density":24.4984,"poi_diversity":2.3348,"gdp_density":120109.6117,"P":19148.6158,"I":24.4984,"G":120109.6117},{"stationName":"北京安德里北街(地铁站)","station_id":"北京安德里北街(地铁站)_39.95582_116.38890","lineId":"北京地铁8号线","lat":39.955822875,"lon":116.388895025,"area_km2":2.655,"D":0.3954,"C":0.9281,"T":0.1684,"U1":0.2311,"U2":0.1057,"couplingDegree":0.3954,"level":"中度失调","road_density":20.6029,"walk_accessibility":0.5323,"metro_line_density":3.7956,"station_count":2,"line_count":2,"population_density":22801.4665,"poi_density":1.5066,"poi_diversity":1.0397,"gdp_density":0.0,"P":22801.4665,"I":1.5066,"G":0.0},{"stationName":"北京安华桥(地铁站)","station_id":"北京安华桥(地铁站)_39.96722_116.38910","lineId":"北京地铁12号线 / 北京地铁8号线","lat":39.9672179,"lon":116.389099055,"area_km2":2.9843,"D":0.6417,"C":0.9863,"T":0.4175,"U1":0.3487,"U2":0.4864,"couplingDegree":0.6417,"level":"良好协调","road_density":26.9135,"walk_accessibility":0.5983,"metro_line_density":4.3154,"station_count":2,"line_count":3,"population_density":21104.31,"poi_density":2.0105,"poi_diversity":1.3297,"gdp_density":190669.7778,"P":21104.31,"I":2.0105,"G":190669.7778},{"stationName":"北京北土城(地铁站)","station_id":"北京北土城(地铁站)_39.97587_116.38794","lineId":"北京地铁10号线 / 北京地铁8号线","lat":39.975871695,"lon":116.38794196,"area_km2":3.3924,"D":0.5008,"C":0.741,"T":0.3384,"U1":0.5656,"U2":0.1112,"couplingDegree":0.5008,"level":"勉强协调","road_density":28.4331,"walk_accessibility":0.6802,"metro_line_density":4.234,"station_count":5,"line_count":3,"population_density":14344.1482,"poi_density":2.0634,"poi_diversity":1.5498,"gdp_density":0.0,"P":14344.1482,"I":2.0634,"G":0.0},{"stationName":"北京奥体中心(地铁站)","station_id":"北京奥体中心(地铁站)_39.98443_116.38751","lineId":"北京地铁8号线","lat":39.98443199,"lon":116.38750572,"area_km2":3.5557,"D":0.396,"C":0.8965,"T":0.1749,"U1":0.2524,"U2":0.0974,"couplingDegree":0.396,"level":"中度失调","road_density":30.5873,"walk_accessibility":0.7129,"metro_line_density":2.2333,"station_count":2,"line_count":2,"population_density":10054.579,"poi_density":1.9687,"poi_diversity":1.4751,"gdp_density":0.0,"P":10054.579,"I":1.9687,"G":0.0},{"stationName":"北京奥林匹克公园(地铁站)","station_id":"北京奥林匹克公园(地铁站)_40.00031_116.38594","lineId":"北京地铁15号线 / 北京地铁8号线","lat":40.00031338333333,"lon":116.38594332000001,"area_km2":3.8914,"D":0.5287,"C":0.9989,"T":0.2798,"U1":0.2665,"U2":0.293,"couplingDegree":0.5287,"level":"勉强协调","road_density":32.6608,"walk_accessibility":0.7802,"metro_line_density":3.1795,"station_count":2,"line_count":2,"population_density":5875.7033,"poi_density":31.0938,"poi_diversity":2.6704,"gdp_density":44411.0914,"P":5875.7033,"I":31.0938,"G":44411.0914},{"stationName":"北京森林公园南门(地铁站)","station_id":"北京森林公园南门(地铁站)_40.00872_116.38635","lineId":"北京地铁8号线","lat":40.008716375000006,"lon":116.386345105,"area_km2":3.2966,"D":0.4395,"C":0.9758,"T":0.1979,"U1":0.2412,"U2":0.1546,"couplingDegree":0.4395,"level":"勉强协调","road_density":27.6402,"walk_accessibility":0.661,"metro_line_density":1.8902,"station_count":2,"line_count":2,"population_density":6726.3779,"poi_density":16.3806,"poi_diversity":2.1941,"gdp_density":0.0,"P":6726.3779,"I":16.3806,"G":0.0},{"stationName":"北京林萃桥(地铁站)","station_id":"北京林萃桥(地铁站)_40.02052_116.36676","lineId":"北京地铁8号线","lat":40.02051502,"lon":116.36675992,"area_km2":3.2338,"D":0.2192,"C":0.9521,"T":0.0505,"U1":0.0659,"U2":0.035,"couplingDegree":0.2192,"level":"中度失调","road_density":25.1899,"walk_accessibility":0.6484,"metro_line_density":1.5513,"station_count":1,"line_count":1,"population_density":1274.9691,"poi_density":0.9277,"poi_diversity":0.6365,"gdp_density":0.0,"P":1274.9691,"I":0.9277,"G":0.0},{"stationName":"北京永泰庄(地铁站)","station_id":"北京永泰庄(地铁站)_40.03636_116.34837","lineId":"北京地铁8号线","lat":40.03636271,"lon":116.34837154,"area_km2":2.2665,"D":0.4023,"C":0.8518,"T":0.19,"U1":0.2896,"U2":0.0905,"couplingDegree":0.4023,"level":"勉强协调","road_density":20.6451,"walk_accessibility":0.4544,"metro_line_density":2.7467,"station_count":3,"line_count":2,"population_density":9758.6271,"poi_density":2.206,"poi_diversity":1.3322,"gdp_density":0.0,"P":9758.6271,"I":2.206,"G":0.0},{"stationName":"北京西小口(地铁站)","station_id":"北京西小口(地铁站)_40.04551_116.34544","lineId":"北京地铁8号线","lat":40.0455124,"lon":116.34543937,"area_km2":2.2458,"D":0.2829,"C":0.915,"T":0.0875,"U1":0.1228,"U2":0.0522,"couplingDegree":0.2829,"level":"中度失调","road_density":21.5036,"walk_accessibility":0.4503,"metro_line_density":2.6464,"station_count":2,"line_count":1,"population_density":7493.5395,"poi_density":0.8906,"poi_diversity":0.6931,"gdp_density":0.0,"P":7493.5395,"I":0.8906,"G":0.0},{"stationName":"北京育新(地铁站)","station_id":"北京育新(地铁站)_40.05892_116.34096","lineId":"北京地铁8号线","lat":40.05892025,"lon":116.34096275,"area_km2":2.2261,"D":0.2853,"C":0.8952,"T":0.0909,"U1":0.0504,"U2":0.1315,"couplingDegree":0.2853,"level":"中度失调","road_density":20.2051,"walk_accessibility":0.4463,"metro_line_density":2.6791,"station_count":1,"line_count":1,"population_density":4620.5568,"poi_density":8.0857,"poi_diversity":2.187,"gdp_density":0.0,"P":4620.5568,"I":8.0857,"G":0.0},{"stationName":"北京霍营(地铁站)","station_id":"北京霍营(地铁站)_40.06962_116.35440","lineId":"北京北京地铁13B号线(马连洼--东直门) / 北京地铁13号线 / 北京地铁8号线","lat":40.06962005333333,"lon":116.35440401333334,"area_km2":2.3604,"D":0.3985,"C":0.6247,"T":0.2542,"U1":0.4527,"U2":0.0557,"couplingDegree":0.3985,"level":"中度失调","road_density":34.5637,"walk_accessibility":0.4733,"metro_line_density":4.1566,"station_count":2,"line_count":4,"population_density":9037.0302,"poi_density":0.8473,"poi_diversity":0.6931,"gdp_density":0.0,"P":9037.0302,"I":0.8473,"G":0.0},{"stationName":"北京回龙观东大街(地铁站)","station_id":"北京回龙观东大街(地铁站)_40.07975_116.35663","lineId":"北京北京地铁13A号线(车公庄--天通苑东) / 北京地铁8号线","lat":40.07975319333333,"lon":116.35663046666667,"area_km2":2.6947,"D":0.4524,"C":0.7338,"T":0.2789,"U1":0.4683,"U2":0.0894,"couplingDegree":0.4524,"level":"勉强协调","road_density":39.4129,"walk_accessibility":0.5403,"metro_line_density":4.461,"station_count":2,"line_count":4,"population_density":15856.5977,"poi_density":1.4844,"poi_diversity":1.0397,"gdp_density":0.0,"P":15856.5977,"I":1.4844,"G":0.0},{"stationName":"北京平西府(地铁站)","station_id":"北京平西府(地铁站)_40.08876_116.34421","lineId":"北京地铁8号线","lat":40.08876251,"lon":116.34420763,"area_km2":2.7012,"D":0.2153,"C":0.9166,"T":0.0506,"U1":0.0708,"U2":0.0304,"couplingDegree":0.2153,"level":"中度失调","road_density":29.5743,"walk_accessibility":0.5416,"metro_line_density":2.0403,"station_count":1,"line_count":1,"population_density":7992.4262,"poi_density":0.3702,"poi_diversity":0.0,"gdp_density":5587.5533,"P":7992.4262,"I":0.3702,"G":5587.5533},{"stationName":"北京育知路(地铁站)","station_id":"北京育知路(地铁站)_40.08655_116.32084","lineId":"北京地铁8号线","lat":40.08654557,"lon":116.3208384,"area_km2":2.461,"D":0.1533,"C":0.5643,"T":0.0416,"U1":0.076,"U2":0.0073,"couplingDegree":0.1533,"level":"极度失调","road_density":32.2575,"walk_accessibility":0.4934,"metro_line_density":2.5175,"station_count":1,"line_count":1,"population_density":3100.7141,"poi_density":0.0,"poi_diversity":0.0,"gdp_density":0.0,"P":3100.7141,"I":0.0,"G":0.0},{"stationName":"北京朱辛庄(地铁站)","station_id":"北京朱辛庄(地铁站)_40.10300_116.30757","lineId":"北京地铁8号线","lat":40.10300341,"lon":116.30757063,"area_km2":2.9892,"D":0.1009,"C":0.317,"T":0.0321,"U1":0.0626,"U2":0.0017,"couplingDegree":0.1009,"level":"极度失调","road_density":21.7617,"walk_accessibility":0.5993,"metro_line_density":2.6008,"station_count":1,"line_count":1,"population_density":707.2185,"poi_density":0.0,"poi_diversity":0.0,"gdp_density":0.0,"P":707.2185,"I":0.0,"G":0.0},{"stationName":"北京郭公庄(地铁站)","station_id":"北京郭公庄(地铁站)_39.81306_116.29582","lineId":"北京地铁9号线","lat":39.81306407,"lon":116.29582336,"area_km2":2.1702,"D":0.3968,"C":0.8312,"T":0.1895,"U1":0.2948,"U2":0.0841,"couplingDegree":0.3968,"level":"中度失调","road_density":23.9075,"walk_accessibility":0.4351,"metro_line_density":2.7563,"station_count":3,"line_count":2,"population_density":11787.1447,"poi_density":0.0,"poi_diversity":0.0,"gdp_density":29133.7983,"P":11787.1447,"I":0.0,"G":29133.7983},{"stationName":"北京丰台科技园(地铁站)","station_id":"北京丰台科技园(地铁站)_39.82398_116.29112","lineId":"北京地铁9号线","lat":39.82398136,"lon":116.29111844,"area_km2":2.9103,"D":0.2381,"C":0.7082,"T":0.08,"U1":0.1366,"U2":0.0235,"couplingDegree":0.2381,"level":"中度失调","road_density":25.6529,"walk_accessibility":0.5835,"metro_line_density":2.2075,"station_count":2,"line_count":1,"population_density":9730.6037,"poi_density":0.3436,"poi_diversity":0.0,"gdp_density":0.0,"P":9730.6037,"I":0.3436,"G":0.0},{"stationName":"北京科怡路(地铁站)","station_id":"北京科怡路(地铁站)_39.83123_116.29137","lineId":"北京地铁9号线","lat":39.83122808,"lon":116.29137139,"area_km2":2.8319,"D":0.2937,"C":0.4333,"T":0.1991,"U1":0.3785,"U2":0.0197,"couplingDegree":0.2937,"level":"中度失调","road_density":23.8142,"walk_accessibility":0.5678,"metro_line_density":3.6877,"station_count":4,"line_count":2,"population_density":8395.0377,"poi_density":0.0,"poi_diversity":0.0,"gdp_density":0.0,"P":8395.0377,"I":0.0,"G":0.0},{"stationName":"北京丰台南路(地铁站)","station_id":"北京丰台南路(地铁站)_39.83950_116.29054","lineId":"北京地铁16号线 / 北京地铁9号线","lat":39.839499759999995,"lon":116.29053537,"area_km2":2.6173,"D":0.3004,"C":0.3659,"T":0.2467,"U1":0.4763,"U2":0.0171,"couplingDegree":0.3004,"level":"中度失调","road_density":22.8391,"walk_accessibility":0.5248,"metro_line_density":4.4175,"station_count":4,"line_count":3,"population_density":7304.9412,"poi_density":0.0,"poi_diversity":0.0,"gdp_density":0.0,"P":7304.9412,"I":0.0,"G":0.0},{"stationName":"北京丰台东大街(地铁站)","station_id":"北京丰台东大街(地铁站)_39.85386_116.28780","lineId":"北京地铁9号线","lat":39.8538622,"lon":116.2878012,"area_km2":2.571,"D":0.2922,"C":0.4114,"T":0.2075,"U1":0.3966,"U2":0.0184,"couplingDegree":0.2922,"level":"中度失调","road_density":20.8558,"walk_accessibility":0.5155,"metro_line_density":3.5397,"station_count":3,"line_count":3,"population_density":7843.8977,"poi_density":0.0,"poi_diversity":0.0,"gdp_density":0.0,"P":7843.8977,"I":0.0,"G":0.0},{"stationName":"北京七里庄(地铁站)","station_id":"北京七里庄(地铁站)_39.86544_116.28809","lineId":"北京地铁14号线 / 北京地铁9号线","lat":39.865438956666665,"lon":116.28808687333333,"area_km2":2.9569,"D":0.2647,"C":0.3286,"T":0.2132,"U1":0.4145,"U2":0.0118,"couplingDegree":0.2647,"level":"中度失调","road_density":22.7563,"walk_accessibility":0.5928,"metro_line_density":5.0479,"station_count":3,"line_count":3,"population_density":5053.6864,"poi_density":0.0,"poi_diversity":0.0,"gdp_density":0.0,"P":5053.6864,"I":0.0,"G":0.0},{"stationName":"北京六里桥(地铁站)","station_id":"北京六里桥(地铁站)_39.87898_116.29673","lineId":"北京地铁10号线 / 北京地铁9号线","lat":39.87897515,"lon":116.29673283,"area_km2":2.6198,"D":0.3652,"C":0.9703,"T":0.1375,"U1":0.1707,"U2":0.1042,"couplingDegree":0.3652,"level":"中度失调","road_density":24.7875,"walk_accessibility":0.5253,"metro_line_density":4.0547,"station_count":1,"line_count":2,"population_density":8001.3708,"poi_density":0.7634,"poi_diversity":0.6931,"gdp_density":26351.8097,"P":8001.3708,"I":0.7634,"G":26351.8097},{"stationName":"北京六里桥东(地铁站)","station_id":"北京六里桥东(地铁站)_39.88584_116.30892","lineId":"北京地铁9号线","lat":39.88583943,"lon":116.30892106,"area_km2":2.228,"D":0.4327,"C":0.8867,"T":0.2112,"U1":0.3088,"U2":0.1135,"couplingDegree":0.4327,"level":"勉强协调","road_density":29.0345,"walk_accessibility":0.4467,"metro_line_density":3.2681,"station_count":3,"line_count":2,"population_density":9894.818,"poi_density":2.693,"poi_diversity":1.7918,"gdp_density":0.0,"P":9894.818,"I":2.693,"G":0.0},{"stationName":"北京白堆子(地铁站)","station_id":"北京白堆子(地铁站)_39.92251_116.31963","lineId":"北京地铁9号线","lat":39.92251076,"lon":116.31963087,"area_km2":2.2835,"D":0.3018,"C":0.4701,"T":0.1938,"U1":0.3648,"U2":0.0227,"couplingDegree":0.3018,"level":"中度失调","road_density":22.5193,"walk_accessibility":0.4578,"metro_line_density":3.0068,"station_count":4,"line_count":2,"population_density":9307.9909,"poi_density":0.4379,"poi_diversity":0.0,"gdp_density":0.0,"P":9307.9909,"I":0.4379,"G":0.0},{"stationName":"北京白石桥南(地铁站)","station_id":"北京白石桥南(地铁站)_39.93176_116.31942","lineId":"北京地铁9号线","lat":39.93176231,"lon":116.31941904,"area_km2":3.2966,"D":0.5406,"C":0.8806,"T":0.3319,"U1":0.4891,"U2":0.1746,"couplingDegree":0.5406,"level":"勉强协调","road_density":25.138,"walk_accessibility":0.661,"metro_line_density":4.3845,"station_count":4,"line_count":3,"population_density":18597.4395,"poi_density":10.0102,"poi_diversity":2.3194,"gdp_density":0.0,"P":18597.4395,"I":10.0102,"G":0.0},{"stationName":"北京巴沟(地铁站)","station_id":"北京巴沟(地铁站)_39.97321_116.28652","lineId":"北京北京西郊线(巴沟--香山) / 北京地铁10号线","lat":39.97321222,"lon":116.28651993,"area_km2":2.5341,"D":0.2675,"C":0.4366,"T":0.1638,"U1":0.3112,"U2":0.0164,"couplingDegree":0.2675,"level":"中度失调","road_density":28.4283,"walk_accessibility":0.5081,"metro_line_density":3.2327,"station_count":3,"line_count":2,"population_density":6656.7532,"poi_density":0.3946,"poi_diversity":0.0,"gdp_density":0.0,"P":6656.7532,"I":0.3946,"G":0.0},{"stationName":"北京苏州街(地铁站)","station_id":"北京苏州街(地铁站)_39.97437_116.30024","lineId":"北京地铁10号线","lat":39.9743674,"lon":116.3002368,"area_km2":3.6523,"D":0.5645,"C":0.8295,"T":0.3841,"U1":0.5987,"U2":0.1696,"couplingDegree":0.5645,"level":"勉强协调","road_density":30.2756,"walk_accessibility":0.7323,"metro_line_density":3.9296,"station_count":4,"line_count":4,"population_density":10759.295,"poi_density":17.2495,"poi_diversity":2.2711,"gdp_density":0.0,"P":10759.295,"I":17.2495,"G":0.0},{"stationName":"北京知春里(地铁站)","station_id":"北京知春里(地铁站)_39.97502_116.32271","lineId":"北京地铁10号线","lat":39.97502074,"lon":116.32271383,"area_km2":3.3311,"D":0.562,"C":0.7644,"T":0.4132,"U1":0.6796,"U2":0.1468,"couplingDegree":0.562,"level":"勉强协调","road_density":24.7641,"walk_accessibility":0.6679,"metro_line_density":3.593,"station_count":4,"line_count":5,"population_density":5390.6815,"poi_density":10.507,"poi_diversity":2.3624,"gdp_density":0.0,"P":5390.6815,"I":10.507,"G":0.0},{"stationName":"北京知春路(地铁站)","station_id":"北京知春路(地铁站)_39.97514_116.33426","lineId":"北京北京地铁13A号线(车公庄--天通苑东) / 北京地铁10号线 / 北京地铁13号线","lat":39.975138136666665,"lon":116.33425766333333,"area_km2":3.2917,"D":0.5604,"C":0.8773,"T":0.3579,"U1":0.5297,"U2":0.1861,"couplingDegree":0.5604,"level":"勉强协调","road_density":30.731,"walk_accessibility":0.66,"metro_line_density":4.6442,"station_count":3,"line_count":4,"population_density":11750.4293,"poi_density":13.0631,"poi_diversity":2.7638,"gdp_density":0.0,"P":11750.4293,"I":13.0631,"G":0.0},{"stationName":"北京西土城(地铁站)","station_id":"北京西土城(地铁站)_39.97438_116.34811","lineId":"北京地铁10号线 / 北京地铁昌平线","lat":39.974379405,"lon":116.348105885,"area_km2":3.8832,"D":0.6033,"C":0.7966,"T":0.4569,"U1":0.7331,"U2":0.1807,"couplingDegree":0.6033,"level":"良好协调","road_density":32.4978,"walk_accessibility":0.7786,"metro_line_density":4.1335,"station_count":3,"line_count":6,"population_density":12530.7645,"poi_density":10.0434,"poi_diversity":2.7481,"gdp_density":0.0,"P":12530.7645,"I":10.0434,"G":0.0},{"stationName":"北京牡丹园(地铁站)","station_id":"北京牡丹园(地铁站)_39.97546_116.36355","lineId":"北京地铁10号线 / 北京地铁19号线","lat":39.975460319999996,"lon":116.36354894,"area_km2":3.2017,"D":0.4484,"C":0.978,"T":0.2056,"U1":0.2485,"U2":0.1627,"couplingDegree":0.4484,"level":"勉强协调","road_density":26.7551,"walk_accessibility":0.6419,"metro_line_density":3.5364,"station_count":2,"line_count":2,"population_density":19292.9758,"poi_density":9.6822,"poi_diversity":2.0473,"gdp_density":0.0,"P":19292.9758,"I":9.6822,"G":0.0},{"stationName":"北京健德门(地铁站)","station_id":"北京健德门(地铁站)_39.97515_116.37511","lineId":"北京地铁10号线","lat":39.97514848,"lon":116.37511392,"area_km2":3.2154,"D":0.5022,"C":0.8855,"T":0.2848,"U1":0.4171,"U2":0.1525,"couplingDegree":0.5022,"level":"勉强协调","road_density":28.1011,"walk_accessibility":0.6447,"metro_line_density":3.2455,"station_count":3,"line_count":3,"population_density":12882.1245,"poi_density":9.6411,"poi_diversity":2.1509,"gdp_density":0.0,"P":12882.1245,"I":9.6411,"G":0.0},{"stationName":"北京安贞门(地铁站)","station_id":"北京安贞门(地铁站)_39.97560_116.39970","lineId":"北京地铁10号线","lat":39.97559793,"lon":116.39970202,"area_km2":3.3402,"D":0.4353,"C":0.7516,"T":0.2521,"U1":0.4184,"U2":0.0858,"couplingDegree":0.4353,"level":"勉强协调","road_density":27.9475,"walk_accessibility":0.6697,"metro_line_density":3.2554,"station_count":3,"line_count":3,"population_density":22126.5653,"poi_density":0.5988,"poi_diversity":0.6931,"gdp_density":0.0,"P":22126.5653,"I":0.5988,"G":0.0},{"stationName":"北京芍药居(地铁站)","station_id":"北京芍药居(地铁站)_39.97607_116.43023","lineId":"北京北京地铁13B号线(东直门--马连洼) / 北京北京地铁13B号线(马连洼--东直门) / 北京地铁10号线","lat":39.97607328,"lon":116.43023068666668,"area_km2":3.1141,"D":0.4452,"C":0.7266,"T":0.2728,"U1":0.4602,"U2":0.0854,"couplingDegree":0.4452,"level":"勉强协调","road_density":25.2676,"walk_accessibility":0.6244,"metro_line_density":6.7742,"station_count":2,"line_count":4,"population_density":13723.3984,"poi_density":1.6056,"poi_diversity":1.0549,"gdp_density":0.0,"P":13723.3984,"I":1.6056,"G":0.0},{"stationName":"北京太阳宫(地铁站)","station_id":"北京太阳宫(地铁站)_39.97189_116.44165","lineId":"北京地铁10号线 / 北京地铁17号线","lat":39.971885625,"lon":116.44165003500001,"area_km2":2.6483,"D":0.5037,"C":0.8636,"T":0.2938,"U1":0.442,"U2":0.1457,"couplingDegree":0.5037,"level":"勉强协调","road_density":23.7951,"walk_accessibility":0.531,"metro_line_density":5.249,"station_count":2,"line_count":4,"population_density":21012.0099,"poi_density":3.3984,"poi_diversity":1.8892,"gdp_density":0.0,"P":21012.0099,"I":3.3984,"G":0.0},{"stationName":"北京三元桥(地铁站)","station_id":"北京三元桥(地铁站)_39.95968_116.45138","lineId":"北京北京首都机场线(3号航站楼--北新桥) / 北京地铁10号线 / 北京地铁12号线","lat":39.95968114,"lon":116.4513824175,"area_km2":2.8702,"D":0.5224,"C":0.9978,"T":0.2735,"U1":0.2915,"U2":0.2555,"couplingDegree":0.5224,"level":"勉强协调","road_density":27.8986,"walk_accessibility":0.5755,"metro_line_density":6.2483,"station_count":1,"line_count":3,"population_density":19387.0407,"poi_density":7.6649,"poi_diversity":1.933,"gdp_density":52754.3866,"P":19387.0407,"I":7.6649,"G":52754.3866},{"stationName":"北京亮马桥(地铁站)","station_id":"北京亮马桥(地铁站)_39.94805_116.45601","lineId":"北京地铁10号线","lat":39.94805288,"lon":116.45600753,"area_km2":3.6245,"D":0.5126,"C":0.985,"T":0.2667,"U1":0.3127,"U2":0.2207,"couplingDegree":0.5126,"level":"勉强协调","road_density":26.0587,"walk_accessibility":0.7267,"metro_line_density":2.0101,"station_count":3,"line_count":2,"population_density":22026.2036,"poi_density":24.2795,"poi_diversity":2.4733,"gdp_density":0.0,"P":22026.2036,"I":24.2795,"G":0.0},{"stationName":"北京农业展览馆(地铁站)","station_id":"北京农业展览馆(地铁站)_39.93993_116.45638","lineId":"北京地铁10号线","lat":39.93993353,"lon":116.45637859,"area_km2":2.8634,"D":0.6159,"C":1.0,"T":0.3794,"U1":0.376,"U2":0.3827,"couplingDegree":0.6159,"level":"良好协调","road_density":25.2123,"walk_accessibility":0.5741,"metro_line_density":2.7836,"station_count":4,"line_count":2,"population_density":25911.0796,"poi_density":39.8132,"poi_diversity":2.7695,"gdp_density":54347.6801,"P":25911.0796,"I":39.8132,"G":54347.6801},{"stationName":"北京团结湖(地铁站)","station_id":"北京团结湖(地铁站)_39.93242_116.45566","lineId":"北京地铁10号线","lat":39.93241789,"lon":116.45565908,"area_km2":3.3892,"D":0.5851,"C":0.8926,"T":0.3835,"U1":0.2106,"U2":0.5564,"couplingDegree":0.5851,"level":"勉强协调","road_density":24.9715,"walk_accessibility":0.6795,"metro_line_density":2.1419,"station_count":3,"line_count":1,"population_density":16418.2597,"poi_density":133.3642,"poi_diversity":2.9878,"gdp_density":45915.5094,"P":16418.2597,"I":133.3642,"G":45915.5094},{"stationName":"北京呼家楼(地铁站)","station_id":"北京呼家楼(地铁站)_39.92199_116.45546","lineId":"北京地铁10号线","lat":39.92198724,"lon":116.45545522,"area_km2":3.3008,"D":0.6005,"C":0.9872,"T":0.3653,"U1":0.4236,"U2":0.307,"couplingDegree":0.6005,"level":"良好协调","road_density":24.0734,"walk_accessibility":0.6618,"metro_line_density":5.3875,"station_count":3,"line_count":3,"population_density":16859.4029,"poi_density":59.0771,"poi_diversity":2.9679,"gdp_density":0.0,"P":16859.4029,"I":59.0771,"G":0.0},{"stationName":"北京金台夕照(地铁站)","station_id":"北京金台夕照(地铁站)_39.91671_116.45664","lineId":"北京地铁10号线 / 北京地铁22号线 / 北京地铁28号线","lat":39.916706956666665,"lon":116.45664196333333,"area_km2":3.5206,"D":0.6038,"C":0.9317,"T":0.3913,"U1":0.5334,"U2":0.2492,"couplingDegree":0.6038,"level":"良好协调","road_density":27.5137,"walk_accessibility":0.7059,"metro_line_density":5.7867,"station_count":3,"line_count":4,"population_density":26344.8317,"poi_density":26.4161,"poi_diversity":2.7647,"gdp_density":0.0,"P":26344.8317,"I":26.4161,"G":0.0},{"stationName":"北京劲松(地铁站)","station_id":"北京劲松(地铁站)_39.88314_116.45528","lineId":"北京地铁10号线","lat":39.88313963,"lon":116.45528002,"area_km2":2.7293,"D":0.5151,"C":0.9921,"T":0.2674,"U1":0.3009,"U2":0.2339,"couplingDegree":0.5151,"level":"勉强协调","road_density":20.4211,"walk_accessibility":0.5472,"metro_line_density":3.6993,"station_count":3,"line_count":2,"population_density":20389.5874,"poi_density":2.9311,"poi_diversity":1.4942,"gdp_density":56359.3476,"P":20389.5874,"I":2.9311,"G":56359.3476},{"stationName":"北京潘家园(地铁站)","station_id":"北京潘家园(地铁站)_39.87406_116.45478","lineId":"北京地铁10号线","lat":39.87405787,"lon":116.45478466,"area_km2":2.7439,"D":0.5713,"C":0.9778,"T":0.3337,"U1":0.4036,"U2":0.2639,"couplingDegree":0.5713,"level":"勉强协调","road_density":21.201,"walk_accessibility":0.5501,"metro_line_density":4.2118,"station_count":3,"line_count":3,"population_density":20279.7061,"poi_density":5.8312,"poi_diversity":2.014,"gdp_density":56060.6591,"P":20279.7061,"I":5.8312,"G":56060.6591},{"stationName":"北京十里河(地铁站)","station_id":"北京十里河(地铁站)_39.86421_116.45307","lineId":"北京地铁10号线 / 北京地铁14号线 / 北京地铁17号线","lat":39.86420939333333,"lon":116.45307443333333,"area_km2":2.5965,"D":0.446,"C":0.8698,"T":0.2287,"U1":0.3415,"U2":0.1158,"couplingDegree":0.446,"level":"勉强协调","road_density":20.9701,"walk_accessibility":0.5206,"metro_line_density":5.8228,"station_count":2,"line_count":3,"population_density":9315.2958,"poi_density":4.2365,"poi_diversity":1.7987,"gdp_density":0.0,"P":9315.2958,"I":4.2365,"G":0.0},{"stationName":"北京分钟寺(地铁站)","station_id":"北京分钟寺(地铁站)_39.85088_116.44782","lineId":"北京地铁10号线","lat":39.85088397,"lon":116.44781567,"area_km2":1.3154,"D":0.2861,"C":0.9781,"T":0.0837,"U1":0.1011,"U2":0.0663,"couplingDegree":0.2861,"level":"中度失调","road_density":17.3007,"walk_accessibility":0.2637,"metro_line_density":2.3809,"station_count":2,"line_count":1,"population_density":4069.3728,"poi_density":2.2806,"poi_diversity":1.0986,"gdp_density":0.0,"P":4069.3728,"I":2.2806,"G":0.0},