{"cityCode":"440300","year":2014,"stations":[{"stationName":"深圳机场东(地铁站)","station_id":"深圳机场东(地铁站)_22.65001_113.81745","lineId":"深圳地铁12号线 / 深圳地铁1号线 / 深圳地铁20号线","lat":22.65000622333333,"lon":113.81745417333333,"area_km2":1.8094,"D":0.2716,"C":0.4528,"T":0.1629,"U1":0.3082,"U2":0.0177,"couplingDegree":0.2716,"level":"中度失调","road_density":23.3038,"walk_accessibility":0.3628,"metro_line_density":6.5442,"station_count":1,"line_count":3,"population_density":7887.6522,"poi_density":0.0,"poi_diversity":0.0,"gdp_density":17008.1555,"P":7887.6522,"I":0.0,"G":17008.1555},{"stationName":"深圳后瑞(地铁站)","station_id":"深圳后瑞(地铁站)_22.63180_113.83045","lineId":"深圳地铁1号线","lat":22.6318011,"lon":113.83045122,"area_km2":2.1041,"D":0.2325,"C":0.7206,"T":0.075,"U1":0.127,"U2":0.023,"couplingDegree":0.2325,"level":"中度失调","road_density":27.7809,"walk_accessibility":0.4219,"metro_line_density":5.241,"station_count":1,"line_count":1,"population_density":13441.3652,"poi_density":0.0,"poi_diversity":0.0,"gdp_density":15687.6395,"P":13441.3652,"I":0.0,"G":15687.6395},{"stationName":"深圳固戍(地铁站)","station_id":"深圳固戍(地铁站)_22.60435_113.84182","lineId":"深圳地铁1号线","lat":22.60435465,"lon":113.84182451,"area_km2":2.5354,"D":0.2029,"C":0.8037,"T":0.0512,"U1":0.0817,"U2":0.0208,"couplingDegree":0.2029,"level":"中度失调","road_density":26.6834,"walk_accessibility":0.5083,"metro_line_density":2.1077,"station_count":1,"line_count":1,"population_density":10543.3811,"poi_density":0.0,"poi_diversity":0.0,"gdp_density":17376.0049,"P":10543.3811,"I":0.0,"G":17376.0049},{"stationName":"深圳西乡(地铁站)","station_id":"深圳西乡(地铁站)_22.57817_113.85812","lineId":"深圳地铁1号线","lat":22.57817025,"lon":113.85812138,"area_km2":2.6809,"D":0.2466,"C":0.4675,"T":0.1301,"U1":0.2451,"U2":0.0151,"couplingDegree":0.2466,"level":"中度失调","road_density":28.7036,"walk_accessibility":0.5375,"metro_line_density":3.7063,"station_count":2,"line_count":2,"population_density":8497.4489,"poi_density":0.0,"poi_diversity":0.0,"gdp_density":10938.1556,"P":8497.4489,"I":0.0,"G":10938.1556},{"stationName":"深圳坪洲(地铁站)","station_id":"深圳坪洲(地铁站)_22.57195_113.86578","lineId":"深圳地铁15号线 / 深圳地铁1号线","lat":22.571946635,"lon":113.865775895,"area_km2":2.9608,"D":0.2635,"C":0.4815,"T":0.1442,"U1":0.2706,"U2":0.0178,"couplingDegree":0.2635,"level":"中度失调","road_density":30.6237,"walk_accessibility":0.5936,"metro_line_density":4.5866,"station_count":2,"line_count":2,"population_density":13832.9117,"poi_density":0.0,"poi_diversity":0.0,"gdp_density":5185.2111,"P":13832.9117,"I":0.0,"G":5185.2111},{"stationName":"深圳宝体(地铁站)","station_id":"深圳宝体(地铁站)_22.56378_113.87575","lineId":"深圳地铁1号线","lat":22.5637833,"lon":113.87574882,"area_km2":3.1156,"D":0.3029,"C":0.5972,"T":0.1537,"U1":0.277,"U2":0.0304,"couplingDegree":0.3029,"level":"中度失调","road_density":41.7022,"walk_accessibility":0.6247,"metro_line_density":2.8603,"station_count":2,"line_count":2,"population_density":25544.5216,"poi_density":0.0,"poi_diversity":0.0,"gdp_density":4893.4954,"P":25544.5216,"I":0.0,"G":4893.4954},{"stationName":"深圳宝安中心(地铁站)","station_id":"深圳宝安中心(地铁站)_22.55762_113.88236","lineId":"深圳地铁1号线 / 深圳地铁5号线","lat":22.55761773,"lon":113.882356145,"area_km2":3.4136,"D":0.2949,"C":0.3722,"T":0.2337,"U1":0.4506,"U2":0.0168,"couplingDegree":0.2949,"level":"中度失调","road_density":41.0074,"walk_accessibility":0.6844,"metro_line_density":3.6275,"station_count":6,"line_count":2,"population_density":10976.5877,"poi_density":0.0,"poi_diversity":0.0,"gdp_density":9068.5869,"P":10976.5877,"I":0.0,"G":9068.5869},{"stationName":"深圳新安(地铁站)","station_id":"深圳新安(地铁站)_22.55052_113.88975","lineId":"深圳地铁1号线","lat":22.5505208,"lon":113.88975332,"area_km2":3.0257,"D":0.2189,"C":0.2329,"T":0.2058,"U1":0.4058,"U2":0.0057,"couplingDegree":0.2189,"level":"中度失调","road_density":40.2879,"walk_accessibility":0.6066,"metro_line_density":3.9059,"station_count":5,"line_count":2,"population_density":3097.8364,"poi_density":0.0,"poi_diversity":0.0,"gdp_density":4287.6884,"P":3097.8364,"I":0.0,"G":4287.6884},{"stationName":"深圳前海湾(地铁站)","station_id":"深圳前海湾(地铁站)_22.54039_113.89306","lineId":"深圳地铁1号线","lat":22.5403881,"lon":113.89306479999999,"area_km2":2.3465,"D":0.1203,"C":0.0681,"T":0.2125,"U1":0.4246,"U2":0.0005,"couplingDegree":0.1203,"level":"极度失调","road_density":43.4533,"walk_accessibility":0.4705,"metro_line_density":5.366,"station_count":5,"line_count":2,"population_density":453.4352,"poi_density":0.0,"poi_diversity":0.0,"gdp_density":0.0,"P":453.4352,"I":0.0,"G":0.0},{"stationName":"深圳鲤鱼门(地铁站)","station_id":"深圳鲤鱼门(地铁站)_22.53506_113.89822","lineId":"深圳地铁1号线","lat":22.53505852,"lon":113.89821563,"area_km2":2.5907,"D":0.2757,"C":0.3955,"T":0.1922,"U1":0.3687,"U2":0.0157,"couplingDegree":0.2757,"level":"中度失调","road_density":40.3698,"walk_accessibility":0.5194,"metro_line_density":4.5708,"station_count":4,"line_count":2,"population_density":2461.5132,"poi_density":0.386,"poi_diversity":0.0,"gdp_density":0.0,"P":2461.5132,"I":0.386,"G":0.0},{"stationName":"深圳大新(地铁站)","station_id":"深圳大新(地铁站)_22.53528_113.91021","lineId":"深圳地铁1号线","lat":22.53528155,"lon":113.91021352,"area_km2":2.7798,"D":0.5041,"C":0.9967,"T":0.255,"U1":0.2757,"U2":0.2343,"couplingDegree":0.5041,"level":"勉强协调","road_density":30.3518,"walk_accessibility":0.5574,"metro_line_density":2.7702,"station_count":3,"line_count":2,"population_density":50404.2604,"poi_density":1.7987,"poi_diversity":0.9503,"gdp_density":4787.2466,"P":50404.2604,"I":1.7987,"G":4787.2466},{"stationName":"深圳桃园(地铁站)","station_id":"深圳桃园(地铁站)_22.53497_113.91996","lineId":"深圳地铁12号线 / 深圳地铁1号线","lat":22.534973825,"lon":113.91995836000001,"area_km2":2.9509,"D":0.6278,"C":0.9494,"T":0.4152,"U1":0.2848,"U2":0.5457,"couplingDegree":0.6278,"level":"良好协调","road_density":35.1938,"walk_accessibility":0.5916,"metro_line_density":4.6739,"station_count":2,"line_count":2,"population_density":43698.2406,"poi_density":6.4387,"poi_diversity":2.2602,"gdp_density":8689.9895,"P":43698.2406,"I":6.4387,"G":8689.9895},{"stationName":"深圳深大(地铁站)","station_id":"深圳深大(地铁站)_22.54225_113.93968","lineId":"深圳地铁1号线 / 深圳地铁20号线","lat":22.542249435000002,"lon":113.93968090499999,"area_km2":3.0953,"D":0.2787,"C":0.4832,"T":0.1608,"U1":0.3016,"U2":0.02,"couplingDegree":0.2787,"level":"中度失调","road_density":38.5053,"walk_accessibility":0.6206,"metro_line_density":4.9497,"station_count":2,"line_count":2,"population_density":14277.597,"poi_density":0.0,"poi_diversity":0.0,"gdp_density":8387.5784,"P":14277.597,"I":0.0,"G":8387.5784},{"stationName":"深圳高新园(地铁站)","station_id":"深圳高新园(地铁站)_22.54323_113.94895","lineId":"深圳地铁1号线","lat":22.54323071,"lon":113.94894998,"area_km2":3.0293,"D":0.246,"C":0.3984,"T":0.1519,"U1":0.2913,"U2":0.0126,"couplingDegree":0.246,"level":"中度失调","road_density":40.1298,"walk_accessibility":0.6074,"metro_line_density":4.1185,"station_count":2,"line_count":2,"population_density":7541.7958,"poi_density":0.0,"poi_diversity":0.0,"gdp_density":8188.6207,"P":7541.7958,"I":0.0,"G":8188.6207},{"stationName":"深圳白石洲(地铁站)","station_id":"深圳白石洲(地铁站)_22.54236_113.96268","lineId":"深圳地铁1号线 / 深圳地铁29号线","lat":22.54235794,"lon":113.9626828,"area_km2":2.3067,"D":0.2981,"C":0.5856,"T":0.1517,"U1":0.2747,"U2":0.0287,"couplingDegree":0.2981,"level":"中度失调","road_density":30.435,"walk_accessibility":0.4625,"metro_line_density":5.6996,"station_count":2,"line_count":2,"population_density":19023.7086,"poi_density":0.0,"poi_diversity":0.0,"gdp_density":15055.5159,"P":19023.7086,"I":0.0,"G":15055.5159},{"stationName":"深圳世界之窗(地铁站)","station_id":"深圳世界之窗(地铁站)_22.53984_113.96928","lineId":"深圳地铁1号线","lat":22.539844119999998,"lon":113.96928457,"area_km2":2.2183,"D":0.3233,"C":0.614,"T":0.1702,"U1":0.3046,"U2":0.0359,"couplingDegree":0.3233,"level":"中度失调","road_density":27.1948,"walk_accessibility":0.4448,"metro_line_density":5.7958,"station_count":3,"line_count":2,"population_density":11552.5526,"poi_density":0.4508,"poi_diversity":0.0,"gdp_density":15189.7918,"P":11552.5526,"I":0.4508,"G":15189.7918},{"stationName":"深圳华侨城(地铁站)","station_id":"深圳华侨城(地铁站)_22.53640_113.98041","lineId":"深圳地铁1号线","lat":22.53640038,"lon":113.98041078,"area_km2":1.9388,"D":0.3095,"C":0.5945,"T":0.1611,"U1":0.2907,"U2":0.0316,"couplingDegree":0.3095,"level":"中度失调","road_density":27.7476,"walk_accessibility":0.3887,"metro_line_density":2.8013,"station_count":4,"line_count":2,"population_density":7633.9559,"poi_density":0.5158,"poi_diversity":0.0,"gdp_density":11049.8026,"P":7633.9559,"I":0.5158,"G":11049.8026},{"stationName":"深圳侨城东(地铁站)","station_id":"深圳侨城东(地铁站)_22.53528_113.99167","lineId":"深圳地铁1号线","lat":22.53528443,"lon":113.991665165,"area_km2":2.6443,"D":0.247,"C":0.6308,"T":0.0967,"U1":0.1718,"U2":0.0217,"couplingDegree":0.247,"level":"中度失调","road_density":32.6023,"walk_accessibility":0.5302,"metro_line_density":4.0618,"station_count":2,"line_count":1,"population_density":6277.3514,"poi_density":0.3782,"poi_diversity":0.0,"gdp_density":3965.1205,"P":6277.3514,"I":0.3782,"G":3965.1205},{"stationName":"深圳竹子林(地铁站)","station_id":"深圳竹子林(地铁站)_22.53618_114.00889","lineId":"深圳地铁1号线","lat":22.53618372,"lon":114.00888869,"area_km2":2.636,"D":0.2581,"C":0.6773,"T":0.0983,"U1":0.1707,"U2":0.026,"couplingDegree":0.2581,"level":"中度失调","road_density":36.8073,"walk_accessibility":0.5285,"metro_line_density":5.6801,"station_count":1,"line_count":1,"population_density":22219.9816,"poi_density":0.0,"poi_diversity":0.0,"gdp_density":3396.3292,"P":22219.9816,"I":0.0,"G":3396.3292},{"stationName":"深圳车公庙(地铁站)","station_id":"深圳车公庙(地铁站)_22.53872_114.02221","lineId":"深圳地铁1号线 / 深圳地铁7号线","lat":22.53871917,"lon":114.02220625,"area_km2":2.4824,"D":0.3251,"C":0.5434,"T":0.1945,"U1":0.3578,"U2":0.0312,"couplingDegree":0.3251,"level":"中度失调","road_density":40.5783,"walk_accessibility":0.4977,"metro_line_density":8.8111,"station_count":2,"line_count":2,"population_density":22794.4664,"poi_density":0.0,"poi_diversity":0.0,"gdp_density":12027.3872,"P":22794.4664,"I":0.0,"G":12027.3872},{"stationName":"深圳香蜜湖(地铁站)","station_id":"深圳香蜜湖(地铁站)_22.54164_114.03355","lineId":"深圳地铁1号线","lat":22.54164462,"lon":114.03355214,"area_km2":1.6897,"D":0.3439,"C":0.6602,"T":0.1791,"U1":0.3136,"U2":0.0446,"couplingDegree":0.3439,"level":"中度失调","road_density":32.3984,"walk_accessibility":0.3388,"metro_line_density":8.5232,"station_count":2,"line_count":2,"population_density":17483.9204,"poi_density":0.5918,"poi_diversity":0.0,"gdp_density":10551.2086,"P":17483.9204,"I":0.5918,"G":10551.2086},{"stationName":"深圳购物公园(地铁站)","station_id":"深圳购物公园(地铁站)_22.53683_114.04872","lineId":"深圳地铁1号线 / 深圳地铁3号线","lat":22.536828185,"lon":114.04872448500001,"area_km2":2.9494,"D":0.7736,"C":0.9652,"T":0.62,"U1":0.7822,"U2":0.4578,"couplingDegree":0.7736,"level":"良好协调","road_density":39.2579,"walk_accessibility":0.5913,"metro_line_density":5.3532,"station_count":5,"line_count":6,"population_density":24263.4821,"poi_density":2.3734,"poi_diversity":0.7963,"gdp_density":475799.0933,"P":24263.4821,"I":2.3734,"G":475799.0933},{"stationName":"深圳会展中心(地铁站)","station_id":"深圳会展中心(地铁站)_22.53748_114.05598","lineId":"深圳地铁1号线","lat":22.537482,"lon":114.05598438,"area_km2":2.8183,"D":0.7678,"C":0.9415,"T":0.6261,"U1":0.8371,"U2":0.4151,"couplingDegree":0.7678,"level":"良好协调","road_density":39.9326,"walk_accessibility":0.5651,"metro_line_density":6.3594,"station_count":6,"line_count":6,"population_density":26776.1355,"poi_density":2.1289,"poi_diversity":0.4506,"gdp_density":485420.4603,"P":26776.1355,"I":2.1289,"G":485420.4603},{"stationName":"深圳岗厦(地铁站)","station_id":"深圳岗厦(地铁站)_22.53720_114.06300","lineId":"深圳地铁10号线 / 深圳地铁1号线","lat":22.53719936,"lon":114.06300142,"area_km2":3.0179,"D":0.6975,"C":0.8847,"T":0.5499,"U1":0.8062,"U2":0.2935,"couplingDegree":0.6975,"level":"良好协调","road_density":39.3513,"walk_accessibility":0.6051,"metro_line_density":6.7213,"station_count":5,"line_count":6,"population_density":38836.2349,"poi_density":0.3314,"poi_diversity":0.0,"gdp_density":449775.9989,"P":38836.2349,"I":0.3314,"G":449775.9989},{"stationName":"深圳华强路(地铁站)","station_id":"深圳华强路(地铁站)_22.54314_114.08000","lineId":"深圳地铁1号线","lat":22.54314425,"lon":114.08000402,"area_km2":3.0295,"D":0.7769,"C":0.9868,"T":0.6116,"U1":0.7108,"U2":0.5124,"couplingDegree":0.7769,"level":"良好协调","road_density":29.8098,"walk_accessibility":0.6074,"metro_line_density":7.9828,"station_count":5,"line_count":5,"population_density":60558.7648,"poi_density":5.2815,"poi_diversity":2.1661,"gdp_density":6648.1962,"P":60558.7648,"I":5.2815,"G":6648.1962},{"stationName":"深圳科学馆(地铁站)","station_id":"深圳科学馆(地铁站)_22.54281_114.09065","lineId":"深圳地铁1号线 / 深圳地铁6号线","lat":22.542808015,"lon":114.09064715,"area_km2":2.5726,"D":0.7522,"C":0.9763,"T":0.5796,"U1":0.705,"U2":0.4542,"couplingDegree":0.7522,"level":"良好协调","road_density":32.2578,"walk_accessibility":0.5158,"metro_line_density":7.7812,"station_count":5,"line_count":5,"population_density":72318.0089,"poi_density":4.2758,"poi_diversity":1.8462,"gdp_density":10380.0625,"P":72318.0089,"I":4.2758,"G":10380.0625},{"stationName":"深圳大剧院(地铁站)","station_id":"深圳大剧院(地铁站)_22.54405_114.10295","lineId":"深圳地铁1号线 / 深圳地铁2号线 / 深圳地铁5号线","lat":22.54404932,"lon":114.1029459975,"area_km2":2.8679,"D":0.826,"C":0.978,"T":0.6976,"U1":0.8431,"U2":0.5521,"couplingDegree":0.826,"level":"优质协调","road_density":37.1631,"walk_accessibility":0.575,"metro_line_density":9.55,"station_count":5,"line_count":6,"population_density":53739.3694,"poi_density":3.8356,"poi_diversity":1.8938,"gdp_density":248500.5523,"P":53739.3694,"I":3.8356,"G":248500.5523},{"stationName":"深圳老街(地铁站)","station_id":"深圳老街(地铁站)_22.54744_114.11095","lineId":"深圳地铁17号线 / 深圳地铁1号线 / 深圳地铁3号线","lat":22.547437164999998,"lon":114.1109457625,"area_km2":3.0672,"D":0.8893,"C":0.9997,"T":0.791,"U1":0.7733,"U2":0.8087,"couplingDegree":0.8893,"level":"优质协调","road_density":34.5057,"walk_accessibility":0.615,"metro_line_density":8.5457,"station_count":6,"line_count":5,"population_density":68996.6073,"poi_density":6.1945,"poi_diversity":2.2878,"gdp_density":458880.6261,"P":68996.6073,"I":6.1945,"G":458880.6261},{"stationName":"深圳国贸(地铁站)","station_id":"深圳国贸(地铁站)_22.54236_114.11373","lineId":"深圳地铁1号线","lat":22.54236105,"lon":114.11372756,"area_km2":2.898,"D":0.8371,"C":0.9886,"T":0.7088,"U1":0.8155,"U2":0.602,"couplingDegree":0.8371,"level":"优质协调","road_density":34.7328,"walk_accessibility":0.581,"metro_line_density":8.9086,"station_count":7,"line_count":5,"population_density":45046.5673,"poi_density":4.8309,"poi_diversity":2.144,"gdp_density":239511.6857,"P":45046.5673,"I":4.8309,"G":239511.6857},{"stationName":"深圳罗湖(地铁站)","station_id":"深圳罗湖(地铁站)_22.53455_114.11352","lineId":"深圳地铁1号线","lat":22.53455081,"lon":114.11352383,"area_km2":1.9686,"D":0.5885,"C":0.9962,"T":0.3476,"U1":0.3172,"U2":0.378,"couplingDegree":0.5885,"level":"勉强协调","road_density":36.1087,"walk_accessibility":0.3947,"metro_line_density":5.3452,"station_count":3,"line_count":2,"population_density":26702.0722,"poi_density":4.0639,"poi_diversity":1.7329,"gdp_density":0.0,"P":26702.0722,"I":4.0639,"G":0.0},{"stationName":"深圳湾厦(地铁站)","station_id":"深圳湾厦(地铁站)_22.49638_113.93374","lineId":"深圳地铁2号线","lat":22.496378425,"lon":113.93373575,"area_km2":2.5806,"D":0.3013,"C":0.5917,"T":0.1534,"U1":0.2771,"U2":0.0297,"couplingDegree":0.3013,"level":"中度失调","road_density":37.4045,"walk_accessibility":0.5174,"metro_line_density":1.8848,"station_count":3,"line_count":2,"population_density":3350.0145,"poi_density":0.775,"poi_diversity":0.0,"gdp_density":0.0,"P":3350.0145,"I":0.775,"G":0.0},{"stationName":"深圳后海(地铁站)","station_id":"深圳后海(地铁站)_22.52078_113.93700","lineId":"深圳地铁11号线 / 深圳地铁2号线","lat":22.52077919,"lon":113.93700366,"area_km2":3.2515,"D":0.575,"C":1.0,"T":0.3307,"U1":0.3338,"U2":0.3275,"couplingDegree":0.575,"level":"勉强协调","road_density":43.4973,"walk_accessibility":0.6519,"metro_line_density":3.4545,"station_count":3,"line_count":2,"population_density":2826.7097,"poi_density":2.768,"poi_diversity":1.8892,"gdp_density":0.0,"P":2826.7097,"I":2.768,"G":0.0},{"stationName":"深圳景田(地铁站)","station_id":"深圳景田(地铁站)_22.55616_114.03825","lineId":"深圳地铁2号线","lat":22.55616499,"lon":114.038249175,"area_km2":2.589,"D":0.469,"C":0.9942,"T":0.2212,"U1":0.1975,"U2":0.245,"couplingDegree":0.469,"level":"勉强协调","road_density":25.6758,"walk_accessibility":0.5191,"metro_line_density":4.5008,"station_count":3,"line_count":1,"population_density":10223.1985,"poi_density":2.3175,"poi_diversity":1.2425,"gdp_density":6978.075,"P":10223.1985,"I":2.3175,"G":6978.075},{"stationName":"深圳福田(地铁站)","station_id":"深圳福田(地铁站)_22.54272_114.04896","lineId":"深圳地铁11号线 / 深圳地铁2号线 / 深圳地铁3号线","lat":22.542715333333334,"lon":114.04896284666667,"area_km2":3.1711,"D":0.7198,"C":0.9311,"T":0.5564,"U1":0.7593,"U2":0.3535,"couplingDegree":0.7198,"level":"良好协调","road_density":38.949,"walk_accessibility":0.6358,"metro_line_density":6.7918,"station_count":6,"line_count":5,"population_density":14967.975,"poi_density":2.5228,"poi_diversity":1.0735,"gdp_density":226328.3944,"P":14967.975,"I":2.5228,"G":226328.3944},{"stationName":"深圳岗厦北(地铁站)","station_id":"深圳岗厦北(地铁站)_22.54251_114.06310","lineId":"深圳地铁10号线 / 深圳地铁11号线 / 深圳地铁2号线","lat":22.54250847333333,"lon":114.06310459666668,"area_km2":3.0388,"D":0.6817,"C":0.8362,"T":0.5558,"U1":0.8606,"U2":0.251,"couplingDegree":0.6817,"level":"良好协调","road_density":36.2552,"walk_accessibility":0.6093,"metro_line_density":8.1579,"station_count":6,"line_count":6,"population_density":22136.9114,"poi_density":0.6582,"poi_diversity":0.6931,"gdp_density":224521.3033,"P":22136.9114,"I":0.6582,"G":224521.3033},{"stationName":"深圳黄贝岭(地铁站)","station_id":"深圳黄贝岭(地铁站)_22.54881_114.13127","lineId":"深圳地铁2号线","lat":22.54880508,"lon":114.13126658499999,"area_km2":2.2937,"D":0.6195,"C":0.932,"T":0.4118,"U1":0.2625,"U2":0.5611,"couplingDegree":0.6195,"level":"良好协调","road_density":30.6119,"walk_accessibility":0.4599,"metro_line_density":4.9341,"station_count":2,"line_count":2,"population_density":45770.2838,"poi_density":4.3598,"poi_diversity":1.8344,"gdp_density":262154.4277,"P":45770.2838,"I":4.3598,"G":262154.4277},{"stationName":"深圳莲塘(地铁站)","station_id":"深圳莲塘(地铁站)_22.56689_114.16932","lineId":"深圳地铁2号线","lat":22.56689319,"lon":114.16932174,"area_km2":1.6003,"D":0.162,"C":0.3625,"T":0.0724,"U1":0.1398,"U2":0.0049,"couplingDegree":0.162,"level":"极度失调","road_density":25.0486,"walk_accessibility":0.3208,"metro_line_density":2.3281,"station_count":3,"line_count":1,"population_density":1997.7984,"poi_density":0.0,"poi_diversity":0.0,"gdp_density":5148.6158,"P":1997.7984,"I":0.0,"G":5148.6158},{"stationName":"深圳海山(地铁站)","station_id":"深圳海山(地铁站)_22.55840_114.23288","lineId":"深圳地铁2号线","lat":22.55839839,"lon":114.23287589,"area_km2":2.4557,"D":0.3471,"C":0.9983,"T":0.1207,"U1":0.1136,"U2":0.1277,"couplingDegree":0.3471,"level":"中度失调","road_density":24.8881,"walk_accessibility":0.4924,"metro_line_density":2.0681,"station_count":2,"line_count":1,"population_density":14193.6789,"poi_density":0.8144,"poi_diversity":0.6931,"gdp_density":0.0,"P":14193.6789,"I":0.8144,"G":0.0},{"stationName":"深圳大梅沙(地铁站)","station_id":"深圳大梅沙(地铁站)_22.59690_114.30297","lineId":"深圳地铁2号线","lat":22.59689826,"lon":114.30297058,"area_km2":1.0853,"D":0.2396,"C":0.8364,"T":0.0686,"U1":0.1063,"U2":0.031,"couplingDegree":0.2396,"level":"中度失调","road_density":30.5991,"walk_accessibility":0.2176,"metro_line_density":4.7695,"station_count":1,"line_count":1,"population_density":0.0,"poi_density":0.9214,"poi_diversity":0.0,"gdp_density":0.0,"P":0.0,"I":0.9214,"G":0.0},{"stationName":"深圳赤湾(地铁站)","station_id":"深圳赤湾(地铁站)_22.48228_113.89266","lineId":"深圳地铁2号线","lat":22.48228075,"lon":113.8926602,"area_km2":1.6622,"D":0.1728,"C":0.9578,"T":0.0312,"U1":0.0401,"U2":0.0222,"couplingDegree":0.1728,"level":"极度失调","road_density":24.4097,"walk_accessibility":0.3333,"metro_line_density":1.0588,"station_count":1,"line_count":1,"population_density":1809.0772,"poi_density":0.6016,"poi_diversity":0.0,"gdp_density":0.0,"P":1809.0772,"I":0.6016,"G":0.0},{"stationName":"深圳蛇口港(地铁站)","station_id":"深圳蛇口港(地铁站)_22.47968_113.90747","lineId":"深圳地铁2号线","lat":22.47967754,"lon":113.90747461,"area_km2":2.1905,"D":0.4177,"C":0.9697,"T":0.1799,"U1":0.2239,"U2":0.136,"couplingDegree":0.4177,"level":"勉强协调","road_density":27.7748,"walk_accessibility":0.4392,"metro_line_density":3.1902,"station_count":2,"line_count":2,"population_density":11005.1109,"poi_density":1.3695,"poi_diversity":0.6365,"gdp_density":0.0,"P":11005.1109,"I":1.3695,"G":0.0},{"stationName":"深圳海上世界(地铁站)","station_id":"深圳海上世界(地铁站)_22.48836_113.90973","lineId":"深圳地铁12号线 / 深圳地铁2号线","lat":22.488362535,"lon":113.90973415,"area_km2":2.6632,"D":0.4821,"C":0.9934,"T":0.234,"U1":0.2608,"U2":0.2072,"couplingDegree":0.4821,"level":"勉强协调","road_density":25.9258,"walk_accessibility":0.534,"metro_line_density":2.7669,"station_count":3,"line_count":2,"population_density":24916.112,"poi_density":1.502,"poi_diversity":1.0397,"gdp_density":4248.0648,"P":24916.112,"I":1.502,"G":4248.0648},{"stationName":"深圳水湾(地铁站)","station_id":"深圳水湾(地铁站)_22.49144_113.91483","lineId":"深圳地铁2号线","lat":22.49143653,"lon":113.91482918,"area_km2":2.9719,"D":0.5316,"C":0.9776,"T":0.289,"U1":0.3499,"U2":0.2282,"couplingDegree":0.5316,"level":"勉强协调","road_density":26.5,"walk_accessibility":0.5959,"metro_line_density":2.2666,"station_count":3,"line_count":3,"population_density":49209.0332,"poi_density":1.3459,"poi_diversity":1.0397,"gdp_density":3806.7805,"P":49209.0332,"I":1.3459,"G":3806.7805},{"stationName":"深圳东角头(地铁站)","station_id":"深圳东角头(地铁站)_22.48908_113.92671","lineId":"深圳地铁13号线 / 深圳地铁2号线","lat":22.489081140000003,"lon":113.92670812,"area_km2":2.7311,"D":0.3335,"C":0.7216,"T":0.1541,"U1":0.2608,"U2":0.0474,"couplingDegree":0.3335,"level":"中度失调","road_density":30.3926,"walk_accessibility":0.5476,"metro_line_density":1.9106,"station_count":3,"line_count":2,"population_density":32245.6301,"poi_density":0.3662,"poi_diversity":0.0,"gdp_density":0.0,"P":32245.6301,"I":0.3662,"G":0.0},{"stationName":"深圳海月(地铁站)","station_id":"深圳海月(地铁站)_22.50343_113.93285","lineId":"深圳地铁2号线","lat":22.50343499,"lon":113.9328472,"area_km2":3.0329,"D":0.2772,"C":0.6392,"T":0.1202,"U1":0.2127,"U2":0.0278,"couplingDegree":0.2772,"level":"中度失调","road_density":39.746,"walk_accessibility":0.6081,"metro_line_density":2.4359,"station_count":3,"line_count":1,"population_density":3250.0219,"poi_density":0.6594,"poi_diversity":0.0,"gdp_density":3801.9988,"P":3250.0219,"I":0.6594,"G":3801.9988},{"stationName":"深圳登良(地铁站)","station_id":"深圳登良(地铁站)_22.51217_113.93273","lineId":"深圳地铁2号线","lat":22.51217143,"lon":113.93273309,"area_km2":3.0466,"D":0.5519,"C":0.9996,"T":0.3047,"U1":0.3128,"U2":0.2965,"couplingDegree":0.5519,"level":"勉强协调","road_density":39.3234,"walk_accessibility":0.6108,"metro_line_density":3.1542,"station_count":3,"line_count":2,"population_density":2714.7909,"poi_density":2.2976,"poi_diversity":1.7479,"gdp_density":4102.9842,"P":2714.7909,"I":2.2976,"G":4102.9842},{"stationName":"深圳科苑(地铁站)","station_id":"深圳科苑(地铁站)_22.53003_113.94132","lineId":"深圳地铁2号线","lat":22.53002996,"lon":113.94131533,"area_km2":3.1318,"D":0.2621,"C":0.4694,"T":0.1464,"U1":0.2756,"U2":0.0171,"couplingDegree":0.2621,"level":"中度失调","road_density":38.2572,"walk_accessibility":0.6279,"metro_line_density":3.3521,"station_count":2,"line_count":2,"population_density":2884.6389,"poi_density":0.3193,"poi_diversity":0.0,"gdp_density":6063.8999,"P":2884.6389,"I":0.3193,"G":6063.8999},{"stationName":"深圳红树湾(地铁站)","station_id":"深圳红树湾(地铁站)_22.52810_113.96351","lineId":"深圳地铁2号线","lat":22.52810144,"lon":113.96351323,"area_km2":1.7324,"D":0.2389,"C":0.6414,"T":0.089,"U1":0.1572,"U2":0.0207,"couplingDegree":0.2389,"level":"中度失调","road_density":30.1136,"walk_accessibility":0.3473,"metro_line_density":7.1564,"station_count":1,"line_count":1,"population_density":15849.5231,"poi_density":0.0,"poi_diversity":0.0,"gdp_density":6474.7584,"P":15849.5231,"I":0.0,"G":6474.7584},{"stationName":"深圳侨城北(地铁站)","station_id":"深圳侨城北(地铁站)_22.54689_113.98418","lineId":"深圳地铁2号线","lat":22.54689151,"lon":113.98418133,"area_km2":1.5372,"D":0.187,"C":0.3277,"T":0.1067,"U1":0.2076,"U2":0.0059,"couplingDegree":0.187,"level":"极度失调","road_density":25.163,"walk_accessibility":0.3082,"metro_line_density":1.0672,"station_count":3,"line_count":2,"population_density":1433.7417,"poi_density":0.0,"poi_diversity":0.0,"gdp_density":8119.3582,"P":1433.7417,"I":0.0,"G":8119.3582},{"stationName":"深圳深康(地铁站)","station_id":"深圳深康(地铁站)_22.54933_113.99385","lineId":"深圳地铁2号线","lat":22.54932677,"lon":113.99385475,"area_km2":1.2395,"D":0.1899,"C":0.2848,"T":0.1267,"U1":0.2481,"U2":0.0052,"couplingDegree":0.1899,"level":"极度失调","road_density":25.2256,"walk_accessibility":0.2485,"metro_line_density":3.9161,"station_count":3,"line_count":2,"population_density":1162.5496,"poi_density":0.0,"poi_diversity":0.0,"gdp_density":7455.2328,"P":1162.5496,"I":0.0,"G":7455.2328},{"stationName":"深圳安托山(地铁站)","station_id":"深圳安托山(地铁站)_22.55163_114.00123","lineId":"深圳地铁2号线 / 深圳地铁7号线","lat":22.55163211,"lon":114.00122526999999,"area_km2":1.5554,"D":0.2979,"C":0.6275,"T":0.1414,"U1":0.2515,"U2":0.0313,"couplingDegree":0.2979,"level":"中度失调","road_density":23.9415,"walk_accessibility":0.3119,"metro_line_density":3.9431,"station_count":3,"line_count":2,"population_density":6883.0879,"poi_density":0.6429,"poi_diversity":0.0,"gdp_density":4058.1455,"P":6883.0879,"I":0.6429,"G":4058.1455},{"stationName":"深圳侨香(地铁站)","station_id":"深圳侨香(地铁站)_22.55261_114.00935","lineId":"深圳地铁2号线","lat":22.55260751,"lon":114.00934651,"area_km2":2.5758,"D":0.3048,"C":0.622,"T":0.1494,"U1":0.2664,"U2":0.0324,"couplingDegree":0.3048,"level":"中度失调","road_density":28.2515,"walk_accessibility":0.5164,"metro_line_density":2.8202,"station_count":3,"line_count":2,"population_density":11260.1028,"poi_density":0.3882,"poi_diversity":0.0,"gdp_density":13279.5698,"P":11260.1028,"I":0.3882,"G":13279.5698},{"stationName":"深圳香蜜(地铁站)","station_id":"深圳香蜜(地铁站)_22.55557_114.01880","lineId":"深圳地铁2号线","lat":22.55556774,"lon":114.01879815,"area_km2":2.0413,"D":0.2077,"C":0.4627,"T":0.0933,"U1":0.1759,"U2":0.0106,"couplingDegree":0.2077,"level":"中度失调","road_density":31.6247,"walk_accessibility":0.4093,"metro_line_density":2.8435,"station_count":3,"line_count":1,"population_density":7611.3723,"poi_density":0.0,"poi_diversity":0.0,"gdp_density":4310.0862,"P":7611.3723,"I":0.0,"G":4310.0862},{"stationName":"深圳香梅北(地铁站)","station_id":"深圳香梅北(地铁站)_22.55663_114.02764","lineId":"深圳地铁2号线","lat":22.5566329,"lon":114.02764343,"area_km2":2.0293,"D":0.2816,"C":0.7064,"T":0.1123,"U1":0.1917,"U2":0.0328,"couplingDegree":0.2816,"level":"中度失调","road_density":26.5372,"walk_accessibility":0.4069,"metro_line_density":4.7073,"station_count":3,"line_count":1,"population_density":12711.3576,"poi_density":0.4928,"poi_diversity":0.0,"gdp_density":4444.9289,"P":12711.3576,"I":0.4928,"G":4444.9289},{"stationName":"深圳莲花西(地铁站)","station_id":"深圳莲花西(地铁站)_22.54940_114.04493","lineId":"深圳地铁2号线","lat":22.54939978,"lon":114.04492966,"area_km2":2.8644,"D":0.6221,"C":0.9496,"T":0.4076,"U1":0.5354,"U2":0.2798,"couplingDegree":0.6221,"level":"良好协调","road_density":31.2196,"walk_accessibility":0.5743,"metro_line_density":5.0734,"station_count":4,"line_count":4,"population_density":13439.9379,"poi_density":2.0947,"poi_diversity":1.5607,"gdp_density":6755.5357,"P":13439.9379,"I":2.0947,"G":6755.5357},{"stationName":"深圳市民中心(地铁站)","station_id":"深圳市民中心(地铁站)_22.54396_114.05625","lineId":"深圳地铁2号线 / 深圳地铁4号线","lat":22.54396157,"lon":114.05624833499999,"area_km2":2.9712,"D":0.5797,"C":0.6311,"T":0.5325,"U1":0.9455,"U2":0.1194,"couplingDegree":0.5797,"level":"勉强协调","road_density":39.3949,"walk_accessibility":0.5957,"metro_line_density":8.0965,"station_count":8,"line_count":6,"population_density":7431.0964,"poi_density":0.6731,"poi_diversity":0.6931,"gdp_density":7135.1944,"P":7431.0964,"I":0.6731,"G":7135.1944},{"stationName":"深圳华强北(地铁站)","station_id":"深圳华强北(地铁站)_22.54662_114.08091","lineId":"深圳地铁2号线 / 深圳地铁7号线","lat":22.54661839,"lon":114.080908915,"area_km2":3.0984,"D":0.7985,"C":0.988,"T":0.6453,"U1":0.7447,"U2":0.5458,"couplingDegree":0.7985,"level":"良好协调","road_density":28.9543,"walk_accessibility":0.6212,"metro_line_density":7.7189,"station_count":6,"line_count":5,"population_density":62777.2316,"poi_density":5.8094,"poi_diversity":2.2742,"gdp_density":6500.1588,"P":62777.2316,"I":5.8094,"G":6500.1588},{"stationName":"深圳燕南(地铁站)","station_id":"深圳燕南(地铁站)_22.54722_114.08743","lineId":"深圳地铁2号线","lat":22.54722282,"lon":114.08743455,"area_km2":2.7574,"D":0.8184,"C":0.9973,"T":0.6716,"U1":0.7209,"U2":0.6224,"couplingDegree":0.8184,"level":"优质协调","road_density":27.3696,"walk_accessibility":0.5529,"metro_line_density":6.9653,"station_count":6,"line_count":5,"population_density":95318.0653,"poi_density":6.5278,"poi_diversity":2.3992,"gdp_density":9684.373,"P":95318.0653,"I":6.5278,"G":9684.373},{"stationName":"深圳湖贝(地铁站)","station_id":"深圳湖贝(地铁站)_22.54674_114.11873","lineId":"深圳地铁2号线 / 深圳地铁5号线","lat":22.546738225,"lon":114.11872700500001,"area_km2":2.9587,"D":0.8786,"C":0.9973,"T":0.7739,"U1":0.7172,"U2":0.8307,"couplingDegree":0.8786,"level":"优质协调","road_density":30.0435,"walk_accessibility":0.5932,"metro_line_density":8.4269,"station_count":5,"line_count":5,"population_density":57806.8604,"poi_density":7.0978,"poi_diversity":2.3844,"gdp_density":443742.6614,"P":57806.8604,"I":7.0978,"G":443742.6614},{"stationName":"深圳新秀(地铁站)","station_id":"深圳新秀(地铁站)_22.55046_114.14411","lineId":"深圳地铁2号线","lat":22.55045888,"lon":114.14411389,"area_km2":1.9422,"D":0.3908,"C":0.9942,"T":0.1536,"U1":0.1371,"U2":0.1701,"couplingDegree":0.3908,"level":"中度失调","road_density":30.7061,"walk_accessibility":0.3894,"metro_line_density":3.1497,"station_count":2,"line_count":1,"population_density":16797.2625,"poi_density":0.0,"poi_diversity":0.0,"gdp_density":284433.4172,"P":16797.2625,"I":0.0,"G":284433.4172},{"stationName":"深圳莲塘口岸(地铁站)","station_id":"深圳莲塘口岸(地铁站)_22.55609_114.15032","lineId":"深圳地铁2号线","lat":22.55608627,"lon":114.15032224,"area_km2":2.0784,"D":0.3689,"C":0.9978,"T":0.1364,"U1":0.1273,"U2":0.1455,"couplingDegree":0.3689,"level":"中度失调","road_density":33.0081,"walk_accessibility":0.4167,"metro_line_density":1.9813,"station_count":2,"line_count":1,"population_density":3279.9348,"poi_density":0.0,"poi_diversity":0.0,"gdp_density":265797.7128,"P":3279.9348,"I":0.0,"G":265797.7128},{"stationName":"深圳仙湖路(地铁站)","station_id":"深圳仙湖路(地铁站)_22.56667_114.16124","lineId":"深圳地铁2号线","lat":22.56666831,"lon":114.16123801,"area_km2":1.9267,"D":0.1594,"C":0.4471,"T":0.0568,"U1":0.1076,"U2":0.006,"couplingDegree":0.1594,"level":"极度失调","road_density":27.1013,"walk_accessibility":0.3863,"metro_line_density":1.9887,"station_count":2,"line_count":1,"population_density":2128.9989,"poi_density":0.0,"poi_diversity":0.0,"gdp_density":6884.8227,"P":2128.9989,"I":0.0,"G":6884.8227},{"stationName":"深圳梧桐山南(地铁站)","station_id":"深圳梧桐山南(地铁站)_22.56064_114.17826","lineId":"深圳地铁2号线","lat":22.56064201,"lon":114.17826102,"area_km2":1.3061,"D":0.1493,"C":0.4823,"T":0.0462,"U1":0.0867,"U2":0.0057,"couplingDegree":0.1493,"level":"极度失调","road_density":23.2101,"walk_accessibility":0.2619,"metro_line_density":2.1647,"station_count":2,"line_count":1,"population_density":5263.0096,"poi_density":0.0,"poi_diversity":0.0,"gdp_density":0.0,"P":5263.0096,"I":0.0,"G":0.0},{"stationName":"深圳沙头角(地铁站)","station_id":"深圳沙头角(地铁站)_22.55720_114.21831","lineId":"深圳地铁2号线","lat":22.55719981,"lon":114.21830687,"area_km2":1.5197,"D":0.354,"C":0.8614,"T":0.1455,"U1":0.0716,"U2":0.2194,"couplingDegree":0.354,"level":"中度失调","road_density":24.8487,"walk_accessibility":0.3047,"metro_line_density":3.0911,"station_count":1,"line_count":1,"population_density":0.0,"poi_density":1.9741,"poi_diversity":0.6365,"gdp_density":140544.866,"P":0.0,"I":1.9741,"G":140544.866},{"stationName":"深圳盐田港西(地铁站)","station_id":"深圳盐田港西(地铁站)_22.56540_114.24207","lineId":"深圳地铁2号线","lat":22.56539901,"lon":114.24207222,"area_km2":1.4895,"D":0.2029,"C":0.74,"T":0.0556,"U1":0.0931,"U2":0.0182,"couplingDegree":0.2029,"level":"中度失调","road_density":22.3874,"walk_accessibility":0.2986,"metro_line_density":2.4665,"station_count":2,"line_count":1,"population_density":16739.6396,"poi_density":0.0,"poi_diversity":0.0,"gdp_density":0.0,"P":16739.6396,"I":0.0,"G":0.0},{"stationName":"深圳深外高中(地铁站)","station_id":"深圳深外高中(地铁站)_22.58664_114.23968","lineId":"深圳地铁2号线","lat":22.58664442,"lon":114.23968018,"area_km2":1.6115,"D":0.157,"C":0.7953,"T":0.031,"U1":0.0498,"U2":0.0122,"couplingDegree":0.157,"level":"极度失调","road_density":23.7764,"walk_accessibility":0.3231,"metro_line_density":1.8225,"station_count":1,"line_count":1,"population_density":812.9093,"poi_density":0.0,"poi_diversity":0.0,"gdp_density":21204.5242,"P":812.9093,"I":0.0,"G":21204.5242},{"stationName":"深圳盐田路(地铁站)","station_id":"深圳盐田路(地铁站)_22.59182_114.25083","lineId":"深圳地铁2号线","lat":22.59181889,"lon":114.25082746,"area_km2":1.7512,"D":0.2649,"C":0.7771,"T":0.0903,"U1":0.1472,"U2":0.0335,"couplingDegree":0.2649,"level":"中度失调","road_density":30.7785,"walk_accessibility":0.3511,"metro_line_density":3.9998,"station_count":2,"line_count":1,"population_density":21083.1277,"poi_density":0.0,"poi_diversity":0.0,"gdp_density":19728.6243,"P":21083.1277,"I":0.0,"G":19728.6243},{"stationName":"深圳鸿安围(地铁站)","station_id":"深圳鸿安围(地铁站)_22.59340_114.25940","lineId":"深圳地铁2号线","lat":22.59340146,"lon":114.25940312,"area_km2":1.7925,"D":0.2996,"C":0.544,"T":0.165,"U1":0.3035,"U2":0.0266,"couplingDegree":0.2996,"level":"中度失调","road_density":30.6346,"walk_accessibility":0.3594,"metro_line_density":5.6757,"station_count":3,"line_count":2,"population_density":22589.5323,"poi_density":0.0,"poi_diversity":0.0,"gdp_density":3691.9616,"P":22589.5323,"I":0.0,"G":3691.9616},{"stationName":"深圳盐田墟(地铁站)","station_id":"深圳盐田墟(地铁站)_22.59019_114.27115","lineId":"深圳地铁2号线 / 深圳地铁8号线","lat":22.590188695000002,"lon":114.271147555,"area_km2":1.5697,"D":0.1814,"C":0.2556,"T":0.1287,"U1":0.2532,"U2":0.0043,"couplingDegree":0.1814,"level":"极度失调","road_density":33.1172,"walk_accessibility":0.3147,"metro_line_density":4.8488,"station_count":2,"line_count":2,"population_density":3928.2197,"poi_density":0.0,"poi_diversity":0.0,"gdp_density":0.0,"P":3928.2197,"I":0.0,"G":0.0},{"stationName":"深圳小梅沙(地铁站)","station_id":"深圳小梅沙(地铁站)_22.60485_114.32147","lineId":"深圳地铁2号线 / 深圳地铁8号线","lat":22.60484711,"lon":114.321470845,"area_km2":0.7163,"D":0.0,"C":0.0,"T":0.0718,"U1":0.1437,"U2":0.0,"couplingDegree":0.0,"level":"极度失调","road_density":24.9031,"walk_accessibility":0.1436,"metro_line_density":3.0414,"station_count":1,"line_count":2,"population_density":0.0,"poi_density":0.0,"poi_diversity":0.0,"gdp_density":0.0,"P":0.0,"I":0.0,"G":0.0},{"stationName":"深圳坪地六联(地铁站)","station_id":"深圳坪地六联(地铁站)_22.79039_114.31806","lineId":"深圳地铁3号线","lat":22.79038748,"lon":114.31806171,"area_km2":0.734,"D":0.1382,"C":0.9609,"T":0.0199,"U1":0.0254,"U2":0.0144,"couplingDegree":0.1382,"level":"极度失调","road_density":19.3747,"walk_accessibility":0.1472,"metro_line_density":2.2012,"station_count":1,"line_count":1,"population_density":7225.1814,"poi_density":0.0,"poi_diversity":0.0,"gdp_density":12210.6525,"P":7225.1814,"I":0.0,"G":12210.6525},{"stationName":"深圳富坪(地铁站)","station_id":"深圳富坪(地铁站)_22.78290_114.30596","lineId":"深圳地铁3号线","lat":22.782900105000003,"lon":114.30595590499999,"area_km2":1.4727,"D":0.2187,"C":0.613,"T":0.0781,"U1":0.1397,"U2":0.0164,"couplingDegree":0.2187,"level":"中度失调","road_density":23.9181,"walk_accessibility":0.2953,"metro_line_density":5.083,"station_count":2,"line_count":1,"population_density":9722.4006,"poi_density":0.0,"poi_diversity":0.0,"gdp_density":10873.0675,"P":9722.4006,"I":0.0,"G":10873.0675},{"stationName":"深圳白石塘(地铁站)","station_id":"深圳白石塘(地铁站)_22.77785_114.29792","lineId":"深圳地铁3号线","lat":22.77784767,"lon":114.29792279333333,"area_km2":1.6992,"D":0.231,"C":0.6059,"T":0.0881,"U1":0.1582,"U2":0.018,"couplingDegree":0.231,"level":"中度失调","road_density":23.8375,"walk_accessibility":0.3407,"metro_line_density":5.9405,"station_count":2,"line_count":1,"population_density":13061.1851,"poi_density":0.0,"poi_diversity":0.0,"gdp_density":7115.4648,"P":13061.1851,"I":0.0,"G":7115.4648},{"stationName":"深圳低碳城(地铁站)","station_id":"深圳低碳城(地铁站)_22.77389_114.28468","lineId":"深圳地铁3号线","lat":22.77388873,"lon":114.2846803,"area_km2":1.7811,"D":0.1735,"C":0.4273,"T":0.0705,"U1":0.1342,"U2":0.0068,"couplingDegree":0.1735,"level":"极度失调","road_density":22.9181,"walk_accessibility":0.3571,"metro_line_density":4.528,"station_count":2,"line_count":1,"population_density":3575.4178,"poi_density":0.0,"poi_diversity":0.0,"gdp_density":5369.6156,"P":3575.4178,"I":0.0,"G":5369.6156},{"stationName":"深圳坪西(地铁站)","station_id":"深圳坪西(地铁站)_22.76626_114.27741","lineId":"深圳地铁3号线","lat":22.766256365,"lon":114.27741460499999,"area_km2":1.2226,"D":0.1864,"C":0.563,"T":0.0617,"U1":0.1127,"U2":0.0107,"couplingDegree":0.1864,"level":"极度失调","road_density":18.3338,"walk_accessibility":0.2451,"metro_line_density":4.709,"station_count":2,"line_count":1,"population_density":0.0,"poi_density":0.0,"poi_diversity":0.0,"gdp_density":20052.9097,"P":0.0,"I":0.0,"G":20052.9097},{"stationName":"深圳新生(地铁站)","station_id":"深圳新生(地铁站)_22.75071_114.27817","lineId":"深圳地铁3号线","lat":22.750714175,"lon":114.278172775,"area_km2":1.3959,"D":0.2279,"C":0.7891,"T":0.0658,"U1":0.1062,"U2":0.0254,"couplingDegree":0.2279,"level":"中度失调","road_density":23.8796,"walk_accessibility":0.2799,"metro_line_density":5.5367,"station_count":1,"line_count":1,"population_density":11368.3791,"poi_density":0.0,"poi_diversity":0.0,"gdp_density":24365.6714,"P":11368.3791,"I":0.0,"G":24365.6714},{"stationName":"深圳梨园(地铁站)","station_id":"深圳梨园(地铁站)_22.65492_114.19240","lineId":"深圳地铁17号线 / 深圳地铁3号线","lat":22.654922714999998,"lon":114.1924031,"area_km2":2.0538,"D":0.4136,"C":0.9902,"T":0.1727,"U1":0.1486,"U2":0.1968,"couplingDegree":0.4136,"level":"勉强协调","road_density":21.1827,"walk_accessibility":0.4118,"metro_line_density":2.2973,"station_count":1,"line_count":2,"population_density":7554.6134,"poi_density":1.4607,"poi_diversity":1.0986,"gdp_density":9281.023,"P":7554.6134,"I":1.4607,"G":9281.023},{"stationName":"深圳双龙(地铁站)","station_id":"深圳双龙(地铁站)_22.73192_114.27249","lineId":"深圳地铁16号线 / 深圳地铁3号线","lat":22.73191529,"lon":114.272485405,"area_km2":2.1043,"D":0.2678,"C":0.5951,"T":0.1205,"U1":0.2173,"U2":0.0237,"couplingDegree":0.2678,"level":"中度失调","road_density":22.4427,"walk_accessibility":0.4219,"metro_line_density":6.2243,"station_count":1,"line_count":2,"population_density":17465.0538,"poi_density":0.0,"poi_diversity":0.0,"gdp_density":8706.3486,"P":17465.0538,"I":0.0,"G":8706.3486},{"stationName":"深圳南联(地铁站)","station_id":"深圳南联(地铁站)_22.72480_114.26070","lineId":"深圳地铁3号线","lat":22.72479575,"lon":114.26070042,"area_km2":2.1993,"D":0.243,"C":0.8417,"T":0.0702,"U1":0.1081,"U2":0.0323,"couplingDegree":0.243,"level":"中度失调","road_density":21.0282,"walk_accessibility":0.4409,"metro_line_density":2.7219,"station_count":2,"line_count":1,"population_density":21828.543,"poi_density":0.0,"poi_diversity":0.0,"gdp_density":15969.1128,"P":21828.543,"I":0.0,"G":15969.1128},{"stationName":"深圳龙城广场(地铁站)","station_id":"深圳龙城广场(地铁站)_22.71975_114.24976","lineId":"深圳地铁3号线","lat":22.7197484,"lon":114.24976034,"area_km2":2.2351,"D":0.2459,"C":0.836,"T":0.0723,"U1":0.112,"U2":0.0327,"couplingDegree":0.2459,"level":"中度失调","road_density":24.5304,"walk_accessibility":0.4481,"metro_line_density":2.3146,"station_count":2,"line_count":1,"population_density":14269.7546,"poi_density":0.0,"poi_diversity":0.0,"gdp_density":32070.198,"P":14269.7546,"I":0.0,"G":32070.198},{"stationName":"深圳吉祥(地铁站)","station_id":"深圳吉祥(地铁站)_22.71232_114.23948","lineId":"深圳地铁3号线","lat":22.71232354,"lon":114.23948092,"area_km2":2.015,"D":0.3228,"C":0.9516,"T":0.1095,"U1":0.0759,"U2":0.1432,"couplingDegree":0.3228,"level":"中度失调","road_density":26.334,"walk_accessibility":0.404,"metro_line_density":2.4682,"station_count":1,"line_count":1,"population_density":15941.7195,"poi_density":0.9925,"poi_diversity":0.6931,"gdp_density":14116.2561,"P":15941.7195,"I":0.9925,"G":14116.2561},{"stationName":"深圳爱联(地铁站)","station_id":"深圳爱联(地铁站)_22.70033_114.22958","lineId":"深圳地铁3号线","lat":22.70033127,"lon":114.2295755,"area_km2":1.8601,"D":0.2417,"C":0.8196,"T":0.0713,"U1":0.1121,"U2":0.0304,"couplingDegree":0.2417,"level":"中度失调","road_density":23.7465,"walk_accessibility":0.3729,"metro_line_density":5.3324,"station_count":1,"line_count":1,"population_density":4489.1041,"poi_density":0.5376,"poi_diversity":0.0,"gdp_density":13950.5123,"P":4489.1041,"I":0.5376,"G":13950.5123},{"stationName":"深圳大运(地铁站)","station_id":"深圳大运(地铁站)_22.68859_114.22306","lineId":"深圳地铁14号线 / 深圳地铁3号线","lat":22.688593384999997,"lon":114.22305596999999,"area_km2":1.5147,"D":0.3518,"C":0.7316,"T":0.1691,"U1":0.2845,"U2":0.0538,"couplingDegree":0.3518,"level":"中度失调","road_density":30.3263,"walk_accessibility":0.3037,"metro_line_density":9.7205,"station_count":1,"line_count":2,"population_density":23860.6475,"poi_density":0.6602,"poi_diversity":0.0,"gdp_density":10557.7203,"P":23860.6475,"I":0.6602,"G":10557.7203},{"stationName":"深圳荷坳(地铁站)","station_id":"深圳荷坳(地铁站)_22.67591_114.21945","lineId":"深圳地铁3号线","lat":22.67591343,"lon":114.21944916,"area_km2":1.5078,"D":0.213,"C":0.6071,"T":0.0747,"U1":0.1341,"U2":0.0153,"couplingDegree":0.213,"level":"中度失调","road_density":24.7443,"walk_accessibility":0.3023,"metro_line_density":6.9536,"station_count":1,"line_count":1,"population_density":12148.3748,"poi_density":0.0,"poi_diversity":0.0,"gdp_density":3978.1039,"P":12148.3748,"I":0.0,"G":3978.1039},{"stationName":"深圳永湖(地铁站)","station_id":"深圳永湖(地铁站)_22.66183_114.21317","lineId":"深圳地铁3号线","lat":22.66182586,"lon":114.21317149,"area_km2":1.4526,"D":0.1773,"C":0.6393,"T":0.0492,"U1":0.087,"U2":0.0114,"couplingDegree":0.1773,"level":"极度失调","road_density":26.052,"walk_accessibility":0.2912,"metro_line_density":3.9098,"station_count":1,"line_count":1,"population_density":5618.1361,"poi_density":0.0,"poi_diversity":0.0,"gdp_density":9827.8119,"P":5618.1361,"I":0.0,"G":9827.8119},{"stationName":"深圳横岗(地铁站)","station_id":"深圳横岗(地铁站)_22.65126_114.20411","lineId":"深圳地铁3号线","lat":22.65126376,"lon":114.20410601,"area_km2":2.2599,"D":0.2123,"C":0.8842,"T":0.051,"U1":0.0748,"U2":0.0272,"couplingDegree":0.2123,"level":"中度失调","road_density":20.7119,"walk_accessibility":0.4531,"metro_line_density":3.0656,"station_count":1,"line_count":1,"population_density":14083.5619,"poi_density":0.0,"poi_diversity":0.0,"gdp_density":22174.6368,"P":14083.5619,"I":0.0,"G":22174.6368},{"stationName":"深圳塘坑(地铁站)","station_id":"深圳塘坑(地铁站)_22.64198_114.18780","lineId":"深圳地铁3号线","lat":22.64197596,"lon":114.18779985,"area_km2":2.2249,"D":0.3182,"C":0.9564,"T":0.1058,"U1":0.0749,"U2":0.1368,"couplingDegree":0.3182,"level":"中度失调","road_density":21.8885,"walk_accessibility":0.4461,"metro_line_density":2.9138,"station_count":1,"line_count":1,"population_density":16161.3147,"poi_density":0.8989,"poi_diversity":0.6931,"gdp_density":7598.2777,"P":16161.3147,"I":0.8989,"G":7598.2777},{"stationName":"深圳六约(地铁站)","station_id":"深圳六约(地铁站)_22.63710_114.17569","lineId":"深圳地铁3号线","lat":22.63709901,"lon":114.17568946,"area_km2":1.9292,"D":0.2039,"C":0.8486,"T":0.049,"U1":0.0749,"U2":0.0231,"couplingDegree":0.2039,"level":"中度失调","road_density":23.2487,"walk_accessibility":0.3868,"metro_line_density":3.053,"station_count":1,"line_count":1,"population_density":13433.0735,"poi_density":0.0,"poi_diversity":0.0,"gdp_density":15851.7444,"P":13433.0735,"I":0.0,"G":15851.7444},{"stationName":"深圳丹竹头(地铁站)","station_id":"深圳丹竹头(地铁站)_22.62247_114.14301","lineId":"深圳地铁3号线","lat":22.62247144,"lon":114.14301137,"area_km2":2.3224,"D":0.2461,"C":0.6875,"T":0.0881,"U1":0.1521,"U2":0.0241,"couplingDegree":0.2461,"level":"中度失调","road_density":30.9122,"walk_accessibility":0.4656,"metro_line_density":3.5516,"station_count":2,"line_count":1,"population_density":18456.4023,"poi_density":0.0,"poi_diversity":0.0,"gdp_density":7554.3085,"P":18456.4023,"I":0.0,"G":7554.3085},{"stationName":"深圳大芬(地铁站)","station_id":"深圳大芬(地铁站)_22.61690_114.13330","lineId":"深圳地铁3号线","lat":22.61689564,"lon":114.13329828,"area_km2":1.9548,"D":0.444,"C":0.9952,"T":0.198,"U1":0.1787,"U2":0.2173,"couplingDegree":0.444,"level":"勉强协调","road_density":30.0466,"walk_accessibility":0.3919,"metro_line_density":3.3976,"station_count":3,"line_count":1,"population_density":22086.6661,"poi_density":1.5347,"poi_diversity":1.0986,"gdp_density":13394.5909,"P":22086.6661,"I":1.5347,"G":13394.5909},{"stationName":"深圳木棉湾(地铁站)","station_id":"深圳木棉湾(地铁站)_22.60969_114.12521","lineId":"深圳地铁3号线","lat":22.60969171,"lon":114.12521029,"area_km2":1.8114,"D":0.3752,"C":0.6438,"T":0.2186,"U1":0.3859,"U2":0.0513,"couplingDegree":0.3752,"level":"中度失调","road_density":31.6358,"walk_accessibility":0.3632,"metro_line_density":5.0504,"station_count":3,"line_count":3,"population_density":27530.4065,"poi_density":0.5521,"poi_diversity":0.0,"gdp_density":5226.8736,"P":27530.4065,"I":0.5521,"G":5226.8736},{"stationName":"深圳布吉(地铁站)","station_id":"深圳布吉(地铁站)_22.60443_114.11627","lineId":"深圳地铁14号线 / 深圳地铁3号线 / 深圳地铁5号线","lat":22.604433413333336,"lon":114.11627254666666,"area_km2":2.1646,"D":0.3481,"C":0.5064,"T":0.2393,"U1":0.4456,"U2":0.0329,"couplingDegree":0.3481,"level":"中度失调","road_density":27.5048,"walk_accessibility":0.434,"metro_line_density":6.5785,"station_count":4,"line_count":3,"population_density":26048.8241,"poi_density":0.0,"poi_diversity":0.0,"gdp_density":8618.1164,"P":26048.8241,"I":0.0,"G":8618.1164},{"stationName":"深圳草埔(地铁站)","station_id":"深圳草埔(地铁站)_22.58713_114.11139","lineId":"深圳地铁3号线","lat":22.58713168,"lon":114.11139401,"area_km2":1.9327,"D":0.1769,"C":0.4668,"T":0.067,"U1":0.1263,"U2":0.0078,"couplingDegree":0.1769,"level":"极度失调","road_density":31.143,"walk_accessibility":0.3875,"metro_line_density":4.8328,"station_count":1,"line_count":1,"population_density":3561.799,"poi_density":0.0,"poi_diversity":0.0,"gdp_density":7264.8575,"P":3561.799,"I":0.0,"G":7264.8575},{"stationName":"深圳水贝(地铁站)","station_id":"深圳水贝(地铁站)_22.57668_114.11988","lineId":"深圳地铁3号线","lat":22.57668093,"lon":114.11988341,"area_km2":2.3085,"D":0.567,"C":0.9889,"T":0.3251,"U1":0.3733,"U2":0.2769,"couplingDegree":0.567,"level":"勉强协调","road_density":34.516,"walk_accessibility":0.4629,"metro_line_density":3.1542,"station_count":3,"line_count":3,"population_density":24500.1458,"poi_density":3.0322,"poi_diversity":1.1537,"gdp_density":12983.07,"P":24500.1458,"I":3.0322,"G":12983.07},{"stationName":"深圳田贝(地铁站)","station_id":"深圳田贝(地铁站)_22.56986_114.12444","lineId":"深圳地铁3号线 / 深圳地铁7号线","lat":22.56985871,"lon":114.124444625,"area_km2":2.2001,"D":0.6407,"C":1.0,"T":0.4105,"U1":0.4078,"U2":0.4131,"couplingDegree":0.6407,"level":"良好协调","road_density":28.3478,"walk_accessibility":0.4411,"metro_line_density":4.0711,"station_count":4,"line_count":3,"population_density":19516.0068,"poi_density":4.9997,"poi_diversity":1.7678,"gdp_density":13403.9446,"P":19516.0068,"I":4.9997,"G":13403.9446},{"stationName":"深圳翠竹(地铁站)","station_id":"深圳翠竹(地铁站)_22.55889_114.12480","lineId":"深圳地铁3号线","lat":22.55888926,"lon":114.12480382,"area_km2":2.4596,"D":0.6758,"C":0.9806,"T":0.4657,"U1":0.3745,"U2":0.5569,"couplingDegree":0.6758,"level":"良好协调","road_density":25.7217,"walk_accessibility":0.4931,"metro_line_density":2.1518,"station_count":4,"line_count":3,"population_density":46292.5741,"poi_density":6.9118,"poi_diversity":2.1808,"gdp_density":12808.6955,"P":46292.5741,"I":6.9118,"G":12808.6955},{"stationName":"深圳晒布(地铁站)","station_id":"深圳晒布(地铁站)_22.55193_114.11757","lineId":"深圳地铁3号线","lat":22.55193148,"lon":114.11757001,"area_km2":2.7143,"D":0.8608,"C":0.9997,"T":0.7412,"U1":0.7224,"U2":0.7601,"couplingDegree":0.8608,"level":"优质协调","road_density":30.9417,"walk_accessibility":0.5442,"metro_line_density":6.49,"station_count":6,"line_count":5,"population_density":63535.2596,"poi_density":8.1053,"poi_diversity":2.2719,"gdp_density":262164.95,"P":63535.2596,"I":8.1053,"G":262164.95},{"stationName":"深圳红岭(地铁站)","station_id":"深圳红岭(地铁站)_22.55134_114.09895","lineId":"深圳地铁3号线 / 深圳地铁9号线","lat":22.551336980000002,"lon":114.09895414666666,"area_km2":3.0553,"D":0.6422,"C":0.8694,"T":0.4743,"U1":0.7087,"U2":0.24,"couplingDegree":0.6422,"level":"良好协调","road_density":40.4905,"walk_accessibility":0.6126,"metro_line_density":5.3079,"station_count":3,"line_count":6,"population_density":55547.0174,"poi_density":1.3092,"poi_diversity":1.0397,"gdp_density":15261.9769,"P":55547.0174,"I":1.3092,"G":15261.9769},{"stationName":"深圳通新岭(地铁站)","station_id":"深圳通新岭(地铁站)_22.55137_114.09113","lineId":"深圳地铁3号线 / 深圳地铁6号线","lat":22.551367845,"lon":114.09112792,"area_km2":3.195,"D":0.8038,"C":0.9739,"T":0.6634,"U1":0.814,"U2":0.5127,"couplingDegree":0.8038,"level":"优质协调","road_density":35.4673,"walk_accessibility":0.6406,"metro_line_density":5.2389,"station_count":6,"line_count":6,"population_density":74510.7195,"poi_density":4.0689,"poi_diversity":2.3517,"gdp_density":12667.5609,"P":74510.7195,"I":4.0689,"G":12667.5609},{"stationName":"深圳华新(地铁站)","station_id":"深圳华新(地铁站)_22.55166_114.08152","lineId":"深圳地铁3号线 / 深圳地铁7号线","lat":22.551664825000003,"lon":114.0815246,"area_km2":3.0496,"D":0.7761,"C":0.9903,"T":0.6082,"U1":0.6926,"U2":0.5239,"couplingDegree":0.7761,"level":"良好协调","road_density":29.8785,"walk_accessibility":0.6114,"metro_line_density":6.8278,"station_count":5,"line_count":5,"population_density":63090.5827,"poi_density":4.9187,"poi_diversity":2.3384,"gdp_density":6249.6569,"P":63090.5827,"I":4.9187,"G":6249.6569},{"stationName":"深圳莲花村(地铁站)","station_id":"深圳莲花村(地铁站)_22.55135_114.06273","lineId":"深圳地铁3号线","lat":22.5513476,"lon":114.0627285,"area_km2":3.032,"D":0.7366,"C":0.9854,"T":0.5506,"U1":0.6445,"U2":0.4568,"couplingDegree":0.7366,"level":"良好协调","road_density":33.6509,"walk_accessibility":0.6079,"metro_line_density":5.655,"station_count":4,"line_count":5,"population_density":14430.725,"poi_density":3.9578,"poi_diversity":2.4849,"gdp_density":6799.353,"P":14430.725,"I":3.9578,"G":6799.353},{"stationName":"深圳少年宫(地铁站)","station_id":"深圳少年宫(地铁站)_22.55074_114.05541","lineId":"深圳地铁3号线 / 深圳地铁4号线","lat":22.550741715,"lon":114.05541320500001,"area_km2":2.5826,"D":0.7275,"C":0.9564,"T":0.5534,"U1":0.7149,"U2":0.3918,"couplingDegree":0.7275,"level":"良好协调","road_density":32.3047,"walk_accessibility":0.5178,"metro_line_density":5.965,"station_count":6,"line_count":5,"population_density":8580.4523,"poi_density":3.872,"poi_diversity":2.0253,"gdp_density":7767.7824,"P":8580.4523,"I":3.872,"G":7767.7824},{"stationName":"深圳石厦(地铁站)","station_id":"深圳石厦(地铁站)_22.52609_114.04857","lineId":"深圳地铁3号线 / 深圳地铁7号线","lat":22.5260948475,"lon":114.0485720225,"area_km2":2.7348,"D":0.5841,"C":0.9946,"T":0.343,"U1":0.3785,"U2":0.3074,"couplingDegree":0.5841,"level":"勉强协调","road_density":30.9849,"walk_accessibility":0.5483,"metro_line_density":3.5451,"station_count":3,"line_count":3,"population_density":43495.8924,"poi_density":0.3657,"poi_diversity":0.0,"gdp_density":464134.0925,"P":43495.8924,"I":0.3657,"G":464134.0925},{"stationName":"深圳益田(地铁站)","station_id":"深圳益田(地铁站)_22.51902_114.04588","lineId":"深圳地铁3号线","lat":22.51901809,"lon":114.04588314,"area_km2":2.8509,"D":0.5135,"C":0.9981,"T":0.2642,"U1":0.2804,"U2":0.2481,"couplingDegree":0.5135,"level":"勉强协调","road_density":29.4533,"walk_accessibility":0.5716,"metro_line_density":3.1199,"station_count":3,"line_count":2,"population_density":25018.7514,"poi_density":0.3508,"poi_diversity":0.0,"gdp_density":391561.4289,"P":25018.7514,"I":0.3508,"G":391561.4289},{"stationName":"深圳福保(地铁站)","station_id":"深圳福保(地铁站)_22.51089_114.05147","lineId":"深圳地铁3号线","lat":22.5108939,"lon":114.05147292,"area_km2":2.3897,"D":0.4052,"C":0.9199,"T":0.1785,"U1":0.1085,"U2":0.2485,"couplingDegree":0.4052,"level":"勉强协调","road_density":27.7272,"walk_accessibility":0.4791,"metro_line_density":1.3498,"station_count":2,"line_count":1,"population_density":6344.8586,"poi_density":0.0,"poi_diversity":0.0,"gdp_density":452535.4306,"P":6344.8586,"I":0.0,"G":452535.4306},{"stationName":"深圳牛湖(地铁站)","station_id":"深圳牛湖(地铁站)_22.72726_114.08411","lineId":"深圳地铁4号线","lat":22.72725802,"lon":114.08411467,"area_km2":1.56,"D":0.1528,"C":0.9854,"T":0.0237,"U1":0.0277,"U2":0.0197,"couplingDegree":0.1528,"level":"极度失调","road_density":17.1147,"walk_accessibility":0.3128,"metro_line_density":1.6907,"station_count":1,"line_count":1,"population_density":14378.0176,"poi_density":0.0,"poi_diversity":0.0,"gdp_density":7544.1317,"P":14378.0176,"I":0.0,"G":7544.1317},{"stationName":"深圳观澜湖(地铁站)","station_id":"深圳观澜湖(地铁站)_22.72428_114.07113","lineId":"深圳地铁4号线","lat":22.72427559,"lon":114.07113091,"area_km2":1.2936,"D":0.1816,"C":0.3332,"T":0.099,"U1":0.1923,"U2":0.0057,"couplingDegree":0.1816,"level":"极度失调","road_density":20.3123,"walk_accessibility":0.2594,"metro_line_density":3.6799,"station_count":2,"line_count":2,"population_density":0.0,"poi_density":0.0,"poi_diversity":0.0,"gdp_density":10595.9106,"P":0.0,"I":0.0,"G":10595.9106},{"stationName":"深圳松元厦(地铁站)","station_id":"深圳松元厦(地铁站)_22.72377_114.05923","lineId":"深圳地铁22号线 / 深圳地铁4号线","lat":22.723765653333334,"lon":114.05923284333333,"area_km2":1.3535,"D":0.2811,"C":0.5376,"T":0.147,"U1":0.2709,"U2":0.023,"couplingDegree":0.2811,"level":"中度失调","road_density":20.3143,"walk_accessibility":0.2714,"metro_line_density":6.0172,"station_count":3,"line_count":2,"population_density":10866.8393,"poi_density":0.0,"poi_diversity":0.0,"gdp_density":21012.6569,"P":10866.8393,"I":0.0,"G":21012.6569},{"stationName":"深圳观澜(地铁站)","station_id":"深圳观澜(地铁站)_22.71786_114.04965","lineId":"深圳地铁4号线","lat":22.71786435,"lon":114.04964981,"area_km2":1.3761,"D":0.2373,"C":0.4336,"T":0.1299,"U1":0.247,"U2":0.0128,"couplingDegree":0.2373,"level":"中度失调","road_density":21.9361,"walk_accessibility":0.2759,"metro_line_density":4.2415,"station_count":3,"line_count":2,"population_density":6551.7424,"poi_density":0.0,"poi_diversity":0.0,"gdp_density":10706.6016,"P":6551.7424,"I":0.0,"G":10706.6016},{"stationName":"深圳长湖(地铁站)","station_id":"深圳长湖(地铁站)_22.71348_114.03969","lineId":"深圳地铁4号线","lat":22.71347934,"lon":114.039689,"area_km2":1.6049,"D":0.2411,"C":0.8128,"T":0.0715,"U1":0.1132,"U2":0.0299,"couplingDegree":0.2411,"level":"中度失调","road_density":23.6311,"walk_accessibility":0.3218,"metro_line_density":3.3393,"station_count":2,"line_count":1,"population_density":18864.0216,"poi_density":0.0,"poi_diversity":0.0,"gdp_density":17489.309,"P":18864.0216,"I":0.0,"G":17489.309},{"stationName":"深圳茜坑(地铁站)","station_id":"深圳茜坑(地铁站)_22.69998_114.03599","lineId":"深圳地铁4号线","lat":22.69998229,"lon":114.03598751,"area_km2":1.3555,"D":0.2233,"C":0.663,"T":0.0752,"U1":0.1315,"U2":0.0189,"couplingDegree":0.2233,"level":"中度失调","road_density":28.1287,"walk_accessibility":0.2718,"metro_line_density":3.9953,"station_count":2,"line_count":1,"population_density":6989.1037,"poi_density":0.0,"poi_diversity":0.0,"gdp_density":21157.3583,"P":6989.1037,"I":0.0,"G":21157.3583},{"stationName":"深圳竹村(地铁站)","station_id":"深圳竹村(地铁站)_22.68946_114.03521","lineId":"深圳地铁4号线","lat":22.68945995,"lon":114.03521228,"area_km2":1.8471,"D":0.2091,"C":0.6602,"T":0.0662,"U1":0.1159,"U2":0.0165,"couplingDegree":0.2091,"level":"中度失调","road_density":29.4765,"walk_accessibility":0.3703,"metro_line_density":2.187,"station_count":2,"line_count":1,"population_density":7971.4613,"poi_density":0.0,"poi_diversity":0.0,"gdp_density":14620.2726,"P":7971.4613,"I":0.0,"G":14620.2726},{"stationName":"深圳清湖北(地铁站)","station_id":"深圳清湖北(地铁站)_22.67482_114.03532","lineId":"深圳地铁4号线","lat":22.67482194,"lon":114.03532095,"area_km2":1.4442,"D":0.2257,"C":0.7868,"T":0.0647,"U1":0.1047,"U2":0.0248,"couplingDegree":0.2257,"level":"中度失调","road_density":29.6778,"walk_accessibility":0.2896,"metro_line_density":1.972,"station_count":2,"line_count":1,"population_density":14334.5164,"poi_density":0.0,"poi_diversity":0.0,"gdp_density":17186.6032,"P":14334.5164,"I":0.0,"G":17186.6032},{"stationName":"深圳清湖(地铁站)","station_id":"深圳清湖(地铁站)_22.66683_114.03145","lineId":"深圳地铁4号线","lat":22.66683012,"lon":114.03144992,"area_km2":1.6315,"D":0.2189,"C":0.7,"T":0.0685,"U1":0.1174,"U2":0.0196,"couplingDegree":0.2189,"level":"中度失调","road_density":26.2105,"walk_accessibility":0.3271,"metro_line_density":3.1148,"station_count":2,"line_count":1,"population_density":4214.0351,"poi_density":0.0,"poi_diversity":0.0,"gdp_density":28071.2752,"P":4214.0351,"I":0.0,"G":28071.2752},{"stationName":"深圳龙华(地铁站)","station_id":"深圳龙华(地铁站)_22.65486_114.01800","lineId":"深圳地铁25号线 / 深圳地铁4号线","lat":22.6548649375,"lon":114.01800384500001,"area_km2":2.2203,"D":0.2506,"C":0.5535,"T":0.1135,"U1":0.208,"U2":0.019,"couplingDegree":0.2506,"level":"中度失调","road_density":27.6286,"walk_accessibility":0.4452,"metro_line_density":4.6058,"station_count":1,"line_count":2,"population_density":10092.6319,"poi_density":0.0,"poi_diversity":0.0,"gdp_density":14946.3217,"P":10092.6319,"I":0.0,"G":14946.3217},{"stationName":"深圳龙胜(地铁站)","station_id":"深圳龙胜(地铁站)_22.64756_114.00698","lineId":"深圳地铁4号线","lat":22.64755658,"lon":114.00697831,"area_km2":1.8676,"D":0.2339,"C":0.602,"T":0.0909,"U1":0.1634,"U2":0.0183,"couplingDegree":0.2339,"level":"中度失调","road_density":36.3661,"walk_accessibility":0.3744,"metro_line_density":3.8783,"station_count":2,"line_count":1,"population_density":11076.299,"poi_density":0.0,"poi_diversity":0.0,"gdp_density":11709.313,"P":11076.299,"I":0.0,"G":11709.313},{"stationName":"深圳上塘(地铁站)","station_id":"深圳上塘(地铁站)_22.63987_114.00781","lineId":"深圳地铁4号线","lat":22.63987266,"lon":114.00780504,"area_km2":2.0275,"D":0.2351,"C":0.5958,"T":0.0928,"U1":0.1673,"U2":0.0183,"couplingDegree":0.2351,"level":"中度失调","road_density":37.1397,"walk_accessibility":0.4065,"metro_line_density":3.7796,"station_count":2,"line_count":1,"population_density":9827.8436,"poi_density":0.0,"poi_diversity":0.0,"gdp_density":14181.3281,"P":9827.8436,"I":0.0,"G":14181.3281},{"stationName":"深圳红山(地铁站)","station_id":"深圳红山(地铁站)_22.62453_114.01841","lineId":"深圳地铁4号线 / 深圳地铁6号线","lat":22.624534505,"lon":114.01840748000001,"area_km2":2.3317,"D":0.2047,"C":0.3432,"T":0.1221,"U1":0.2368,"U2":0.0074,"couplingDegree":0.2047,"level":"中度失调","road_density":41.1422,"walk_accessibility":0.4675,"metro_line_density":3.8896,"station_count":1,"line_count":2,"population_density":289.4884,"poi_density":0.0,"poi_diversity":0.0,"gdp_density":13297.0568,"P":289.4884,"I":0.0,"G":13297.0568},{"stationName":"深圳深圳北站(地铁站)","station_id":"深圳深圳北站(地铁站)_22.61326_114.02550","lineId":"深圳地铁4号线 / 深圳地铁5号线 / 深圳地铁6号线","lat":22.61325544,"lon":114.02550389333332,"area_km2":2.298,"D":0.2031,"C":0.2378,"T":0.1734,"U1":0.3418,"U2":0.005,"couplingDegree":0.2031,"level":"中度失调","road_density":36.038,"walk_accessibility":0.4607,"metro_line_density":5.7792,"station_count":1,"line_count":3,"population_density":1218.8843,"poi_density":0.0,"poi_diversity":0.0,"gdp_density":6833.6443,"P":1218.8843,"I":0.0,"G":6833.6443},{"stationName":"深圳白石龙(地铁站)","station_id":"深圳白石龙(地铁站)_22.60450_114.03695","lineId":"深圳地铁27号线 / 深圳地铁4号线","lat":22.604503125,"lon":114.03694687999999,"area_km2":2.332,"D":0.3514,"C":0.5823,"T":0.2121,"U1":0.3845,"U2":0.0397,"couplingDegree":0.3514,"level":"中度失调","road_density":34.2758,"walk_accessibility":0.4676,"metro_line_density":6.2547,"station_count":2,"line_count":3,"population_density":19883.6536,"poi_density":0.4288,"poi_diversity":0.0,"gdp_density":6717.6289,"P":19883.6536,"I":0.4288,"G":6717.6289},{"stationName":"深圳民乐(地铁站)","station_id":"深圳民乐(地铁站)_22.59706_114.04402","lineId":"深圳地铁22号线 / 深圳地铁4号线","lat":22.597057956666664,"lon":114.04402448,"area_km2":2.339,"D":0.3362,"C":0.5438,"T":0.2078,"U1":0.3822,"U2":0.0334,"couplingDegree":0.3362,"level":"中度失调","road_density":39.3544,"walk_accessibility":0.469,"metro_line_density":5.2272,"station_count":2,"line_count":3,"population_density":14759.7428,"poi_density":0.4275,"poi_diversity":0.0,"gdp_density":5534.476,"P":14759.7428,"I":0.4275,"G":5534.476},{"stationName":"深圳上梅林(地铁站)","station_id":"深圳上梅林(地铁站)_22.57216_114.05480","lineId":"深圳地铁4号线 / 深圳地铁9号线","lat":22.57216071,"lon":114.05480460999999,"area_km2":2.56,"D":0.2694,"C":0.4554,"T":0.1594,"U1":0.3013,"U2":0.0175,"couplingDegree":0.2694,"level":"中度失调","road_density":33.5153,"walk_accessibility":0.5133,"metro_line_density":6.4707,"station_count":2,"line_count":2,"population_density":12536.6762,"poi_density":0.0,"poi_diversity":0.0,"gdp_density":7197.9135,"P":12536.6762,"I":0.0,"G":7197.9135},{"stationName":"深圳莲花北(地铁站)","station_id":"深圳莲花北(地铁站)_22.56325_114.05429","lineId":"深圳地铁4号线","lat":22.56325145,"lon":114.0542851,"area_km2":2.4581,"D":0.3238,"C":0.6586,"T":0.1592,"U1":0.2789,"U2":0.0394,"couplingDegree":0.3238,"level":"中度失调","road_density":35.1172,"walk_accessibility":0.4929,"metro_line_density":4.9534,"station_count":2,"line_count":2,"population_density":19970.3086,"poi_density":0.4068,"poi_diversity":0.0,"gdp_density":7442.4083,"P":19970.3086,"I":0.4068,"G":7442.4083},{"stationName":"深圳福民(地铁站)","station_id":"深圳福民(地铁站)_22.52669_114.06120","lineId":"深圳地铁10号线 / 深圳地铁4号线 / 深圳地铁7号线","lat":22.526694579999997,"lon":114.06120384333333,"area_km2":2.5736,"D":0.6262,"C":0.9752,"T":0.4021,"U1":0.4911,"U2":0.3132,"couplingDegree":0.6262,"level":"良好协调","road_density":34.2155,"walk_accessibility":0.516,"metro_line_density":4.6172,"station_count":3,"line_count":4,"population_density":24752.6709,"poi_density":0.0,"poi_diversity":0.0,"gdp_density":536135.6801,"P":24752.6709,"I":0.0,"G":536135.6801},{"stationName":"深圳福田口岸(地铁站)","station_id":"深圳福田口岸(地铁站)_22.51815_114.06337","lineId":"深圳地铁10号线 / 深圳地铁4号线","lat":22.518145609999998,"lon":114.06336773000001,"area_km2":2.0825,"D":0.5696,"C":1.0,"T":0.3244,"U1":0.324,"U2":0.3248,"couplingDegree":0.5696,"level":"勉强协调","road_density":31.4197,"walk_accessibility":0.4175,"metro_line_density":3.3594,"station_count":2,"line_count":3,"population_density":5158.5923,"poi_density":0.0,"poi_diversity":0.0,"gdp_density":597910.1227,"P":5158.5923,"I":0.0,"G":597910.1227},{"stationName":"深圳荔湾(地铁站)","station_id":"深圳荔湾(地铁站)_22.50087_113.88862","lineId":"深圳地铁5号线","lat":22.50087432,"lon":113.8886154,"area_km2":2.1051,"D":0.1751,"C":0.2941,"T":0.1042,"U1":0.2038,"U2":0.0046,"couplingDegree":0.1751,"level":"极度失调","road_density":26.9837,"walk_accessibility":0.4221,"metro_line_density":2.2056,"station_count":2,"line_count":2,"population_density":1535.7881,"poi_density":0.0,"poi_diversity":0.0,"gdp_density":5504.8623,"P":1535.7881,"I":0.0,"G":5504.8623},{"stationName":"深圳铁路公园(地铁站)","station_id":"深圳铁路公园(地铁站)_22.50535_113.88544","lineId":"深圳地铁15号线 / 深圳地铁5号线","lat":22.505354285,"lon":113.88543924,"area_km2":1.8439,"D":0.093,"C":0.0682,"T":0.1268,"U1":0.2534,"U2":0.0003,"couplingDegree":0.093,"level":"极度失调","road_density":28.9422,"walk_accessibility":0.3697,"metro_line_density":2.8306,"station_count":3,"line_count":2,"population_density":271.7122,"poi_density":0.0,"poi_diversity":0.0,"gdp_density":0.0,"P":271.7122,"I":0.0,"G":0.0},{"stationName":"深圳妈湾(地铁站)","station_id":"深圳妈湾(地铁站)_22.51095_113.88105","lineId":"深圳地铁5号线","lat":22.51095254,"lon":113.88104853,"area_km2":1.7315,"D":0.0956,"C":0.0758,"T":0.1207,"U1":0.241,"U2":0.0003,"couplingDegree":0.0956,"level":"极度失调","road_density":27.4907,"walk_accessibility":0.3472,"metro_line_density":2.4655,"station_count":3,"line_count":2,"population_density":318.7987,"poi_density":0.0,"poi_diversity":0.0,"gdp_density":0.0,"P":318.7987,"I":0.0,"G":0.0},{"stationName":"深圳前湾公园(地铁站)","station_id":"深圳前湾公园(地铁站)_22.51916_113.88468","lineId":"深圳地铁5号线","lat":22.51915966,"lon":113.88467716,"area_km2":1.9336,"D":0.0515,"C":0.0349,"T":0.076,"U1":0.1519,"U2":0.0,"couplingDegree":0.0515,"level":"极度失调","road_density":32.9354,"walk_accessibility":0.3877,"metro_line_density":1.2787,"station_count":3,"line_count":1,"population_density":42.4082,"poi_density":0.0,"poi_diversity":0.0,"gdp_density":0.0,"P":42.4082,"I":0.0,"G":0.0},{"stationName":"深圳前湾(地铁站)","station_id":"深圳前湾(地铁站)_22.52487_113.89059","lineId":"深圳地铁5号线","lat":22.52487404,"lon":113.89058584,"area_km2":3.0149,"D":0.0515,"C":0.0234,"T":0.1134,"U1":0.2268,"U2":0.0,"couplingDegree":0.0515,"level":"极度失调","road_density":43.9446,"walk_accessibility":0.6045,"metro_line_density":2.5963,"station_count":3,"line_count":1,"population_density":28.5247,"poi_density":0.0,"poi_diversity":0.0,"gdp_density":0.0,"P":28.5247,"I":0.0,"G":0.0},{"stationName":"深圳桂湾(地铁站)","station_id":"深圳桂湾(地铁站)_22.53541_113.89308","lineId":"深圳地铁5号线","lat":22.5354111,"lon":113.89307671,"area_km2":2.6405,"D":0.0583,"C":0.0175,"T":0.1946,"U1":0.3892,"U2":0.0,"couplingDegree":0.0583,"level":"极度失调","road_density":46.0641,"walk_accessibility":0.5294,"metro_line_density":4.7773,"station_count":4,"line_count":2,"population_density":27.2677,"poi_density":0.0,"poi_diversity":0.0,"gdp_density":0.0,"P":27.2677,"I":0.0,"G":0.0},{"stationName":"深圳临海(地铁站)","station_id":"深圳临海(地铁站)_22.54721_113.88445","lineId":"深圳地铁5号线","lat":22.54720951,"lon":113.88444593,"area_km2":2.3458,"D":0.1429,"C":0.1047,"T":0.1951,"U1":0.3891,"U2":0.0011,"couplingDegree":0.1429,"level":"极度失调","road_density":39.5923,"walk_accessibility":0.4703,"metro_line_density":3.8634,"station_count":5,"line_count":2,"population_density":986.0014,"poi_density":0.0,"poi_diversity":0.0,"gdp_density":0.0,"P":986.0014,"I":0.0,"G":0.0},{"stationName":"深圳宝华(地铁站)","station_id":"深圳宝华(地铁站)_22.55268_113.88021","lineId":"深圳地铁5号线","lat":22.55268148,"lon":113.88020597,"area_km2":3.4113,"D":0.1338,"C":0.0968,"T":0.185,"U1":0.3691,"U2":0.0009,"couplingDegree":0.1338,"level":"极度失调","road_density":41.3346,"walk_accessibility":0.684,"metro_line_density":3.3889,"station_count":4,"line_count":2,"population_density":797.6405,"poi_density":0.0,"poi_diversity":0.0,"gdp_density":0.0,"P":797.6405,"I":0.0,"G":0.0},{"stationName":"深圳翻身(地铁站)","station_id":"深圳翻身(地铁站)_22.56274_113.88836","lineId":"深圳地铁5号线","lat":22.56274124,"lon":113.88835791,"area_km2":3.2137,"D":0.4151,"C":0.9371,"T":0.1838,"U1":0.248,"U2":0.1197,"couplingDegree":0.4151,"level":"勉强协调","road_density":33.8603,"walk_accessibility":0.6443,"metro_line_density":2.3188,"station_count":2,"line_count":2,"population_density":8030.1002,"poi_density":0.6223,"poi_diversity":0.6931,"gdp_density":9591.5581,"P":8030.1002,"I":0.6223,"G":9591.5581},{"stationName":"深圳灵芝(地铁站)","station_id":"深圳灵芝(地铁站)_22.57202_113.89929","lineId":"深圳地铁12号线 / 深圳地铁5号线","lat":22.572015229999998,"lon":113.899293,"area_km2":2.8468,"D":0.4744,"C":0.9265,"T":0.243,"U1":0.3344,"U2":0.1515,"couplingDegree":0.4744,"level":"勉强协调","road_density":25.4146,"walk_accessibility":0.5708,"metro_line_density":4.0645,"station_count":2,"line_count":3,"population_density":29723.5066,"poi_density":0.7025,"poi_diversity":0.6931,"gdp_density":20006.9074,"P":29723.5066,"I":0.7025,"G":20006.9074},{"stationName":"深圳洪浪北(地铁站)","station_id":"深圳洪浪北(地铁站)_22.57758_113.90572","lineId":"深圳地铁15号线 / 深圳地铁5号线","lat":22.577579849999996,"lon":113.90571729666665,"area_km2":2.586,"D":0.3221,"C":0.4484,"T":0.2314,"U1":0.4382,"U2":0.0246,"couplingDegree":0.3221,"level":"中度失调","road_density":22.7012,"walk_accessibility":0.5185,"metro_line_density":3.351,"station_count":3,"line_count":4,"population_density":17176.3941,"poi_density":0.0,"poi_diversity":0.0,"gdp_density":10999.3594,"P":17176.3941,"I":0.0,"G":10999.3594},{"stationName":"深圳兴东(地铁站)","station_id":"深圳兴东(地铁站)_22.58487_113.91415","lineId":"深圳地铁29号线 / 深圳地铁5号线","lat":22.58486544,"lon":113.91415042,"area_km2":2.1816,"D":0.2016,"C":0.2794,"T":0.1455,"U1":0.2851,"U2":0.0058,"couplingDegree":0.2016,"level":"中度失调","road_density":24.2991,"walk_accessibility":0.4374,"metro_line_density":2.083,"station_count":2,"line_count":3,"population_density":2631.053,"poi_density":0.0,"poi_diversity":0.0,"gdp_density":5486.022,"P":2631.053,"I":0.0,"G":5486.022},{"stationName":"深圳留仙洞(地铁站)","station_id":"深圳留仙洞(地铁站)_22.58351_113.93894","lineId":"深圳地铁13号线 / 深圳地铁5号线","lat":22.58351149666667,"lon":113.93894454999999,"area_km2":2.6291,"D":0.246,"C":0.3274,"T":0.1848,"U1":0.3594,"U2":0.0102,"couplingDegree":0.246,"level":"中度失调","road_density":25.9073,"walk_accessibility":0.5271,"metro_line_density":5.7878,"station_count":2,"line_count":3,"population_density":6055.2652,"poi_density":0.0,"poi_diversity":0.0,"gdp_density":6729.9234,"P":6055.2652,"I":0.0,"G":6729.9234},{"stationName":"深圳西丽(地铁站)","station_id":"深圳西丽(地铁站)_22.58367_113.94924","lineId":"深圳地铁5号线 / 深圳地铁7号线","lat":22.58366981,"lon":113.94923578000001,"area_km2":2.5219,"D":0.287,"C":0.4068,"T":0.2025,"U1":0.3874,"U2":0.0175,"couplingDegree":0.287,"level":"中度失调","road_density":27.6049,"walk_accessibility":0.5056,"metro_line_density":4.9431,"station_count":3,"line_count":3,"population_density":11888.614,"poi_density":0.0,"poi_diversity":0.0,"gdp_density":8560.8749,"P":11888.614,"I":0.0,"G":8560.8749},{"stationName":"深圳大学城(地铁站)","station_id":"深圳大学城(地铁站)_22.58491_113.96039","lineId":"深圳地铁5号线","lat":22.58490972,"lon":113.96039249,"area_km2":2.0083,"D":0.2181,"C":0.4277,"T":0.1112,"U1":0.2117,"U2":0.0107,"couplingDegree":0.2181,"level":"中度失调","road_density":28.0431,"walk_accessibility":0.4027,"metro_line_density":2.6284,"station_count":2,"line_count":2,"population_density":5473.8531,"poi_density":0.0,"poi_diversity":0.0,"gdp_density":8856.4458,"P":5473.8531,"I":0.0,"G":8856.4458},{"stationName":"深圳塘朗(地铁站)","station_id":"深圳塘朗(地铁站)_22.59296_113.99467","lineId":"深圳地铁5号线","lat":22.59296016,"lon":113.99466908,"area_km2":2.2127,"D":0.1753,"C":0.5423,"T":0.0567,"U1":0.1043,"U2":0.0091,"couplingDegree":0.1753,"level":"极度失调","road_density":30.0582,"walk_accessibility":0.4436,"metro_line_density":3.3151,"station_count":1,"line_count":1,"population_density":2895.5286,"poi_density":0.0,"poi_diversity":0.0,"gdp_density":11066.0681,"P":2895.5286,"I":0.0,"G":11066.0681},{"stationName":"深圳长岭陂(地铁站)","station_id":"深圳长岭陂(地铁站)_22.60223_114.00525","lineId":"深圳地铁27号线 / 深圳地铁5号线","lat":22.60222537,"lon":114.00525025499999,"area_km2":1.6558,"D":0.172,"C":0.3138,"T":0.0943,"U1":0.1838,"U2":0.0048,"couplingDegree":0.172,"level":"极度失调","road_density":26.0351,"walk_accessibility":0.332,"metro_line_density":4.1172,"station_count":1,"line_count":2,"population_density":649.2522,"poi_density":0.0,"poi_diversity":0.0,"gdp_density":7596.8132,"P":649.2522,"I":0.0,"G":7596.8132},{"stationName":"深圳民治(地铁站)","station_id":"深圳民治(地铁站)_22.62024_114.03581","lineId":"深圳地铁22号线 / 深圳地铁5号线","lat":22.620237545000002,"lon":114.035811585,"area_km2":2.4135,"D":0.2838,"C":0.6347,"T":0.1269,"U1":0.2249,"U2":0.0288,"couplingDegree":0.2838,"level":"中度失调","road_density":32.4725,"walk_accessibility":0.4839,"metro_line_density":4.5603,"station_count":1,"line_count":2,"population_density":17220.5409,"poi_density":0.0,"poi_diversity":0.0,"gdp_density":18898.8737,"P":17220.5409,"I":0.0,"G":18898.8737},{"stationName":"深圳五和(地铁站)","station_id":"深圳五和(地铁站)_22.62954_114.05556","lineId":"深圳地铁5号线","lat":22.62953587,"lon":114.05555872,"area_km2":2.3872,"D":0.2443,"C":0.7758,"T":0.0769,"U1":0.1255,"U2":0.0284,"couplingDegree":0.2443,"level":"中度失调","road_density":23.3648,"walk_accessibility":0.4786,"metro_line_density":3.149,"station_count":2,"line_count":1,"population_density":18584.3608,"poi_density":0.0,"poi_diversity":0.0,"gdp_density":15300.3491,"P":18584.3608,"I":0.0,"G":15300.3491},{"stationName":"深圳坂田(地铁站)","station_id":"深圳坂田(地铁站)_22.63017_114.06572","lineId":"深圳地铁5号线","lat":22.63017094,"lon":114.06572017,"area_km2":2.065,"D":0.3659,"C":0.9997,"T":0.1339,"U1":0.1308,"U2":0.137,"couplingDegree":0.3659,"level":"中度失调","road_density":22.1767,"walk_accessibility":0.414,"metro_line_density":1.685,"station_count":3,"line_count":1,"population_density":9029.5517,"poi_density":0.9685,"poi_diversity":0.6931,"gdp_density":18213.1984,"P":9029.5517,"I":0.9685,"G":18213.1984},{"stationName":"深圳杨美(地铁站)","station_id":"深圳杨美(地铁站)_22.62946_114.07484","lineId":"深圳地铁5号线","lat":22.62945627,"lon":114.07484093,"area_km2":1.9323,"D":0.1844,"C":0.6636,"T":0.0513,"U1":0.0896,"U2":0.0129,"couplingDegree":0.1844,"level":"极度失调","road_density":24.4274,"walk_accessibility":0.3874,"metro_line_density":1.3405,"station_count":2,"line_count":1,"population_density":4185.2092,"poi_density":0.0,"poi_diversity":0.0,"gdp_density":15650.7823,"P":4185.2092,"I":0.0,"G":15650.7823},{"stationName":"深圳上水径(地铁站)","station_id":"深圳上水径(地铁站)_22.62472_114.10022","lineId":"深圳地铁5号线","lat":22.62471851,"lon":114.10021536,"area_km2":1.6323,"D":0.2371,"C":0.9387,"T":0.0599,"U1":0.0805,"U2":0.0393,"couplingDegree":0.2371,"level":"中度失调","road_density":24.4753,"walk_accessibility":0.3273,"metro_line_density":1.1573,"station_count":2,"line_count":1,"population_density":26007.5547,"poi_density":0.0,"poi_diversity":0.0,"gdp_density":20509.3202,"P":26007.5547,"I":0.0,"G":20509.3202},{"stationName":"深圳下水径(地铁站)","station_id":"深圳下水径(地铁站)_22.61751_114.10555","lineId":"深圳地铁5号线","lat":22.6175091,"lon":114.10554695,"area_km2":1.5499,"D":0.245,"C":0.8273,"T":0.0725,"U1":0.1133,"U2":0.0318,"couplingDegree":0.245,"level":"中度失调","road_density":20.0096,"walk_accessibility":0.3107,"metro_line_density":1.6374,"station_count":3,"line_count":1,"population_density":23993.9622,"poi_density":0.0,"poi_diversity":0.0,"gdp_density":10645.6199,"P":23993.9622,"I":0.0,"G":10645.6199},{"stationName":"深圳长龙(地铁站)","station_id":"深圳长龙(地铁站)_22.61073_114.10871","lineId":"深圳地铁5号线","lat":22.61073227,"lon":114.10871485,"area_km2":1.9698,"D":0.3293,"C":0.6364,"T":0.1704,"U1":0.3019,"U2":0.039,"couplingDegree":0.3293,"level":"中度失调","road_density":22.8146,"walk_accessibility":0.3949,"metro_line_density":1.2315,"station_count":3,"line_count":3,"population_density":27051.3875,"poi_density":0.0,"poi_diversity":0.0,"gdp_density":17846.1991,"P":27051.3875,"I":0.0,"G":17846.1991},{"stationName":"深圳百鸽笼(地铁站)","station_id":"深圳百鸽笼(地铁站)_22.59814_114.12530","lineId":"深圳地铁5号线","lat":22.59813914,"lon":114.12529767,"area_km2":1.792,"D":0.3057,"C":0.5638,"T":0.1657,"U1":0.3026,"U2":0.0289,"couplingDegree":0.3057,"level":"中度失调","road_density":23.3869,"walk_accessibility":0.3593,"metro_line_density":3.8049,"station_count":2,"line_count":3,"population_density":22713.4351,"poi_density":0.0,"poi_diversity":0.0,"gdp_density":7740.8434,"P":22713.4351,"I":0.0,"G":7740.8434},{"stationName":"深圳布心(地铁站)","station_id":"深圳布心(地铁站)_22.58370_114.13298","lineId":"深圳地铁5号线","lat":22.58369589,"lon":114.13298186,"area_km2":1.6432,"D":0.3011,"C":0.7699,"T":0.1178,"U1":0.193,"U2":0.0426,"couplingDegree":0.3011,"level":"中度失调","road_density":31.1737,"walk_accessibility":0.3295,"metro_line_density":1.3986,"station_count":2,"line_count":2,"population_density":14408.8422,"poi_density":0.6086,"poi_diversity":0.0,"gdp_density":12083.8476,"P":14408.8422,"I":0.6086,"G":12083.8476},{"stationName":"深圳太安(地铁站)","station_id":"深圳太安(地铁站)_22.57617_114.13205","lineId":"深圳地铁5号线 / 深圳地铁7号线","lat":22.576174695,"lon":114.13205325999999,"area_km2":2.1771,"D":0.3519,"C":0.5693,"T":0.2175,"U1":0.3964,"U2":0.0387,"couplingDegree":0.3519,"level":"中度失调","road_density":33.7748,"walk_accessibility":0.4365,"metro_line_density":2.4586,"station_count":4,"line_count":3,"population_density":14883.252,"poi_density":0.4593,"poi_diversity":0.0,"gdp_density":13192.6536,"P":14883.252,"I":0.4593,"G":13192.6536},{"stationName":"深圳怡景(地铁站)","station_id":"深圳怡景(地铁站)_22.55857_114.13506","lineId":"深圳地铁5号线","lat":22.55857157,"lon":114.13505675,"area_km2":2.3197,"D":0.5564,"C":0.9982,"T":0.3102,"U1":0.3287,"U2":0.2916,"couplingDegree":0.5564,"level":"勉强协调","road_density":29.088,"walk_accessibility":0.4651,"metro_line_density":1.3465,"station_count":3,"line_count":3,"population_density":43456.4626,"poi_density":0.8622,"poi_diversity":0.6931,"gdp_density":244358.1057,"P":43456.4626,"I":0.8622,"G":244358.1057},{"stationName":"深圳东门(地铁站)","station_id":"深圳东门(地铁站)_22.54568_114.11230","lineId":"深圳地铁5号线","lat":22.54568342,"lon":114.112295115,"area_km2":3.0922,"D":0.9031,"C":0.9998,"T":0.8156,"U1":0.8299,"U2":0.8014,"couplingDegree":0.9031,"level":"优质协调","road_density":34.1867,"walk_accessibility":0.62,"metro_line_density":9.6369,"station_count":7,"line_count":5,"population_density":68439.3823,"poi_density":6.1445,"poi_diversity":2.2878,"gdp_density":449524.1298,"P":68439.3823,"I":6.1445,"G":449524.1298}]}