{"cityCode":"310000","year":2000,"stations":[{"stationName":"上海富锦路(地铁站)","station_id":"上海富锦路(地铁站)_31.39404_121.42001","lineId":"上海地铁1号线","lat":31.39404489,"lon":121.42000867499999,"area_km2":2.0533,"D":0.4486,"C":1.0,"T":0.2012,"U1":0.2029,"U2":0.1996,"couplingDegree":0.4486,"level":"勉强协调","road_density":31.6805,"walk_accessibility":0.4117,"metro_line_density":1.4156,"station_count":2,"line_count":1,"population_density":35.0648,"poi_density":0.0,"poi_diversity":0.0,"gdp_density":9967.056,"P":35.0648,"I":0.0,"G":9967.056},{"stationName":"上海友谊西路(地铁站)","station_id":"上海友谊西路(地铁站)_31.38309_121.42331","lineId":"上海地铁1号线","lat":31.38308783,"lon":121.42330572,"area_km2":1.188,"D":0.1223,"C":0.1555,"T":0.0962,"U1":0.1911,"U2":0.0012,"couplingDegree":0.1223,"level":"极度失调","road_density":28.6859,"walk_accessibility":0.2382,"metro_line_density":4.7423,"station_count":2,"line_count":1,"population_density":190.2283,"poi_density":0.0,"poi_diversity":0.0,"gdp_density":0.0,"P":190.2283,"I":0.0,"G":0.0},{"stationName":"上海宝安公路(地铁站)","station_id":"上海宝安公路(地铁站)_31.37135_121.42627","lineId":"上海地铁1号线","lat":31.37135416,"lon":121.42627176,"area_km2":1.2393,"D":0.1311,"C":0.6355,"T":0.027,"U1":0.0479,"U2":0.0062,"couplingDegree":0.1311,"level":"极度失调","road_density":20.7865,"walk_accessibility":0.2485,"metro_line_density":4.6309,"station_count":1,"line_count":1,"population_density":1002.957,"poi_density":0.0,"poi_diversity":0.0,"gdp_density":0.0,"P":1002.957,"I":0.0,"G":0.0},{"stationName":"上海共富新村(地铁站)","station_id":"上海共富新村(地铁站)_31.35689_121.42943","lineId":"上海地铁1号线","lat":31.35688994,"lon":121.42942848,"area_km2":1.4132,"D":0.1314,"C":0.4808,"T":0.0359,"U1":0.0674,"U2":0.0044,"couplingDegree":0.1314,"level":"极度失调","road_density":26.9439,"walk_accessibility":0.2834,"metro_line_density":4.0267,"station_count":1,"line_count":1,"population_density":720.3302,"poi_density":0.0,"poi_diversity":0.0,"gdp_density":0.0,"P":720.3302,"I":0.0,"G":0.0},{"stationName":"上海呼兰路(地铁站)","station_id":"上海呼兰路(地铁站)_31.34153_121.43226","lineId":"上海地铁18号线 / 上海地铁1号线","lat":31.34152552666667,"lon":121.43226472666667,"area_km2":1.7114,"D":0.5619,"C":0.9964,"T":0.3169,"U1":0.2899,"U2":0.344,"couplingDegree":0.5619,"level":"勉强协调","road_density":20.7949,"walk_accessibility":0.3431,"metro_line_density":5.797,"station_count":2,"line_count":2,"population_density":2302.7598,"poi_density":0.0,"poi_diversity":0.0,"gdp_density":16490.5281,"P":2302.7598,"I":0.0,"G":16490.5281},{"stationName":"上海通河新村(地铁站)","station_id":"上海通河新村(地铁站)_31.33296_121.43693","lineId":"上海地铁1号线","lat":31.33295683,"lon":121.43692739,"area_km2":1.6916,"D":0.5535,"C":0.9952,"T":0.3078,"U1":0.2778,"U2":0.3379,"couplingDegree":0.5535,"level":"勉强协调","road_density":21.5739,"walk_accessibility":0.3392,"metro_line_density":3.7826,"station_count":2,"line_count":2,"population_density":681.595,"poi_density":0.0,"poi_diversity":0.0,"gdp_density":16683.5871,"P":681.595,"I":0.0,"G":16683.5871},{"stationName":"上海共康路(地铁站)","station_id":"上海共康路(地铁站)_31.32078_121.44246","lineId":"上海地铁1号线","lat":31.32077824,"lon":121.44245648,"area_km2":1.3298,"D":0.196,"C":0.9444,"T":0.0407,"U1":0.0541,"U2":0.0273,"couplingDegree":0.196,"level":"极度失调","road_density":22.4955,"walk_accessibility":0.2666,"metro_line_density":4.3892,"station_count":1,"line_count":1,"population_density":4444.3247,"poi_density":0.0,"poi_diversity":0.0,"gdp_density":0.0,"P":4444.3247,"I":0.0,"G":0.0},{"stationName":"上海彭浦新村(地铁站)","station_id":"上海彭浦新村(地铁站)_31.30845_121.44404","lineId":"上海地铁1号线","lat":31.30845444,"lon":121.44404066,"area_km2":1.8545,"D":0.2151,"C":0.9444,"T":0.049,"U1":0.0651,"U2":0.0329,"couplingDegree":0.2151,"level":"中度失调","road_density":23.8212,"walk_accessibility":0.3718,"metro_line_density":3.1529,"station_count":1,"line_count":1,"population_density":5350.1515,"poi_density":0.0,"poi_diversity":0.0,"gdp_density":0.0,"P":5350.1515,"I":0.0,"G":0.0},{"stationName":"上海汶水路(地铁站)","station_id":"上海汶水路(地铁站)_31.29442_121.44566","lineId":"上海地铁1号线","lat":31.294415684999997,"lon":121.445655105,"area_km2":2.4114,"D":0.4302,"C":0.8365,"T":0.2212,"U1":0.1,"U2":0.3425,"couplingDegree":0.4302,"level":"勉强协调","road_density":31.8277,"walk_accessibility":0.4835,"metro_line_density":2.3334,"station_count":1,"line_count":1,"population_density":17431.3725,"poi_density":0.0,"poi_diversity":0.0,"gdp_density":11767.8381,"P":17431.3725,"I":0.0,"G":11767.8381},{"stationName":"上海上海马戏城(地铁站)","station_id":"上海上海马戏城(地铁站)_31.28150_121.44747","lineId":"上海地铁1号线 / 上海地铁20号线","lat":31.281495435,"lon":121.44747032999999,"area_km2":2.2037,"D":0.4056,"C":0.8349,"T":0.197,"U1":0.3055,"U2":0.0886,"couplingDegree":0.4056,"level":"勉强协调","road_density":24.6408,"walk_accessibility":0.4418,"metro_line_density":4.2661,"station_count":2,"line_count":2,"population_density":14415.8081,"poi_density":0.0,"poi_diversity":0.0,"gdp_density":0.0,"P":14415.8081,"I":0.0,"G":0.0},{"stationName":"上海延长路(地铁站)","station_id":"上海延长路(地铁站)_31.27355_121.45075","lineId":"上海地铁1号线","lat":31.27355265,"lon":121.45074729,"area_km2":2.2407,"D":0.5847,"C":0.9893,"T":0.3456,"U1":0.2952,"U2":0.396,"couplingDegree":0.5847,"level":"勉强协调","road_density":23.0699,"walk_accessibility":0.4492,"metro_line_density":3.2934,"station_count":2,"line_count":2,"population_density":23264.2119,"poi_density":0.0,"poi_diversity":0.0,"gdp_density":12654.8848,"P":23264.2119,"I":0.0,"G":12654.8848},{"stationName":"上海中山北路(地铁站)","station_id":"上海中山北路(地铁站)_31.26078_121.45463","lineId":"上海地铁1号线","lat":31.26078422,"lon":121.45463391,"area_km2":2.4942,"D":0.6768,"C":0.9382,"T":0.4882,"U1":0.3193,"U2":0.6572,"couplingDegree":0.6768,"level":"良好协调","road_density":28.4711,"walk_accessibility":0.5001,"metro_line_density":3.345,"station_count":2,"line_count":2,"population_density":69904.9027,"poi_density":0.0,"poi_diversity":0.0,"gdp_density":11380.4368,"P":69904.9027,"I":0.0,"G":11380.4368},{"stationName":"上海上海火车站(地铁站)","station_id":"上海上海火车站(地铁站)_31.24994_121.45186","lineId":"上海地铁1号线 / 上海地铁3号线","lat":31.249938473333334,"lon":121.45185925666665,"area_km2":2.6664,"D":0.8142,"C":0.9899,"T":0.6697,"U1":0.5747,"U2":0.7646,"couplingDegree":0.8142,"level":"优质协调","road_density":33.3555,"walk_accessibility":0.5346,"metro_line_density":5.6336,"station_count":3,"line_count":3,"population_density":89787.4651,"poi_density":0.0,"poi_diversity":0.0,"gdp_density":10645.1965,"P":89787.4651,"I":0.0,"G":10645.1965},{"stationName":"上海汉中路(地铁站)","station_id":"上海汉中路(地铁站)_31.24314_121.45424","lineId":"上海地铁13号线 / 上海地铁1号线","lat":31.24313625,"lon":121.454244305,"area_km2":3.0643,"D":0.7117,"C":0.995,"T":0.5091,"U1":0.5601,"U2":0.458,"couplingDegree":0.7117,"level":"良好协调","road_density":31.0079,"walk_accessibility":0.6144,"metro_line_density":2.8236,"station_count":3,"line_count":3,"population_density":74539.645,"poi_density":0.0,"poi_diversity":0.0,"gdp_density":0.0,"P":74539.645,"I":0.0,"G":0.0},{"stationName":"上海新闸路(地铁站)","station_id":"上海新闸路(地铁站)_31.24030_121.46361","lineId":"上海地铁1号线","lat":31.24029698,"lon":121.46360999,"area_km2":3.6056,"D":0.6808,"C":0.8649,"T":0.5359,"U1":0.8049,"U2":0.2669,"couplingDegree":0.6808,"level":"良好协调","road_density":31.3025,"walk_accessibility":0.7229,"metro_line_density":3.9865,"station_count":4,"line_count":4,"population_density":43442.138,"poi_density":0.0,"poi_diversity":0.0,"gdp_density":0.0,"P":43442.138,"I":0.0,"G":0.0},{"stationName":"上海人民广场(地铁站)","station_id":"上海人民广场(地铁站)_31.23485_121.46990","lineId":"上海地铁1号线 / 上海地铁2号线 / 上海地铁8号线","lat":31.234849183333335,"lon":121.46989588999999,"area_km2":3.6983,"D":0.8356,"C":0.9634,"T":0.7247,"U1":0.919,"U2":0.5304,"couplingDegree":0.8356,"level":"优质协调","road_density":33.0418,"walk_accessibility":0.7415,"metro_line_density":4.913,"station_count":4,"line_count":5,"population_density":61362.2669,"poi_density":0.0,"poi_diversity":0.0,"gdp_density":7666.4524,"P":61362.2669,"I":0.0,"G":7666.4524},{"stationName":"上海一大会址·黄陂南路(地铁站)","station_id":"上海一大会址·黄陂南路(地铁站)_31.22513_121.46825","lineId":"上海地铁14号线 / 上海地铁1号线","lat":31.225133919999998,"lon":121.468253215,"area_km2":3.8548,"D":0.735,"C":0.9965,"T":0.5422,"U1":0.5877,"U2":0.4967,"couplingDegree":0.735,"level":"良好协调","road_density":32.6645,"walk_accessibility":0.7729,"metro_line_density":5.6979,"station_count":2,"line_count":4,"population_density":80824.5143,"poi_density":0.0,"poi_diversity":0.0,"gdp_density":0.0,"P":80824.5143,"I":0.0,"G":0.0},{"stationName":"上海陕西南路(地铁站)","station_id":"上海陕西南路(地铁站)_31.21810_121.45478","lineId":"上海地铁10号线 / 上海地铁1号线","lat":31.21810256,"lon":121.454784855,"area_km2":3.1202,"D":0.6092,"C":0.988,"T":0.3756,"U1":0.4335,"U2":0.3177,"couplingDegree":0.6092,"level":"良好协调","road_density":22.7303,"walk_accessibility":0.6256,"metro_line_density":5.2781,"station_count":2,"line_count":3,"population_density":22064.201,"poi_density":0.0,"poi_diversity":0.0,"gdp_density":9106.1296,"P":22064.201,"I":0.0,"G":9106.1296},{"stationName":"上海常熟路(地铁站)","station_id":"上海常熟路(地铁站)_31.21535_121.44550","lineId":"上海地铁1号线 / 上海地铁7号线","lat":31.21534568,"lon":121.44550402499999,"area_km2":3.0427,"D":0.9148,"C":0.9992,"T":0.8376,"U1":0.8721,"U2":0.8032,"couplingDegree":0.9148,"level":"优质协调","road_density":20.8342,"walk_accessibility":0.6101,"metro_line_density":6.2526,"station_count":4,"line_count":5,"population_density":69855.5939,"poi_density":0.0,"poi_diversity":0.0,"gdp_density":18695.7617,"P":69855.5939,"I":0.0,"G":18695.7617},{"stationName":"上海衡山路(地铁站)","station_id":"上海衡山路(地铁站)_31.20642_121.44183","lineId":"上海地铁1号线","lat":31.20641737,"lon":121.44182586,"area_km2":2.9236,"D":0.6326,"C":0.9795,"T":0.4085,"U1":0.3262,"U2":0.4909,"couplingDegree":0.6326,"level":"良好协调","road_density":19.5005,"walk_accessibility":0.5862,"metro_line_density":6.4337,"station_count":2,"line_count":2,"population_density":79891.4845,"poi_density":0.0,"poi_diversity":0.0,"gdp_density":0.0,"P":79891.4845,"I":0.0,"G":0.0},{"stationName":"上海徐家汇(地铁站)","station_id":"上海徐家汇(地铁站)_31.19576_121.43236","lineId":"上海地铁11号线 / 上海地铁1号线 / 上海地铁9号线","lat":31.19576220333333,"lon":121.43235650333334,"area_km2":2.9778,"D":0.6559,"C":0.9496,"T":0.4531,"U1":0.311,"U2":0.5951,"couplingDegree":0.6559,"level":"良好协调","road_density":22.6277,"walk_accessibility":0.597,"metro_line_density":5.6079,"station_count":1,"line_count":3,"population_density":65669.7087,"poi_density":0.0,"poi_diversity":0.0,"gdp_density":9577.9001,"P":65669.7087,"I":0.0,"G":9577.9001},{"stationName":"上海上海体育馆(地铁站)","station_id":"上海上海体育馆(地铁站)_31.18429_121.43223","lineId":"上海地铁1号线 / 上海地铁4号线","lat":31.18429184,"lon":121.43223302,"area_km2":2.523,"D":0.7302,"C":0.9751,"T":0.5468,"U1":0.6679,"U2":0.4256,"couplingDegree":0.7302,"level":"良好协调","road_density":25.1698,"walk_accessibility":0.5058,"metro_line_density":8.8936,"station_count":3,"line_count":4,"population_density":69257.2253,"poi_density":0.0,"poi_diversity":0.0,"gdp_density":0.0,"P":69257.2253,"I":0.0,"G":0.0},{"stationName":"上海漕宝路(地铁站)","station_id":"上海漕宝路(地铁站)_31.17012_121.43008","lineId":"上海地铁1号线","lat":31.17011773,"lon":121.43008327,"area_km2":1.8959,"D":0.6326,"C":0.9992,"T":0.4006,"U1":0.4169,"U2":0.3843,"couplingDegree":0.6326,"level":"良好协调","road_density":24.9072,"walk_accessibility":0.3801,"metro_line_density":4.1904,"station_count":3,"line_count":2,"population_density":13582.2033,"poi_density":0.0,"poi_diversity":0.0,"gdp_density":15040.7129,"P":13582.2033,"I":0.0,"G":15040.7129},{"stationName":"上海上海南站(地铁站)","station_id":"上海上海南站(地铁站)_31.15635_121.42606","lineId":"上海地铁15号线 / 上海地铁1号线 / 上海地铁3号线","lat":31.156352245,"lon":121.42606245,"area_km2":1.9356,"D":0.1444,"C":0.0993,"T":0.21,"U1":0.4189,"U2":0.001,"couplingDegree":0.1444,"level":"极度失调","road_density":31.4808,"walk_accessibility":0.3881,"metro_line_density":4.4154,"station_count":2,"line_count":3,"population_density":168.9409,"poi_density":0.0,"poi_diversity":0.0,"gdp_density":0.0,"P":168.9409,"I":0.0,"G":0.0},{"stationName":"上海锦江乐园(地铁站)","station_id":"上海锦江乐园(地铁站)_31.14410_121.40947","lineId":"上海地铁1号线","lat":31.14409852,"lon":121.40946646,"area_km2":1.5731,"D":0.0869,"C":0.2176,"T":0.0347,"U1":0.0686,"U2":0.0008,"couplingDegree":0.0869,"level":"极度失调","road_density":30.945,"walk_accessibility":0.3154,"metro_line_density":1.7564,"station_count":1,"line_count":1,"population_density":135.3995,"poi_density":0.0,"poi_diversity":0.0,"gdp_density":0.0,"P":135.3995,"I":0.0,"G":0.0},{"stationName":"上海莲花路(地铁站)","station_id":"上海莲花路(地铁站)_31.13279_121.39827","lineId":"上海地铁1号线","lat":31.132785175000002,"lon":121.39826690000001,"area_km2":2.0028,"D":0.3477,"C":0.8303,"T":0.1456,"U1":0.0644,"U2":0.2267,"couplingDegree":0.3477,"level":"中度失调","road_density":26.7181,"walk_accessibility":0.4016,"metro_line_density":1.1499,"station_count":1,"line_count":1,"population_density":171.2579,"poi_density":0.0,"poi_diversity":0.0,"gdp_density":11283.6065,"P":171.2579,"I":0.0,"G":11283.6065},{"stationName":"上海外环路(地铁站)","station_id":"上海外环路(地铁站)_31.12279_121.38838","lineId":"上海地铁1号线","lat":31.12279218,"lon":121.38838039,"area_km2":2.444,"D":0.0882,"C":0.1612,"T":0.0482,"U1":0.0958,"U2":0.0006,"couplingDegree":0.0882,"level":"极度失调","road_density":31.9405,"walk_accessibility":0.49,"metro_line_density":1.5335,"station_count":1,"line_count":1,"population_density":102.7024,"poi_density":0.0,"poi_diversity":0.0,"gdp_density":0.0,"P":102.7024,"I":0.0,"G":0.0},{"stationName":"上海莘庄(地铁站)","station_id":"上海莘庄(地铁站)_31.11305_121.38074","lineId":"上海地铁1号线","lat":31.11305321,"lon":121.38073913,"area_km2":2.2667,"D":0.3591,"C":0.9017,"T":0.143,"U1":0.0812,"U2":0.2049,"couplingDegree":0.3591,"level":"中度失调","road_density":24.0807,"walk_accessibility":0.4545,"metro_line_density":3.6097,"station_count":1,"line_count":1,"population_density":763.2232,"poi_density":0.0,"poi_diversity":0.0,"gdp_density":10009.8938,"P":763.2232,"I":0.0,"G":10009.8938},{"stationName":"上海虹桥火车站(地铁站)","station_id":"上海虹桥火车站(地铁站)_31.19604_121.31717","lineId":"上海地铁2号线 / 上海地铁示范区线","lat":31.196040484999997,"lon":121.31717220499999,"area_km2":2.0239,"D":0.5554,"C":0.8396,"T":0.3674,"U1":0.567,"U2":0.1678,"couplingDegree":0.5554,"level":"勉强协调","road_density":44.3455,"walk_accessibility":0.4058,"metro_line_density":5.4505,"station_count":2,"line_count":4,"population_density":96.3471,"poi_density":0.0,"poi_diversity":0.0,"gdp_density":8361.4639,"P":96.3471,"I":0.0,"G":8361.4639},{"stationName":"上海虹桥2号航站楼(地铁站)","station_id":"上海虹桥2号航站楼(地铁站)_31.19613_121.32116","lineId":"上海地铁10号线 / 上海地铁2号线 / 上海地铁嘉闵线","lat":31.196134086666664,"lon":121.32115698,"area_km2":1.8675,"D":0.5671,"C":0.8578,"T":0.3749,"U1":0.5676,"U2":0.1822,"couplingDegree":0.5671,"level":"勉强协调","road_density":43.9779,"walk_accessibility":0.3744,"metro_line_density":6.3702,"station_count":2,"line_count":4,"population_density":162.2528,"poi_density":0.0,"poi_diversity":0.0,"gdp_density":9062.0738,"P":162.2528,"I":0.0,"G":9062.0738},{"stationName":"上海淞虹路(地铁站)","station_id":"上海淞虹路(地铁站)_31.22010_121.35493","lineId":"上海地铁2号线","lat":31.22010141,"lon":121.35492751,"area_km2":2.8041,"D":0.3717,"C":0.9216,"T":0.1499,"U1":0.0917,"U2":0.2081,"couplingDegree":0.3717,"level":"中度失调","road_density":25.7624,"walk_accessibility":0.5622,"metro_line_density":2.0913,"station_count":1,"line_count":1,"population_density":7415.8333,"poi_density":0.0,"poi_diversity":0.0,"gdp_density":8127.4922,"P":7415.8333,"I":0.0,"G":8127.4922},{"stationName":"上海中山公园(地铁站)","station_id":"上海中山公园(地铁站)_31.22006_121.41225","lineId":"上海地铁2号线 / 上海地铁3号线","lat":31.220058209999998,"lon":121.4122525,"area_km2":2.9313,"D":0.617,"C":0.9965,"T":0.382,"U1":0.3502,"U2":0.4138,"couplingDegree":0.617,"level":"良好协调","road_density":30.2753,"walk_accessibility":0.5877,"metro_line_density":5.1788,"station_count":2,"line_count":2,"population_density":35632.3435,"poi_density":0.0,"poi_diversity":0.0,"gdp_density":9741.9523,"P":35632.3435,"I":0.0,"G":9741.9523},{"stationName":"上海静安寺(地铁站)","station_id":"上海静安寺(地铁站)_31.22463_121.44222","lineId":"上海地铁14号线 / 上海地铁2号线 / 上海地铁7号线","lat":31.22463062,"lon":121.44222156333335,"area_km2":2.9821,"D":0.7359,"C":0.9998,"T":0.5416,"U1":0.531,"U2":0.5523,"couplingDegree":0.7359,"level":"良好协调","road_density":23.427,"walk_accessibility":0.5979,"metro_line_density":5.2455,"station_count":2,"line_count":4,"population_density":89872.8167,"poi_density":0.0,"poi_diversity":0.0,"gdp_density":0.0,"P":89872.8167,"I":0.0,"G":0.0},{"stationName":"上海世纪大道(地铁站)","station_id":"上海世纪大道(地铁站)_31.23078_121.52288","lineId":"上海地铁2号线","lat":31.23078121,"lon":121.522877,"area_km2":3.8492,"D":0.4691,"C":0.9705,"T":0.2267,"U1":0.2814,"U2":0.1721,"couplingDegree":0.4691,"level":"勉强协调","road_density":30.6493,"walk_accessibility":0.7718,"metro_line_density":5.5745,"station_count":2,"line_count":1,"population_density":10215.5466,"poi_density":0.0,"poi_diversity":0.0,"gdp_density":5465.2331,"P":10215.5466,"I":0.0,"G":5465.2331},{"stationName":"上海龙阳路(地铁站)","station_id":"上海龙阳路(地铁站)_31.20426_121.55296","lineId":"上海地铁16号线 / 上海地铁18号线 / 上海地铁2号线 / 上海地铁7号线","lat":31.204256895999997,"lon":121.55296048,"area_km2":2.1669,"D":0.5696,"C":0.889,"T":0.3649,"U1":0.532,"U2":0.1978,"couplingDegree":0.5696,"level":"勉强协调","road_density":28.0113,"walk_accessibility":0.4345,"metro_line_density":6.8877,"station_count":2,"line_count":4,"population_density":873.149,"poi_density":0.0,"poi_diversity":0.0,"gdp_density":9621.9955,"P":873.149,"I":0.0,"G":9621.9955},{"stationName":"上海浦东1号2号航站楼(地铁站)","station_id":"上海浦东1号2号航站楼(地铁站)_31.15359_121.80159","lineId":"上海上海市域机场线后通段(浦东1号2号航站楼--上海东站) / 上海地铁2号线","lat":31.153591245,"lon":121.80159420999999,"area_km2":1.1491,"D":0.0539,"C":0.0295,"T":0.0985,"U1":0.1969,"U2":0.0,"couplingDegree":0.0539,"level":"极度失调","road_density":33.7813,"walk_accessibility":0.2304,"metro_line_density":6.5051,"station_count":1,"line_count":2,"population_density":6.9618,"poi_density":0.0,"poi_diversity":0.0,"gdp_density":0.0,"P":6.9618,"I":0.0,"G":0.0},{"stationName":"上海海天三路(地铁站)","station_id":"上海海天三路(地铁站)_31.17054_121.79257","lineId":"上海地铁2号线","lat":31.17054153,"lon":121.79256704,"area_km2":2.3425,"D":0.0422,"C":0.0588,"T":0.0304,"U1":0.0607,"U2":0.0001,"couplingDegree":0.0422,"level":"极度失调","road_density":22.5574,"walk_accessibility":0.4697,"metro_line_density":0.9631,"station_count":1,"line_count":1,"population_density":8.538,"poi_density":0.0,"poi_diversity":0.0,"gdp_density":0.0,"P":8.538,"I":0.0,"G":0.0},{"stationName":"上海远东大道(地铁站)","station_id":"上海远东大道(地铁站)_31.20141_121.75093","lineId":"上海地铁2号线","lat":31.20141446,"lon":121.75092969,"area_km2":1.5171,"D":0.2517,"C":0.6318,"T":0.1002,"U1":0.0225,"U2":0.178,"couplingDegree":0.2517,"level":"中度失调","road_density":18.379,"walk_accessibility":0.3042,"metro_line_density":0.7895,"station_count":1,"line_count":1,"population_density":95.5778,"poi_density":0.0,"poi_diversity":0.0,"gdp_density":8868.7246,"P":95.5778,"I":0.0,"G":8868.7246},{"stationName":"上海凌空路(地铁站)","station_id":"上海凌空路(地铁站)_31.19491_121.71973","lineId":"上海地铁2号线","lat":31.19490762,"lon":121.7197285,"area_km2":1.8958,"D":0.275,"C":0.785,"T":0.0963,"U1":0.0367,"U2":0.156,"couplingDegree":0.275,"level":"中度失调","road_density":17.8912,"walk_accessibility":0.3801,"metro_line_density":1.4293,"station_count":1,"line_count":1,"population_density":864.0269,"poi_density":0.0,"poi_diversity":0.0,"gdp_density":7534.2672,"P":864.0269,"I":0.0,"G":7534.2672},{"stationName":"上海川沙(地铁站)","station_id":"上海川沙(地铁站)_31.18882_121.69387","lineId":"上海地铁2号线","lat":31.1888237,"lon":121.69387453,"area_km2":2.2367,"D":0.3026,"C":0.7586,"T":0.1207,"U1":0.0421,"U2":0.1994,"couplingDegree":0.3026,"level":"中度失调","road_density":16.8357,"walk_accessibility":0.4485,"metro_line_density":1.2116,"station_count":1,"line_count":1,"population_density":2769.2204,"poi_density":0.0,"poi_diversity":0.0,"gdp_density":9119.0409,"P":2769.2204,"I":0.0,"G":9119.0409},{"stationName":"上海华夏东路(地铁站)","station_id":"上海华夏东路(地铁站)_31.19868_121.67667","lineId":"上海地铁2号线","lat":31.19868363,"lon":121.67666725,"area_km2":1.6418,"D":0.1202,"C":0.7245,"T":0.0199,"U1":0.0337,"U2":0.0062,"couplingDegree":0.1202,"level":"极度失调","road_density":19.195,"walk_accessibility":0.3292,"metro_line_density":1.518,"station_count":1,"line_count":1,"population_density":1008.0372,"poi_density":0.0,"poi_diversity":0.0,"gdp_density":0.0,"P":1008.0372,"I":0.0,"G":0.0},{"stationName":"上海创新中路(地铁站)","station_id":"上海创新中路(地铁站)_31.21599_121.66942","lineId":"上海地铁2号线","lat":31.21598559,"lon":121.66942139,"area_km2":1.2733,"D":0.0601,"C":0.2576,"T":0.014,"U1":0.0275,"U2":0.0005,"couplingDegree":0.0601,"level":"极度失调","road_density":20.353,"walk_accessibility":0.2553,"metro_line_density":1.7037,"station_count":1,"line_count":1,"population_density":76.9643,"poi_density":0.0,"poi_diversity":0.0,"gdp_density":0.0,"P":76.9643,"I":0.0,"G":0.0},{"stationName":"上海唐镇(地铁站)","station_id":"上海唐镇(地铁站)_31.21625_121.65201","lineId":"上海地铁2号线","lat":31.21625474,"lon":121.65201072,"area_km2":1.7434,"D":0.2653,"C":0.7438,"T":0.0946,"U1":0.0314,"U2":0.1579,"couplingDegree":0.2653,"level":"中度失调","road_density":18.5302,"walk_accessibility":0.3495,"metro_line_density":1.0376,"station_count":1,"line_count":1,"population_density":671.6785,"poi_density":0.0,"poi_diversity":0.0,"gdp_density":7689.4668,"P":671.6785,"I":0.0,"G":7689.4668},{"stationName":"上海广兰路(地铁站)","station_id":"上海广兰路(地铁站)_31.21325_121.61686","lineId":"上海地铁2号线","lat":31.21324925,"lon":121.61686455,"area_km2":1.9865,"D":0.305,"C":0.9262,"T":0.1004,"U1":0.0626,"U2":0.1383,"couplingDegree":0.305,"level":"中度失调","road_density":25.4756,"walk_accessibility":0.3983,"metro_line_density":1.4912,"station_count":1,"line_count":1,"population_density":185.7532,"poi_density":0.0,"poi_diversity":0.0,"gdp_density":6859.0529,"P":185.7532,"I":0.0,"G":6859.0529},{"stationName":"上海金科路(地铁站)","station_id":"上海金科路(地铁站)_31.20643_121.59779","lineId":"上海地铁2号线","lat":31.20642676,"lon":121.59778968,"area_km2":1.9092,"D":0.0915,"C":0.3989,"T":0.021,"U1":0.0402,"U2":0.0017,"couplingDegree":0.0915,"level":"极度失调","road_density":18.7748,"walk_accessibility":0.3828,"metro_line_density":1.5023,"station_count":1,"line_count":1,"population_density":283.3645,"poi_density":0.0,"poi_diversity":0.0,"gdp_density":0.0,"P":283.3645,"I":0.0,"G":0.0},{"stationName":"上海张江高科(地铁站)","station_id":"上海张江高科(地铁站)_31.20409_121.58329","lineId":"上海地铁2号线","lat":31.20408548,"lon":121.58328664,"area_km2":2.1967,"D":0.084,"C":0.282,"T":0.025,"U1":0.049,"U2":0.001,"couplingDegree":0.084,"level":"极度失调","road_density":19.4865,"walk_accessibility":0.4404,"metro_line_density":1.2367,"station_count":1,"line_count":1,"population_density":165.2492,"poi_density":0.0,"poi_diversity":0.0,"gdp_density":0.0,"P":165.2492,"I":0.0,"G":0.0},{"stationName":"上海世纪公园(地铁站)","station_id":"上海世纪公园(地铁站)_31.21159_121.54665","lineId":"上海地铁2号线","lat":31.21158603,"lon":121.54664538,"area_km2":2.445,"D":0.5764,"C":0.8184,"T":0.406,"U1":0.6393,"U2":0.1727,"couplingDegree":0.5764,"level":"勉强协调","road_density":27.5647,"walk_accessibility":0.4902,"metro_line_density":4.0049,"station_count":3,"line_count":4,"population_density":370.556,"poi_density":0.0,"poi_diversity":0.0,"gdp_density":8520.1023,"P":370.556,"I":0.0,"G":8520.1023},{"stationName":"上海上海科技馆(地铁站)","station_id":"上海上海科技馆(地铁站)_31.22097_121.54016","lineId":"上海地铁2号线","lat":31.22096549,"lon":121.54015729,"area_km2":3.2412,"D":0.4277,"C":0.9462,"T":0.1933,"U1":0.2559,"U2":0.1307,"couplingDegree":0.4277,"level":"勉强协调","road_density":32.9555,"walk_accessibility":0.6499,"metro_line_density":3.4672,"station_count":2,"line_count":1,"population_density":175.2427,"poi_density":0.0,"poi_diversity":0.0,"gdp_density":6483.6342,"P":175.2427,"I":0.0,"G":6483.6342},{"stationName":"上海浦东南路(原东昌路)(地铁站)","station_id":"上海浦东南路(原东昌路)(地铁站)_31.23533_121.51118","lineId":"上海地铁2号线","lat":31.2353341,"lon":121.5111808,"area_km2":4.2622,"D":0.5111,"C":0.9841,"T":0.2654,"U1":0.3125,"U2":0.2183,"couplingDegree":0.5111,"level":"勉强协调","road_density":36.9841,"walk_accessibility":0.8546,"metro_line_density":5.5519,"station_count":2,"line_count":1,"population_density":19466.9505,"poi_density":0.0,"poi_diversity":0.0,"gdp_density":4935.6438,"P":19466.9505,"I":0.0,"G":4935.6438},{"stationName":"上海陆家嘴(地铁站)","station_id":"上海陆家嘴(地铁站)_31.23875_121.49806","lineId":"上海地铁14号线 / 上海地铁2号线","lat":31.238746165000002,"lon":121.49806153,"area_km2":3.0308,"D":0.5229,"C":0.999,"T":0.2736,"U1":0.2617,"U2":0.2856,"couplingDegree":0.5229,"level":"勉强协调","road_density":42.5232,"walk_accessibility":0.6077,"metro_line_density":4.0086,"station_count":1,"line_count":2,"population_density":23835.7806,"poi_density":0.0,"poi_diversity":0.0,"gdp_density":6956.0896,"P":23835.7806,"I":0.0,"G":6956.0896},{"stationName":"上海南京东路(地铁站)","station_id":"上海南京东路(地铁站)_31.23957_121.47963","lineId":"上海地铁10号线 / 上海地铁2号线","lat":31.23956866,"lon":121.47962986499999,"area_km2":3.7709,"D":0.7278,"C":0.9977,"T":0.531,"U1":0.5673,"U2":0.4946,"couplingDegree":0.7278,"level":"良好协调","road_density":31.081,"walk_accessibility":0.7561,"metro_line_density":3.7855,"station_count":2,"line_count":4,"population_density":56023.2802,"poi_density":0.0,"poi_diversity":0.0,"gdp_density":7518.7905,"P":56023.2802,"I":0.0,"G":7518.7905},{"stationName":"上海南京西路(地铁站)","station_id":"上海南京西路(地铁站)_31.23112_121.45664","lineId":"上海地铁13号线 / 上海地铁2号线","lat":31.231121675,"lon":121.456641515,"area_km2":3.1486,"D":0.7063,"C":0.9912,"T":0.5033,"U1":0.4366,"U2":0.5701,"couplingDegree":0.7063,"level":"良好协调","road_density":28.6172,"walk_accessibility":0.6313,"metro_line_density":3.0223,"station_count":2,"line_count":3,"population_density":63407.2293,"poi_density":0.0,"poi_diversity":0.0,"gdp_density":9023.391,"P":63407.2293,"I":0.0,"G":9023.391},{"stationName":"上海江苏路(地铁站)","station_id":"上海江苏路(地铁站)_31.22201_121.42692","lineId":"上海地铁11号线 / 上海地铁2号线","lat":31.222012560000003,"lon":121.42691964,"area_km2":2.9026,"D":0.4905,"C":0.9894,"T":0.2431,"U1":0.2078,"U2":0.2785,"couplingDegree":0.4905,"level":"勉强协调","road_density":25.8125,"walk_accessibility":0.582,"metro_line_density":4.0316,"station_count":1,"line_count":2,"population_density":45317.5552,"poi_density":0.0,"poi_diversity":0.0,"gdp_density":0.0,"P":45317.5552,"I":0.0,"G":0.0},{"stationName":"上海娄山关路(地铁站)","station_id":"上海娄山关路(地铁站)_31.21395_121.39738","lineId":"上海地铁15号线 / 上海地铁2号线","lat":31.213947245,"lon":121.39738009,"area_km2":2.7612,"D":0.537,"C":0.9111,"T":0.3166,"U1":0.1861,"U2":0.447,"couplingDegree":0.537,"level":"勉强协调","road_density":23.1715,"walk_accessibility":0.5536,"metro_line_density":2.6256,"station_count":1,"line_count":2,"population_density":39008.7984,"poi_density":0.0,"poi_diversity":0.0,"gdp_density":10367.4345,"P":39008.7984,"I":0.0,"G":10367.4345},{"stationName":"上海威宁路(地铁站)","station_id":"上海威宁路(地铁站)_31.21672_121.38264","lineId":"上海地铁2号线","lat":31.21671684,"lon":121.38263986,"area_km2":2.3448,"D":0.3054,"C":0.9713,"T":0.096,"U1":0.0732,"U2":0.1188,"couplingDegree":0.3054,"level":"中度失调","road_density":23.4281,"walk_accessibility":0.4701,"metro_line_density":2.3906,"station_count":1,"line_count":1,"population_density":19339.0818,"poi_density":0.0,"poi_diversity":0.0,"gdp_density":0.0,"P":19339.0818,"I":0.0,"G":0.0},{"stationName":"上海北新泾(地铁站)","station_id":"上海北新泾(地铁站)_31.21825_121.36937","lineId":"上海地铁2号线","lat":31.21825356,"lon":121.3693669,"area_km2":2.5871,"D":0.3995,"C":0.8762,"T":0.1822,"U1":0.0944,"U2":0.27,"couplingDegree":0.3995,"level":"中度失调","road_density":28.4442,"walk_accessibility":0.5187,"metro_line_density":2.2398,"station_count":1,"line_count":1,"population_density":7815.776,"poi_density":0.0,"poi_diversity":0.0,"gdp_density":11096.9442,"P":7815.776,"I":0.0,"G":11096.9442},{"stationName":"上海国家会展中心(2号线)(地铁站)","station_id":"上海国家会展中心(2号线)(地铁站)_31.19037_121.29473","lineId":"上海地铁2号线","lat":31.19036678,"lon":121.29472806,"area_km2":1.9167,"D":0.2712,"C":0.9961,"T":0.0738,"U1":0.0803,"U2":0.0673,"couplingDegree":0.2712,"level":"中度失调","road_density":26.4079,"walk_accessibility":0.3843,"metro_line_density":3.9686,"station_count":1,"line_count":1,"population_density":517.5495,"poi_density":0.0,"poi_diversity":0.0,"gdp_density":3206.8315,"P":517.5495,"I":0.0,"G":3206.8315},{"stationName":"上海蟠祥路(地铁站)","station_id":"上海蟠祥路(地铁站)_31.18406_121.28299","lineId":"上海地铁2号线","lat":31.1840645,"lon":121.28298674,"area_km2":1.6661,"D":0.1239,"C":0.5292,"T":0.029,"U1":0.0536,"U2":0.0044,"couplingDegree":0.1239,"level":"极度失调","road_density":21.8203,"walk_accessibility":0.334,"metro_line_density":3.1707,"station_count":1,"line_count":1,"population_density":715.4501,"poi_density":0.0,"poi_diversity":0.0,"gdp_density":0.0,"P":715.4501,"I":0.0,"G":0.0},{"stationName":"上海石龙路(地铁站)","station_id":"上海石龙路(地铁站)_31.15986_121.43860","lineId":"上海地铁3号线","lat":31.159856395,"lon":121.43860487,"area_km2":1.434,"D":0.6332,"C":0.9966,"T":0.4023,"U1":0.369,"U2":0.4357,"couplingDegree":0.6332,"level":"良好协调","road_density":18.6084,"walk_accessibility":0.2875,"metro_line_density":4.9467,"station_count":2,"line_count":3,"population_density":6094.6787,"poi_density":0.0,"poi_diversity":0.0,"gdp_density":19912.5943,"P":6094.6787,"I":0.0,"G":19912.5943},{"stationName":"上海龙漕路(地铁站)","station_id":"上海龙漕路(地铁站)_31.17136_121.43978","lineId":"上海地铁3号线","lat":31.17136246,"lon":121.43978352,"area_km2":2.0729,"D":0.6695,"C":0.9993,"T":0.4485,"U1":0.4321,"U2":0.4649,"couplingDegree":0.6695,"level":"良好协调","road_density":22.0931,"walk_accessibility":0.4156,"metro_line_density":6.8827,"station_count":3,"line_count":2,"population_density":30889.0724,"poi_density":0.0,"poi_diversity":0.0,"gdp_density":13756.6808,"P":30889.0724,"I":0.0,"G":13756.6808},{"stationName":"上海漕溪路(地铁站)","station_id":"上海漕溪路(地铁站)_31.17864_121.43380","lineId":"上海地铁3号线","lat":31.17863651,"lon":121.43379847,"area_km2":1.9684,"D":0.7442,"C":0.9776,"T":0.5666,"U1":0.6859,"U2":0.4473,"couplingDegree":0.7442,"level":"良好协调","road_density":28.7905,"walk_accessibility":0.3947,"metro_line_density":9.3366,"station_count":4,"line_count":3,"population_density":25637.4943,"poi_density":0.0,"poi_diversity":0.0,"gdp_density":14486.9711,"P":25637.4943,"I":0.0,"G":14486.9711},{"stationName":"上海宜山路(地铁站)","station_id":"上海宜山路(地铁站)_31.18788_121.42264","lineId":"上海地铁3号线 / 上海地铁4号线 / 上海地铁9号线","lat":31.1878847,"lon":121.42264432,"area_km2":2.5916,"D":0.6238,"C":0.9467,"T":0.411,"U1":0.5434,"U2":0.2786,"couplingDegree":0.6238,"level":"良好协调","road_density":26.941,"walk_accessibility":0.5196,"metro_line_density":7.1891,"station_count":2,"line_count":4,"population_density":45333.7962,"poi_density":0.0,"poi_diversity":0.0,"gdp_density":0.0,"P":45333.7962,"I":0.0,"G":0.0},{"stationName":"上海虹桥路(地铁站)","station_id":"上海虹桥路(地铁站)_31.19894_121.41700","lineId":"上海地铁10号线 / 上海地铁3号线 / 上海地铁4号线","lat":31.19893825,"lon":121.4169995475,"area_km2":3.1907,"D":0.6206,"C":0.9848,"T":0.3911,"U1":0.3232,"U2":0.459,"couplingDegree":0.6206,"level":"良好协调","road_density":25.1448,"walk_accessibility":0.6397,"metro_line_density":5.3623,"station_count":1,"line_count":3,"population_density":45570.4175,"poi_density":0.0,"poi_diversity":0.0,"gdp_density":8949.5477,"P":45570.4175,"I":0.0,"G":8949.5477},{"stationName":"上海延安西路(地铁站)","station_id":"上海延安西路(地铁站)_31.21147_121.41242","lineId":"上海地铁3号线","lat":31.21146575,"lon":121.41241925,"area_km2":3.3431,"D":0.6731,"C":0.9716,"T":0.4663,"U1":0.356,"U2":0.5767,"couplingDegree":0.6731,"level":"良好协调","road_density":30.6086,"walk_accessibility":0.6703,"metro_line_density":4.1026,"station_count":2,"line_count":2,"population_density":66045.9305,"poi_density":0.0,"poi_diversity":0.0,"gdp_density":8541.8256,"P":66045.9305,"I":0.0,"G":8541.8256},{"stationName":"上海金沙江路(地铁站)","station_id":"上海金沙江路(地铁站)_31.23350_121.40783","lineId":"上海地铁13号线 / 上海地铁3号线","lat":31.233497315,"lon":121.40783292,"area_km2":3.008,"D":0.6963,"C":0.9942,"T":0.4877,"U1":0.54,"U2":0.4354,"couplingDegree":0.6963,"level":"良好协调","road_density":26.2215,"walk_accessibility":0.6031,"metro_line_density":5.2156,"station_count":2,"line_count":4,"population_density":40010.7985,"poi_density":0.0,"poi_diversity":0.0,"gdp_density":9478.7243,"P":40010.7985,"I":0.0,"G":9478.7243},{"stationName":"上海曹杨路(地铁站)","station_id":"上海曹杨路(地铁站)_31.24092_121.41402","lineId":"上海地铁11号线 / 上海地铁14号线 / 上海地铁3号线","lat":31.24092087,"lon":121.414017685,"area_km2":2.4253,"D":0.7355,"C":1.0,"T":0.541,"U1":0.5462,"U2":0.5358,"couplingDegree":0.7355,"level":"良好协调","road_density":27.2683,"walk_accessibility":0.4863,"metro_line_density":8.1738,"station_count":2,"line_count":4,"population_density":48929.7312,"poi_density":0.0,"poi_diversity":0.0,"gdp_density":11756.152,"P":48929.7312,"I":0.0,"G":11756.152},{"stationName":"上海镇坪路(地铁站)","station_id":"上海镇坪路(地铁站)_31.24841_121.42610","lineId":"上海地铁3号线 / 上海地铁7号线","lat":31.248411654999998,"lon":121.42609662999999,"area_km2":2.6791,"D":0.5289,"C":0.9627,"T":0.2906,"U1":0.212,"U2":0.3693,"couplingDegree":0.5289,"level":"勉强协调","road_density":24.3518,"walk_accessibility":0.5371,"metro_line_density":6.2364,"station_count":1,"line_count":2,"population_density":60095.8002,"poi_density":0.0,"poi_diversity":0.0,"gdp_density":0.0,"P":60095.8002,"I":0.0,"G":0.0},{"stationName":"上海中潭路(地铁站)","station_id":"上海中潭路(地铁站)_31.25643_121.43639","lineId":"上海地铁3号线","lat":31.25642627,"lon":121.43638781,"area_km2":2.4935,"D":0.4855,"C":0.7346,"T":0.3209,"U1":0.1032,"U2":0.5387,"couplingDegree":0.4855,"level":"勉强协调","road_density":27.3354,"walk_accessibility":0.4999,"metro_line_density":4.409,"station_count":1,"line_count":1,"population_density":50516.5883,"poi_density":0.0,"poi_diversity":0.0,"gdp_density":11412.0607,"P":50516.5883,"I":0.0,"G":11412.0607},{"stationName":"上海宝山路(地铁站)","station_id":"上海宝山路(地铁站)_31.25346_121.47178","lineId":"上海地铁3号线","lat":31.25346217,"lon":121.47178086,"area_km2":2.6428,"D":0.5723,"C":0.9094,"T":0.3602,"U1":0.2104,"U2":0.51,"couplingDegree":0.5723,"level":"勉强协调","road_density":21.1024,"walk_accessibility":0.5299,"metro_line_density":4.6083,"station_count":2,"line_count":1,"population_density":48126.9144,"poi_density":0.0,"poi_diversity":0.0,"gdp_density":10711.3359,"P":48126.9144,"I":0.0,"G":10711.3359},{"stationName":"上海东宝兴路(地铁站)","station_id":"上海东宝兴路(地铁站)_31.26183_121.47570","lineId":"上海地铁3号线","lat":31.26183279,"lon":121.47569748,"area_km2":3.1459,"D":0.651,"C":0.9985,"T":0.4245,"U1":0.4477,"U2":0.4013,"couplingDegree":0.651,"level":"良好协调","road_density":20.2161,"walk_accessibility":0.6308,"metro_line_density":5.3534,"station_count":3,"line_count":2,"population_density":36016.476,"poi_density":0.0,"poi_diversity":0.0,"gdp_density":8998.2968,"P":36016.476,"I":0.0,"G":8998.2968},{"stationName":"上海虹口足球场(地铁站)","station_id":"上海虹口足球场(地铁站)_31.27283_121.47470","lineId":"上海地铁3号线 / 上海地铁8号线","lat":31.272831903333337,"lon":121.47470314666667,"area_km2":2.9026,"D":0.6904,"C":0.9994,"T":0.4769,"U1":0.4605,"U2":0.4934,"couplingDegree":0.6904,"level":"良好协调","road_density":25.0696,"walk_accessibility":0.582,"metro_line_density":6.1434,"station_count":3,"line_count":2,"population_density":48573.6316,"poi_density":0.0,"poi_diversity":0.0,"gdp_density":9744.4502,"P":48573.6316,"I":0.0,"G":9744.4502},{"stationName":"上海赤峰路(地铁站)","station_id":"上海赤峰路(地铁站)_31.28319_121.47793","lineId":"上海地铁3号线","lat":31.28319225,"lon":121.47793119,"area_km2":3.29,"D":0.6625,"C":0.9957,"T":0.4408,"U1":0.4816,"U2":0.4,"couplingDegree":0.6625,"level":"良好协调","road_density":32.7444,"walk_accessibility":0.6596,"metro_line_density":4.1796,"station_count":3,"line_count":2,"population_density":37107.2529,"poi_density":0.0,"poi_diversity":0.0,"gdp_density":8597.1568,"P":37107.2529,"I":0.0,"G":8597.1568},{"stationName":"上海大柏树(地铁站)","station_id":"上海大柏树(地铁站)_31.29138_121.47872","lineId":"上海地铁3号线","lat":31.29137698,"lon":121.47871962,"area_km2":2.4501,"D":0.5819,"C":0.9366,"T":0.3615,"U1":0.2349,"U2":0.4881,"couplingDegree":0.5819,"level":"勉强协调","road_density":34.1026,"walk_accessibility":0.4912,"metro_line_density":3.3025,"station_count":2,"line_count":1,"population_density":41823.3001,"poi_density":0.0,"poi_diversity":0.0,"gdp_density":11555.8089,"P":41823.3001,"I":0.0,"G":11555.8089},{"stationName":"上海江湾镇(地铁站)","station_id":"上海江湾镇(地铁站)_31.30873_121.48060","lineId":"上海地铁20号线 / 上海地铁3号线","lat":31.308728435,"lon":121.480602725,"area_km2":1.8997,"D":0.3407,"C":0.9049,"T":0.1283,"U1":0.1829,"U2":0.0737,"couplingDegree":0.3407,"level":"中度失调","road_density":24.3637,"walk_accessibility":0.3809,"metro_line_density":5.3492,"station_count":1,"line_count":2,"population_density":11992.3078,"poi_density":0.0,"poi_diversity":0.0,"gdp_density":0.0,"P":11992.3078,"I":0.0,"G":0.0},{"stationName":"上海殷高西路(地铁站)","station_id":"上海殷高西路(地铁站)_31.32194_121.48036","lineId":"上海地铁3号线","lat":31.32194102,"lon":121.48036209,"area_km2":1.8166,"D":0.0001,"C":0.0,"T":0.0386,"U1":0.0772,"U2":0.0,"couplingDegree":0.0001,"level":"极度失调","road_density":27.2187,"walk_accessibility":0.3642,"metro_line_density":3.5955,"station_count":1,"line_count":1,"population_density":0.0,"poi_density":0.0,"poi_diversity":0.0,"gdp_density":0.0,"P":0.0,"I":0.0,"G":0.0},{"stationName":"上海长江南路(地铁站)","station_id":"上海长江南路(地铁站)_31.33386_121.48603","lineId":"上海地铁18号线 / 上海地铁3号线","lat":31.33385695,"lon":121.48602720000001,"area_km2":1.454,"D":0.3338,"C":0.8724,"T":0.1277,"U1":0.1902,"U2":0.0653,"couplingDegree":0.3338,"level":"中度失调","road_density":26.6361,"walk_accessibility":0.2915,"metro_line_density":7.3406,"station_count":1,"line_count":2,"population_density":10625.8245,"poi_density":0.0,"poi_diversity":0.0,"gdp_density":0.0,"P":10625.8245,"I":0.0,"G":0.0},{"stationName":"上海淞发路(地铁站)","station_id":"上海淞发路(地铁站)_31.34711_121.49595","lineId":"上海地铁3号线","lat":31.34710814,"lon":121.49595013,"area_km2":2.0762,"D":0.394,"C":0.8012,"T":0.1937,"U1":0.0778,"U2":0.3096,"couplingDegree":0.394,"level":"中度失调","road_density":26.8095,"walk_accessibility":0.4163,"metro_line_density":2.74,"station_count":1,"line_count":1,"population_density":6436.7564,"poi_density":0.0,"poi_diversity":0.0,"gdp_density":13504.3496,"P":6436.7564,"I":0.0,"G":13504.3496},{"stationName":"上海张华浜(地铁站)","station_id":"上海张华浜(地铁站)_31.35998_121.49422","lineId":"上海地铁3号线","lat":31.35997956,"lon":121.4942232,"area_km2":1.2524,"D":0.4231,"C":0.6893,"T":0.2596,"U1":0.0715,"U2":0.4477,"couplingDegree":0.4231,"level":"勉强协调","road_density":28.8967,"walk_accessibility":0.2511,"metro_line_density":4.4628,"station_count":1,"line_count":1,"population_density":0.0,"poi_density":0.0,"poi_diversity":0.0,"gdp_density":22387.4426,"P":0.0,"I":0.0,"G":22387.4426},{"stationName":"上海淞滨路(地铁站)","station_id":"上海淞滨路(地铁站)_31.37287_121.48835","lineId":"上海地铁3号线","lat":31.37287018,"lon":121.48834979,"area_km2":1.6219,"D":0.4856,"C":0.9761,"T":0.2416,"U1":0.189,"U2":0.2941,"couplingDegree":0.4856,"level":"勉强协调","road_density":26.9182,"walk_accessibility":0.3252,"metro_line_density":3.3413,"station_count":2,"line_count":1,"population_density":10248.5887,"poi_density":0.0,"poi_diversity":0.0,"gdp_density":11554.9295,"P":10248.5887,"I":0.0,"G":11554.9295},{"stationName":"上海水产路(地铁站)","station_id":"上海水产路(地铁站)_31.38323_121.48376","lineId":"上海地铁3号线","lat":31.38322778,"lon":121.48376147,"area_km2":1.0764,"D":0.0002,"C":0.0,"T":0.094,"U1":0.188,"U2":0.0,"couplingDegree":0.0002,"level":"极度失调","road_density":27.4228,"walk_accessibility":0.2158,"metro_line_density":5.3176,"station_count":2,"line_count":1,"population_density":0.0,"poi_density":0.0,"poi_diversity":0.0,"gdp_density":0.0,"P":0.0,"I":0.0,"G":0.0},{"stationName":"上海宝杨路(地铁站)","station_id":"上海宝杨路(地铁站)_31.39721_121.47506","lineId":"上海地铁3号线","lat":31.39721093,"lon":121.47505543,"area_km2":1.3211,"D":0.3955,"C":0.9901,"T":0.158,"U1":0.1801,"U2":0.1359,"couplingDegree":0.3955,"level":"中度失调","road_density":24.539,"walk_accessibility":0.2649,"metro_line_density":4.3831,"station_count":2,"line_count":1,"population_density":22109.4675,"poi_density":0.0,"poi_diversity":0.0,"gdp_density":0.0,"P":22109.4675,"I":0.0,"G":0.0},{"stationName":"上海友谊路(地铁站)","station_id":"上海友谊路(地铁站)_31.40590_121.47139","lineId":"上海地铁3号线","lat":31.40589946,"lon":121.47139412,"area_km2":1.4863,"D":0.3285,"C":0.8863,"T":0.1218,"U1":0.1782,"U2":0.0654,"couplingDegree":0.3285,"level":"中度失调","road_density":23.7229,"walk_accessibility":0.298,"metro_line_density":3.7479,"station_count":2,"line_count":1,"population_density":10639.814,"poi_density":0.0,"poi_diversity":0.0,"gdp_density":0.0,"P":10639.814,"I":0.0,"G":0.0},{"stationName":"上海铁力路(地铁站)","station_id":"上海铁力路(地铁站)_31.40996_121.45656","lineId":"上海地铁3号线","lat":31.409964685,"lon":121.456561565,"area_km2":1.6037,"D":0.405,"C":0.7141,"T":0.2297,"U1":0.0689,"U2":0.3905,"couplingDegree":0.405,"level":"勉强协调","road_density":26.6508,"walk_accessibility":0.3215,"metro_line_density":3.5484,"station_count":1,"line_count":1,"population_density":6810.9187,"poi_density":0.0,"poi_diversity":0.0,"gdp_density":17433.9637,"P":6810.9187,"I":0.0,"G":17433.9637},{"stationName":"上海江杨北路(地铁站)","station_id":"上海江杨北路(地铁站)_31.40966_121.43519","lineId":"上海地铁3号线","lat":31.40965845,"lon":121.43519049,"area_km2":1.5497,"D":0.1364,"C":0.783,"T":0.0238,"U1":0.0385,"U2":0.009,"couplingDegree":0.1364,"level":"极度失调","road_density":24.9956,"walk_accessibility":0.3107,"metro_line_density":0.0789,"station_count":1,"line_count":1,"population_density":1460.9194,"poi_density":0.0,"poi_diversity":0.0,"gdp_density":0.0,"P":1460.9194,"I":0.0,"G":0.0}]}