{"cityCode":"310000","year":2008,"stations":[{"stationName":"上海富锦路(地铁站)","station_id":"上海富锦路(地铁站)_31.39404_121.42001","lineId":"上海地铁1号线","lat":31.39404489,"lon":121.42000867499999,"area_km2":2.0533,"D":0.4106,"C":0.9972,"T":0.1691,"U1":0.1563,"U2":0.1818,"couplingDegree":0.4106,"level":"勉强协调","road_density":31.6805,"walk_accessibility":0.4117,"metro_line_density":1.4156,"station_count":2,"line_count":1,"population_density":393.0181,"poi_density":0.0,"poi_diversity":0.0,"gdp_density":6315.5072,"P":393.0181,"I":0.0,"G":6315.5072},{"stationName":"上海友谊西路(地铁站)","station_id":"上海友谊西路(地铁站)_31.38309_121.42331","lineId":"上海地铁1号线","lat":31.38308783,"lon":121.42330572,"area_km2":1.188,"D":0.2405,"C":0.6841,"T":0.0846,"U1":0.1463,"U2":0.0229,"couplingDegree":0.2405,"level":"中度失调","road_density":28.6859,"walk_accessibility":0.2382,"metro_line_density":4.7423,"station_count":2,"line_count":1,"population_density":4961.0872,"poi_density":0.0,"poi_diversity":0.0,"gdp_density":0.0,"P":4961.0872,"I":0.0,"G":0.0},{"stationName":"上海宝安公路(地铁站)","station_id":"上海宝安公路(地铁站)_31.37135_121.42627","lineId":"上海地铁1号线","lat":31.37135416,"lon":121.42627176,"area_km2":1.2393,"D":0.1778,"C":0.8606,"T":0.0368,"U1":0.0555,"U2":0.018,"couplingDegree":0.1778,"level":"极度失调","road_density":20.7865,"walk_accessibility":0.2485,"metro_line_density":4.6309,"station_count":1,"line_count":1,"population_density":3908.5468,"poi_density":0.0,"poi_diversity":0.0,"gdp_density":0.0,"P":3908.5468,"I":0.0,"G":0.0},{"stationName":"上海共富新村(地铁站)","station_id":"上海共富新村(地铁站)_31.35689_121.42943","lineId":"上海地铁1号线","lat":31.35688994,"lon":121.42942848,"area_km2":1.4132,"D":0.2211,"C":0.9228,"T":0.053,"U1":0.0734,"U2":0.0326,"couplingDegree":0.2211,"level":"中度失调","road_density":26.9439,"walk_accessibility":0.2834,"metro_line_density":4.0267,"station_count":1,"line_count":1,"population_density":7061.0757,"poi_density":0.0,"poi_diversity":0.0,"gdp_density":0.0,"P":7061.0757,"I":0.0,"G":0.0},{"stationName":"上海呼兰路(地铁站)","station_id":"上海呼兰路(地铁站)_31.34153_121.43226","lineId":"上海地铁18号线 / 上海地铁1号线","lat":31.34152552666667,"lon":121.43226472666667,"area_km2":1.7114,"D":0.517,"C":0.9877,"T":0.2706,"U1":0.2284,"U2":0.3129,"couplingDegree":0.517,"level":"勉强协调","road_density":20.7949,"walk_accessibility":0.3431,"metro_line_density":5.797,"station_count":2,"line_count":2,"population_density":13246.2738,"poi_density":0.0,"poi_diversity":0.0,"gdp_density":8835.0243,"P":13246.2738,"I":0.0,"G":8835.0243},{"stationName":"上海通河新村(地铁站)","station_id":"上海通河新村(地铁站)_31.33296_121.43693","lineId":"上海地铁1号线","lat":31.33295683,"lon":121.43692739,"area_km2":1.6916,"D":0.5051,"C":0.9873,"T":0.2584,"U1":0.2174,"U2":0.2994,"couplingDegree":0.5051,"level":"勉强协调","road_density":21.5739,"walk_accessibility":0.3392,"metro_line_density":3.7826,"station_count":2,"line_count":2,"population_density":9691.2993,"poi_density":0.0,"poi_diversity":0.0,"gdp_density":8938.4583,"P":9691.2993,"I":0.0,"G":8938.4583},{"stationName":"上海共康路(地铁站)","station_id":"上海共康路(地铁站)_31.32078_121.44246","lineId":"上海地铁1号线","lat":31.32077824,"lon":121.44245648,"area_km2":1.3298,"D":0.2278,"C":0.9869,"T":0.0526,"U1":0.0611,"U2":0.0441,"couplingDegree":0.2278,"level":"中度失调","road_density":22.4955,"walk_accessibility":0.2666,"metro_line_density":4.3892,"station_count":1,"line_count":1,"population_density":9563.1942,"poi_density":0.0,"poi_diversity":0.0,"gdp_density":0.0,"P":9563.1942,"I":0.0,"G":0.0},{"stationName":"上海彭浦新村(地铁站)","station_id":"上海彭浦新村(地铁站)_31.30845_121.44404","lineId":"上海地铁1号线","lat":31.30845444,"lon":121.44404066,"area_km2":1.8545,"D":0.2407,"C":0.9804,"T":0.0591,"U1":0.0708,"U2":0.0475,"couplingDegree":0.2407,"level":"中度失调","road_density":23.8212,"walk_accessibility":0.3718,"metro_line_density":3.1529,"station_count":1,"line_count":1,"population_density":10285.1027,"poi_density":0.0,"poi_diversity":0.0,"gdp_density":0.0,"P":10285.1027,"I":0.0,"G":0.0},{"stationName":"上海汶水路(地铁站)","station_id":"上海汶水路(地铁站)_31.29442_121.44566","lineId":"上海地铁1号线","lat":31.294415684999997,"lon":121.445655105,"area_km2":2.4114,"D":0.4079,"C":0.8931,"T":0.1863,"U1":0.1025,"U2":0.2702,"couplingDegree":0.4079,"level":"勉强协调","road_density":31.8277,"walk_accessibility":0.4835,"metro_line_density":2.3334,"station_count":1,"line_count":1,"population_density":19779.8014,"poi_density":0.0,"poi_diversity":0.0,"gdp_density":6277.7479,"P":19779.8014,"I":0.0,"G":6277.7479},{"stationName":"上海上海马戏城(地铁站)","station_id":"上海上海马戏城(地铁站)_31.28150_121.44747","lineId":"上海地铁1号线 / 上海地铁20号线","lat":31.281495435,"lon":121.44747032999999,"area_km2":2.2037,"D":0.3988,"C":0.9174,"T":0.1734,"U1":0.2424,"U2":0.1044,"couplingDegree":0.3988,"level":"中度失调","road_density":24.6408,"walk_accessibility":0.4418,"metro_line_density":4.2661,"station_count":2,"line_count":2,"population_density":22625.2133,"poi_density":0.0,"poi_diversity":0.0,"gdp_density":0.0,"P":22625.2133,"I":0.0,"G":0.0},{"stationName":"上海延长路(地铁站)","station_id":"上海延长路(地铁站)_31.27355_121.45075","lineId":"上海地铁1号线","lat":31.27355265,"lon":121.45074729,"area_km2":2.2407,"D":0.554,"C":0.963,"T":0.3187,"U1":0.2328,"U2":0.4047,"couplingDegree":0.554,"level":"勉强协调","road_density":23.0699,"walk_accessibility":0.4492,"metro_line_density":3.2934,"station_count":2,"line_count":2,"population_density":45871.4721,"poi_density":0.0,"poi_diversity":0.0,"gdp_density":6773.1338,"P":45871.4721,"I":0.0,"G":6773.1338},{"stationName":"上海中山北路(地铁站)","station_id":"上海中山北路(地铁站)_31.26078_121.45463","lineId":"上海地铁1号线","lat":31.26078422,"lon":121.45463391,"area_km2":2.4942,"D":0.7351,"C":0.9924,"T":0.5445,"U1":0.4774,"U2":0.6116,"couplingDegree":0.7351,"level":"良好协调","road_density":28.4711,"walk_accessibility":0.5001,"metro_line_density":3.345,"station_count":4,"line_count":3,"population_density":94962.8966,"poi_density":0.0,"poi_diversity":0.0,"gdp_density":6087.4625,"P":94962.8966,"I":0.0,"G":6087.4625},{"stationName":"上海上海火车站(地铁站)","station_id":"上海上海火车站(地铁站)_31.24994_121.45186","lineId":"上海地铁1号线 / 上海地铁3号线","lat":31.249938473333334,"lon":121.45185925666665,"area_km2":2.6664,"D":0.6876,"C":0.9975,"T":0.4739,"U1":0.4406,"U2":0.5073,"couplingDegree":0.6876,"level":"良好协调","road_density":33.3555,"walk_accessibility":0.5346,"metro_line_density":5.6336,"station_count":3,"line_count":3,"population_density":74784.6969,"poi_density":0.0,"poi_diversity":0.0,"gdp_density":5694.1782,"P":74784.6969,"I":0.0,"G":5694.1782},{"stationName":"上海汉中路(地铁站)","station_id":"上海汉中路(地铁站)_31.24314_121.45424","lineId":"上海地铁13号线 / 上海地铁1号线","lat":31.24313625,"lon":121.454244305,"area_km2":3.0643,"D":0.6341,"C":0.9365,"T":0.4294,"U1":0.58,"U2":0.2787,"couplingDegree":0.6341,"level":"良好协调","road_density":31.0079,"walk_accessibility":0.6144,"metro_line_density":2.8236,"station_count":4,"line_count":4,"population_density":60416.8145,"poi_density":0.0,"poi_diversity":0.0,"gdp_density":0.0,"P":60416.8145,"I":0.0,"G":0.0},{"stationName":"上海新闸路(地铁站)","station_id":"上海新闸路(地铁站)_31.24030_121.46361","lineId":"上海地铁1号线","lat":31.24029698,"lon":121.46360999,"area_km2":3.6056,"D":0.5895,"C":0.8163,"T":0.4257,"U1":0.6717,"U2":0.1798,"couplingDegree":0.5895,"level":"勉强协调","road_density":31.3025,"walk_accessibility":0.7229,"metro_line_density":3.9865,"station_count":5,"line_count":4,"population_density":38972.9226,"poi_density":0.0,"poi_diversity":0.0,"gdp_density":0.0,"P":38972.9226,"I":0.0,"G":0.0},{"stationName":"上海人民广场(地铁站)","station_id":"上海人民广场(地铁站)_31.23485_121.46990","lineId":"上海地铁1号线 / 上海地铁2号线 / 上海地铁8号线","lat":31.234849183333335,"lon":121.46989588999999,"area_km2":3.6983,"D":0.7305,"C":0.9062,"T":0.5889,"U1":0.838,"U2":0.3399,"couplingDegree":0.7305,"level":"良好协调","road_density":33.0418,"walk_accessibility":0.7415,"metro_line_density":4.913,"station_count":6,"line_count":5,"population_density":48343.4638,"poi_density":0.0,"poi_diversity":0.0,"gdp_density":4100.8304,"P":48343.4638,"I":0.0,"G":4100.8304},{"stationName":"上海一大会址·黄陂南路(地铁站)","station_id":"上海一大会址·黄陂南路(地铁站)_31.22513_121.46825","lineId":"上海地铁14号线 / 上海地铁1号线","lat":31.225133919999998,"lon":121.468253215,"area_km2":3.8548,"D":0.6495,"C":0.88,"T":0.4794,"U1":0.7072,"U2":0.2517,"couplingDegree":0.6495,"level":"良好协调","road_density":32.6645,"walk_accessibility":0.7729,"metro_line_density":5.6979,"station_count":4,"line_count":5,"population_density":54548.2394,"poi_density":0.0,"poi_diversity":0.0,"gdp_density":0.0,"P":54548.2394,"I":0.0,"G":0.0},{"stationName":"上海陕西南路(地铁站)","station_id":"上海陕西南路(地铁站)_31.21810_121.45478","lineId":"上海地铁10号线 / 上海地铁1号线","lat":31.21810256,"lon":121.454784855,"area_km2":3.1202,"D":0.5324,"C":0.9775,"T":0.29,"U1":0.3512,"U2":0.2288,"couplingDegree":0.5324,"level":"勉强协调","road_density":22.7303,"walk_accessibility":0.6256,"metro_line_density":5.2781,"station_count":2,"line_count":3,"population_density":19492.8646,"poi_density":0.0,"poi_diversity":0.0,"gdp_density":4872.4683,"P":19492.8646,"I":0.0,"G":4872.4683},{"stationName":"上海常熟路(地铁站)","station_id":"上海常熟路(地铁站)_31.21535_121.44550","lineId":"上海地铁1号线 / 上海地铁7号线","lat":31.21534568,"lon":121.44550402499999,"area_km2":3.0427,"D":0.7803,"C":0.9972,"T":0.6106,"U1":0.6564,"U2":0.5648,"couplingDegree":0.7803,"level":"良好协调","road_density":20.8342,"walk_accessibility":0.6101,"metro_line_density":6.2526,"station_count":4,"line_count":5,"population_density":60614.8917,"poi_density":0.0,"poi_diversity":0.0,"gdp_density":10004.6587,"P":60614.8917,"I":0.0,"G":10004.6587},{"stationName":"上海衡山路(地铁站)","station_id":"上海衡山路(地铁站)_31.20642_121.44183","lineId":"上海地铁1号线","lat":31.20641737,"lon":121.44182586,"area_km2":2.9236,"D":0.5762,"C":0.9763,"T":0.3401,"U1":0.4137,"U2":0.2665,"couplingDegree":0.5762,"level":"勉强协调","road_density":19.5005,"walk_accessibility":0.5862,"metro_line_density":6.4337,"station_count":3,"line_count":3,"population_density":57763.8052,"poi_density":0.0,"poi_diversity":0.0,"gdp_density":0.0,"P":57763.8052,"I":0.0,"G":0.0},{"stationName":"上海徐家汇(地铁站)","station_id":"上海徐家汇(地铁站)_31.19576_121.43236","lineId":"上海地铁11号线 / 上海地铁1号线 / 上海地铁9号线","lat":31.19576220333333,"lon":121.43235650333334,"area_km2":2.9778,"D":0.6545,"C":0.9826,"T":0.4359,"U1":0.5168,"U2":0.355,"couplingDegree":0.6545,"level":"良好协调","road_density":22.6277,"walk_accessibility":0.597,"metro_line_density":5.6079,"station_count":2,"line_count":5,"population_density":45294.26,"poi_density":0.0,"poi_diversity":0.0,"gdp_density":5123.2749,"P":45294.26,"I":0.0,"G":5123.2749},{"stationName":"上海上海体育馆(地铁站)","station_id":"上海上海体育馆(地铁站)_31.18429_121.43223","lineId":"上海地铁1号线 / 上海地铁4号线","lat":31.18429184,"lon":121.43223302,"area_km2":2.523,"D":0.6376,"C":0.886,"T":0.4588,"U1":0.6715,"U2":0.2461,"couplingDegree":0.6376,"level":"良好协调","road_density":25.1698,"walk_accessibility":0.5058,"metro_line_density":8.8936,"station_count":4,"line_count":5,"population_density":53333.0536,"poi_density":0.0,"poi_diversity":0.0,"gdp_density":0.0,"P":53333.0536,"I":0.0,"G":0.0},{"stationName":"上海漕宝路(地铁站)","station_id":"上海漕宝路(地铁站)_31.17012_121.43008","lineId":"上海地铁1号线","lat":31.17011773,"lon":121.43008327,"area_km2":1.8959,"D":0.5278,"C":0.9962,"T":0.2796,"U1":0.304,"U2":0.2553,"couplingDegree":0.5278,"level":"勉强协调","road_density":24.9072,"walk_accessibility":0.3801,"metro_line_density":4.1904,"station_count":3,"line_count":2,"population_density":5607.7816,"poi_density":0.0,"poi_diversity":0.0,"gdp_density":8050.1493,"P":5607.7816,"I":0.0,"G":8050.1493},{"stationName":"上海上海南站(地铁站)","station_id":"上海上海南站(地铁站)_31.15635_121.42606","lineId":"上海地铁15号线 / 上海地铁1号线 / 上海地铁3号线","lat":31.156352245,"lon":121.42606245,"area_km2":1.9356,"D":0.3149,"C":0.5388,"T":0.1841,"U1":0.3391,"U2":0.029,"couplingDegree":0.3149,"level":"中度失调","road_density":31.4808,"walk_accessibility":0.3881,"metro_line_density":4.4154,"station_count":2,"line_count":3,"population_density":6285.4286,"poi_density":0.0,"poi_diversity":0.0,"gdp_density":0.0,"P":6285.4286,"I":0.0,"G":0.0},{"stationName":"上海锦江乐园(地铁站)","station_id":"上海锦江乐园(地铁站)_31.14410_121.40947","lineId":"上海地铁1号线","lat":31.14409852,"lon":121.40946646,"area_km2":1.5731,"D":0.1665,"C":0.6538,"T":0.0424,"U1":0.0745,"U2":0.0103,"couplingDegree":0.1665,"level":"极度失调","road_density":30.945,"walk_accessibility":0.3154,"metro_line_density":1.7564,"station_count":1,"line_count":1,"population_density":2235.6802,"poi_density":0.0,"poi_diversity":0.0,"gdp_density":0.0,"P":2235.6802,"I":0.0,"G":0.0},{"stationName":"上海莲花路(地铁站)","station_id":"上海莲花路(地铁站)_31.13279_121.39827","lineId":"上海地铁1号线","lat":31.132785175000002,"lon":121.39826690000001,"area_km2":2.0028,"D":0.3726,"C":0.8048,"T":0.1725,"U1":0.0701,"U2":0.2749,"couplingDegree":0.3726,"level":"中度失调","road_density":26.7181,"walk_accessibility":0.4016,"metro_line_density":1.1499,"station_count":1,"line_count":1,"population_density":3416.6709,"poi_density":0.0,"poi_diversity":0.0,"gdp_density":9092.3973,"P":3416.6709,"I":0.0,"G":9092.3973},{"stationName":"上海外环路(地铁站)","station_id":"上海外环路(地铁站)_31.12279_121.38838","lineId":"上海地铁1号线","lat":31.12279218,"lon":121.38838039,"area_km2":2.444,"D":0.1895,"C":0.6431,"T":0.0559,"U1":0.0987,"U2":0.0131,"couplingDegree":0.1895,"level":"极度失调","road_density":31.9405,"walk_accessibility":0.49,"metro_line_density":1.5335,"station_count":1,"line_count":1,"population_density":2835.9773,"poi_density":0.0,"poi_diversity":0.0,"gdp_density":0.0,"P":2835.9773,"I":0.0,"G":0.0},{"stationName":"上海莘庄(地铁站)","station_id":"上海莘庄(地铁站)_31.11305_121.38074","lineId":"上海地铁1号线","lat":31.11305321,"lon":121.38073913,"area_km2":2.2667,"D":0.3797,"C":0.8758,"T":0.1646,"U1":0.0852,"U2":0.2441,"couplingDegree":0.3797,"level":"中度失调","road_density":24.0807,"walk_accessibility":0.4545,"metro_line_density":3.6097,"station_count":1,"line_count":1,"population_density":3103.6274,"poi_density":0.0,"poi_diversity":0.0,"gdp_density":8062.0773,"P":3103.6274,"I":0.0,"G":8062.0773},{"stationName":"上海虹桥火车站(地铁站)","station_id":"上海虹桥火车站(地铁站)_31.19604_121.31717","lineId":"上海地铁2号线 / 上海地铁示范区线","lat":31.196040484999997,"lon":121.31717220499999,"area_km2":2.0239,"D":0.5417,"C":0.9005,"T":0.3259,"U1":0.4676,"U2":0.1842,"couplingDegree":0.5417,"level":"勉强协调","road_density":44.3455,"walk_accessibility":0.4058,"metro_line_density":5.4505,"station_count":2,"line_count":4,"population_density":1448.1716,"poi_density":0.0,"poi_diversity":0.0,"gdp_density":6228.2455,"P":1448.1716,"I":0.0,"G":6228.2455},{"stationName":"上海虹桥2号航站楼(地铁站)","station_id":"上海虹桥2号航站楼(地铁站)_31.19613_121.32116","lineId":"上海地铁10号线 / 上海地铁2号线 / 上海地铁嘉闵线","lat":31.196134086666664,"lon":121.32115698,"area_km2":1.8675,"D":0.5553,"C":0.9187,"T":0.3357,"U1":0.4683,"U2":0.2031,"couplingDegree":0.5553,"level":"勉强协调","road_density":43.9779,"walk_accessibility":0.3744,"metro_line_density":6.3702,"station_count":2,"line_count":4,"population_density":2326.694,"poi_density":0.0,"poi_diversity":0.0,"gdp_density":6750.1123,"P":2326.694,"I":0.0,"G":6750.1123},{"stationName":"上海淞虹路(地铁站)","station_id":"上海淞虹路(地铁站)_31.22010_121.35493","lineId":"上海地铁2号线","lat":31.22010141,"lon":121.35492751,"area_km2":2.8041,"D":0.3862,"C":0.9037,"T":0.165,"U1":0.0944,"U2":0.2357,"couplingDegree":0.3862,"level":"中度失调","road_density":25.7624,"walk_accessibility":0.5622,"metro_line_density":2.0913,"station_count":1,"line_count":1,"population_density":10686.0036,"poi_density":0.0,"poi_diversity":0.0,"gdp_density":6540.0148,"P":10686.0036,"I":0.0,"G":6540.0148},{"stationName":"上海中山公园(地铁站)","station_id":"上海中山公园(地铁站)_31.22006_121.41225","lineId":"上海地铁2号线 / 上海地铁3号线","lat":31.220058209999998,"lon":121.4122525,"area_km2":2.9313,"D":0.5439,"C":0.999,"T":0.2961,"U1":0.2829,"U2":0.3093,"couplingDegree":0.5439,"level":"勉强协调","road_density":30.2753,"walk_accessibility":0.5877,"metro_line_density":5.1788,"station_count":2,"line_count":2,"population_density":34861.0053,"poi_density":0.0,"poi_diversity":0.0,"gdp_density":5211.0274,"P":34861.0053,"I":0.0,"G":5211.0274},{"stationName":"上海静安寺(地铁站)","station_id":"上海静安寺(地铁站)_31.22463_121.44222","lineId":"上海地铁14号线 / 上海地铁2号线 / 上海地铁7号线","lat":31.22463062,"lon":121.44222156333335,"area_km2":2.9821,"D":0.6308,"C":0.9964,"T":0.3994,"U1":0.4331,"U2":0.3657,"couplingDegree":0.6308,"level":"良好协调","road_density":23.427,"walk_accessibility":0.5979,"metro_line_density":5.2455,"station_count":2,"line_count":4,"population_density":79256.6999,"poi_density":0.0,"poi_diversity":0.0,"gdp_density":0.0,"P":79256.6999,"I":0.0,"G":0.0},{"stationName":"上海世纪大道(地铁站)","station_id":"上海世纪大道(地铁站)_31.23078_121.52288","lineId":"上海地铁2号线","lat":31.23078121,"lon":121.522877,"area_km2":3.8492,"D":0.6452,"C":0.7961,"T":0.5229,"U1":0.8394,"U2":0.2064,"couplingDegree":0.6452,"level":"良好协调","road_density":30.6493,"walk_accessibility":0.7718,"metro_line_density":5.5745,"station_count":6,"line_count":5,"population_density":13021.5615,"poi_density":0.0,"poi_diversity":0.0,"gdp_density":5136.178,"P":13021.5615,"I":0.0,"G":5136.178},{"stationName":"上海龙阳路(地铁站)","station_id":"上海龙阳路(地铁站)_31.20426_121.55296","lineId":"上海地铁16号线 / 上海地铁18号线 / 上海地铁2号线 / 上海地铁7号线","lat":31.204256895999997,"lon":121.55296048,"area_km2":2.1669,"D":0.6027,"C":0.984,"T":0.3692,"U1":0.4349,"U2":0.3034,"couplingDegree":0.6027,"level":"良好协调","road_density":28.0113,"walk_accessibility":0.4345,"metro_line_density":6.8877,"station_count":2,"line_count":4,"population_density":9873.2291,"poi_density":0.0,"poi_diversity":0.0,"gdp_density":9048.8982,"P":9873.2291,"I":0.0,"G":9048.8982},{"stationName":"上海浦东1号2号航站楼(地铁站)","station_id":"上海浦东1号2号航站楼(地铁站)_31.15359_121.80159","lineId":"上海上海市域机场线后通段(浦东1号2号航站楼--上海东站) / 上海地铁2号线","lat":31.153591245,"lon":121.80159420999999,"area_km2":1.1491,"D":0.1992,"C":0.4101,"T":0.0967,"U1":0.1849,"U2":0.0085,"couplingDegree":0.1992,"level":"极度失调","road_density":33.7813,"walk_accessibility":0.2304,"metro_line_density":6.5051,"station_count":1,"line_count":2,"population_density":1844.0081,"poi_density":0.0,"poi_diversity":0.0,"gdp_density":0.0,"P":1844.0081,"I":0.0,"G":0.0},{"stationName":"上海海天三路(地铁站)","station_id":"上海海天三路(地铁站)_31.17054_121.79257","lineId":"上海地铁2号线","lat":31.17054153,"lon":121.79256704,"area_km2":2.3425,"D":0.1244,"C":0.4431,"T":0.0349,"U1":0.0662,"U2":0.0036,"couplingDegree":0.1244,"level":"极度失调","road_density":22.5574,"walk_accessibility":0.4697,"metro_line_density":0.9631,"station_count":1,"line_count":1,"population_density":783.7882,"poi_density":0.0,"poi_diversity":0.0,"gdp_density":0.0,"P":783.7882,"I":0.0,"G":0.0},{"stationName":"上海远东大道(地铁站)","station_id":"上海远东大道(地铁站)_31.20141_121.75093","lineId":"上海地铁2号线","lat":31.20141446,"lon":121.75092969,"area_km2":1.5171,"D":0.2948,"C":0.6466,"T":0.1344,"U1":0.0319,"U2":0.2369,"couplingDegree":0.2948,"level":"中度失调","road_density":18.379,"walk_accessibility":0.3042,"metro_line_density":0.7895,"station_count":1,"line_count":1,"population_density":1475.8524,"poi_density":0.0,"poi_diversity":0.0,"gdp_density":8073.8374,"P":1475.8524,"I":0.0,"G":8073.8374},{"stationName":"上海凌空路(地铁站)","station_id":"上海凌空路(地铁站)_31.19491_121.71973","lineId":"上海地铁2号线","lat":31.19490762,"lon":121.7197285,"area_km2":1.8958,"D":0.3101,"C":0.7619,"T":0.1262,"U1":0.0445,"U2":0.208,"couplingDegree":0.3101,"level":"中度失调","road_density":17.8912,"walk_accessibility":0.3801,"metro_line_density":1.4293,"station_count":1,"line_count":1,"population_density":2422.2294,"poi_density":0.0,"poi_diversity":0.0,"gdp_density":6904.8439,"P":2422.2294,"I":0.0,"G":6904.8439},{"stationName":"上海川沙(地铁站)","station_id":"上海川沙(地铁站)_31.18882_121.69387","lineId":"上海地铁2号线","lat":31.1888237,"lon":121.69387453,"area_km2":2.2367,"D":0.3464,"C":0.7009,"T":0.1712,"U1":0.0491,"U2":0.2932,"couplingDegree":0.3464,"level":"中度失调","road_density":16.8357,"walk_accessibility":0.4485,"metro_line_density":1.2116,"station_count":1,"line_count":1,"population_density":11222.63,"poi_density":0.0,"poi_diversity":0.0,"gdp_density":8472.6752,"P":11222.63,"I":0.0,"G":8472.6752},{"stationName":"上海华夏东路(地铁站)","station_id":"上海华夏东路(地铁站)_31.19868_121.67667","lineId":"上海地铁2号线","lat":31.19868363,"lon":121.67666725,"area_km2":1.6418,"D":0.199,"C":0.9983,"T":0.0397,"U1":0.042,"U2":0.0374,"couplingDegree":0.199,"level":"极度失调","road_density":19.195,"walk_accessibility":0.3292,"metro_line_density":1.518,"station_count":1,"line_count":1,"population_density":8101.4517,"poi_density":0.0,"poi_diversity":0.0,"gdp_density":0.0,"P":8101.4517,"I":0.0,"G":0.0},{"stationName":"上海创新中路(地铁站)","station_id":"上海创新中路(地铁站)_31.21599_121.66942","lineId":"上海地铁2号线","lat":31.21598559,"lon":121.66942139,"area_km2":1.2733,"D":0.0808,"C":0.3444,"T":0.0189,"U1":0.0367,"U2":0.0012,"couplingDegree":0.0808,"level":"极度失调","road_density":20.353,"walk_accessibility":0.2553,"metro_line_density":1.7037,"station_count":1,"line_count":1,"population_density":251.3119,"poi_density":0.0,"poi_diversity":0.0,"gdp_density":0.0,"P":251.3119,"I":0.0,"G":0.0},{"stationName":"上海唐镇(地铁站)","station_id":"上海唐镇(地铁站)_31.21625_121.65201","lineId":"上海地铁2号线","lat":31.21625474,"lon":121.65201072,"area_km2":1.7434,"D":0.3289,"C":0.648,"T":0.1669,"U1":0.0398,"U2":0.294,"couplingDegree":0.3289,"level":"中度失调","road_density":18.5302,"walk_accessibility":0.3495,"metro_line_density":1.0376,"station_count":1,"line_count":1,"population_density":6056.0051,"poi_density":0.0,"poi_diversity":0.0,"gdp_density":9336.3134,"P":6056.0051,"I":0.0,"G":9336.3134},{"stationName":"上海广兰路(地铁站)","station_id":"上海广兰路(地铁站)_31.21325_121.61686","lineId":"上海地铁2号线","lat":31.21324925,"lon":121.61686455,"area_km2":1.9865,"D":0.3778,"C":0.7792,"T":0.1832,"U1":0.0684,"U2":0.298,"couplingDegree":0.3778,"level":"中度失调","road_density":25.4756,"walk_accessibility":0.3983,"metro_line_density":1.4912,"station_count":1,"line_count":1,"population_density":4433.9147,"poi_density":0.0,"poi_diversity":0.0,"gdp_density":9739.8749,"P":4433.9147,"I":0.0,"G":9739.8749},{"stationName":"上海金科路(地铁站)","station_id":"上海金科路(地铁站)_31.20643_121.59779","lineId":"上海地铁2号线","lat":31.20642676,"lon":121.59778968,"area_km2":1.9092,"D":0.2048,"C":0.9917,"T":0.0423,"U1":0.0477,"U2":0.0369,"couplingDegree":0.2048,"level":"中度失调","road_density":18.7748,"walk_accessibility":0.3828,"metro_line_density":1.5023,"station_count":1,"line_count":1,"population_density":7989.7272,"poi_density":0.0,"poi_diversity":0.0,"gdp_density":0.0,"P":7989.7272,"I":0.0,"G":0.0},{"stationName":"上海张江高科(地铁站)","station_id":"上海张江高科(地铁站)_31.20409_121.58329","lineId":"上海地铁2号线","lat":31.20408548,"lon":121.58328664,"area_km2":2.1967,"D":0.2097,"C":0.9733,"T":0.0452,"U1":0.0556,"U2":0.0348,"couplingDegree":0.2097,"level":"中度失调","road_density":19.4865,"walk_accessibility":0.4404,"metro_line_density":1.2367,"station_count":1,"line_count":1,"population_density":7546.379,"poi_density":0.0,"poi_diversity":0.0,"gdp_density":0.0,"P":7546.379,"I":0.0,"G":0.0},{"stationName":"上海世纪公园(地铁站)","station_id":"上海世纪公园(地铁站)_31.21159_121.54665","lineId":"上海地铁2号线","lat":31.21158603,"lon":121.54664538,"area_km2":2.445,"D":0.5977,"C":0.9508,"T":0.3757,"U1":0.4922,"U2":0.2593,"couplingDegree":0.5977,"level":"勉强协调","road_density":27.5647,"walk_accessibility":0.4902,"metro_line_density":4.0049,"station_count":3,"line_count":4,"population_density":6564.8938,"poi_density":0.0,"poi_diversity":0.0,"gdp_density":8036.2789,"P":6564.8938,"I":0.0,"G":8036.2789},{"stationName":"上海上海科技馆(地铁站)","station_id":"上海上海科技馆(地铁站)_31.22097_121.54016","lineId":"上海地铁2号线","lat":31.22096549,"lon":121.54015729,"area_km2":3.2412,"D":0.5783,"C":0.855,"T":0.3912,"U1":0.5941,"U2":0.1883,"couplingDegree":0.5783,"level":"勉强协调","road_density":32.9555,"walk_accessibility":0.6499,"metro_line_density":3.4672,"station_count":4,"line_count":4,"population_density":3283.641,"poi_density":0.0,"poi_diversity":0.0,"gdp_density":6075.4309,"P":3283.641,"I":0.0,"G":6075.4309},{"stationName":"上海浦东南路(原东昌路)(地铁站)","station_id":"上海浦东南路(原东昌路)(地铁站)_31.23533_121.51118","lineId":"上海地铁2号线","lat":31.2353341,"lon":121.5111808,"area_km2":4.2622,"D":0.626,"C":0.8874,"T":0.4416,"U1":0.6452,"U2":0.238,"couplingDegree":0.626,"level":"良好协调","road_density":36.9841,"walk_accessibility":0.8546,"metro_line_density":5.5519,"station_count":4,"line_count":4,"population_density":22943.5184,"poi_density":0.0,"poi_diversity":0.0,"gdp_density":4638.4747,"P":22943.5184,"I":0.0,"G":4638.4747},{"stationName":"上海陆家嘴(地铁站)","station_id":"上海陆家嘴(地铁站)_31.23875_121.49806","lineId":"上海地铁14号线 / 上海地铁2号线","lat":31.238746165000002,"lon":121.49806153,"area_km2":3.0308,"D":0.5111,"C":0.9974,"T":0.2619,"U1":0.2429,"U2":0.2809,"couplingDegree":0.5111,"level":"勉强协调","road_density":42.5232,"walk_accessibility":0.6077,"metro_line_density":4.0086,"station_count":1,"line_count":2,"population_density":20505.2845,"poi_density":0.0,"poi_diversity":0.0,"gdp_density":6537.2712,"P":20505.2845,"I":0.0,"G":6537.2712},{"stationName":"上海南京东路(地铁站)","station_id":"上海南京东路(地铁站)_31.23957_121.47963","lineId":"上海地铁10号线 / 上海地铁2号线","lat":31.23956866,"lon":121.47962986499999,"area_km2":3.7709,"D":0.6538,"C":0.9351,"T":0.4571,"U1":0.6191,"U2":0.2951,"couplingDegree":0.6538,"level":"良好协调","road_density":31.081,"walk_accessibility":0.7561,"metro_line_density":3.7855,"station_count":3,"line_count":5,"population_density":39110.5919,"poi_density":0.0,"poi_diversity":0.0,"gdp_density":4021.8452,"P":39110.5919,"I":0.0,"G":4021.8452},{"stationName":"上海南京西路(地铁站)","station_id":"上海南京西路(地铁站)_31.23112_121.45664","lineId":"上海地铁13号线 / 上海地铁2号线","lat":31.231121675,"lon":121.456641515,"area_km2":3.1486,"D":0.6255,"C":0.9951,"T":0.3932,"U1":0.3542,"U2":0.4323,"couplingDegree":0.6255,"level":"良好协调","road_density":28.6172,"walk_accessibility":0.6313,"metro_line_density":3.0223,"station_count":2,"line_count":3,"population_density":63884.9043,"poi_density":0.0,"poi_diversity":0.0,"gdp_density":4826.6648,"P":63884.9043,"I":0.0,"G":4826.6648},{"stationName":"上海江苏路(地铁站)","station_id":"上海江苏路(地铁站)_31.22201_121.42692","lineId":"上海地铁11号线 / 上海地铁2号线","lat":31.222012560000003,"lon":121.42691964,"area_km2":2.9026,"D":0.4315,"C":0.9993,"T":0.1863,"U1":0.1931,"U2":0.1795,"couplingDegree":0.4315,"level":"勉强协调","road_density":25.8125,"walk_accessibility":0.582,"metro_line_density":4.0316,"station_count":1,"line_count":2,"population_density":38912.6208,"poi_density":0.0,"poi_diversity":0.0,"gdp_density":0.0,"P":38912.6208,"I":0.0,"G":0.0},{"stationName":"上海娄山关路(地铁站)","station_id":"上海娄山关路(地铁站)_31.21395_121.39738","lineId":"上海地铁15号线 / 上海地铁2号线","lat":31.213947245,"lon":121.39738009,"area_km2":2.7612,"D":0.4961,"C":0.9412,"T":0.2615,"U1":0.1732,"U2":0.3498,"couplingDegree":0.4961,"level":"勉强协调","road_density":23.1715,"walk_accessibility":0.5536,"metro_line_density":2.6256,"station_count":1,"line_count":2,"population_density":41566.3605,"poi_density":0.0,"poi_diversity":0.0,"gdp_density":5545.6013,"P":41566.3605,"I":0.0,"G":5545.6013},{"stationName":"上海威宁路(地铁站)","station_id":"上海威宁路(地铁站)_31.21672_121.38264","lineId":"上海地铁2号线","lat":31.21671684,"lon":121.38263986,"area_km2":2.3448,"D":0.3205,"C":0.9623,"T":0.1067,"U1":0.0777,"U2":0.1358,"couplingDegree":0.3205,"level":"中度失调","road_density":23.4281,"walk_accessibility":0.4701,"metro_line_density":2.3906,"station_count":1,"line_count":1,"population_density":29432.3195,"poi_density":0.0,"poi_diversity":0.0,"gdp_density":0.0,"P":29432.3195,"I":0.0,"G":0.0},{"stationName":"上海北新泾(地铁站)","station_id":"上海北新泾(地铁站)_31.21825_121.36937","lineId":"上海地铁2号线","lat":31.21825356,"lon":121.3693669,"area_km2":2.5871,"D":0.385,"C":0.9168,"T":0.1617,"U1":0.0971,"U2":0.2262,"couplingDegree":0.385,"level":"中度失调","road_density":28.4442,"walk_accessibility":0.5187,"metro_line_density":2.2398,"station_count":1,"line_count":1,"population_density":12371.1132,"poi_density":0.0,"poi_diversity":0.0,"gdp_density":5935.8207,"P":12371.1132,"I":0.0,"G":5935.8207},{"stationName":"上海国家会展中心(2号线)(地铁站)","station_id":"上海国家会展中心(2号线)(地铁站)_31.19037_121.29473","lineId":"上海地铁2号线","lat":31.19036678,"lon":121.29472806,"area_km2":1.9167,"D":0.347,"C":0.9412,"T":0.128,"U1":0.0847,"U2":0.1712,"couplingDegree":0.347,"level":"中度失调","road_density":26.4079,"walk_accessibility":0.3843,"metro_line_density":3.9686,"station_count":1,"line_count":1,"population_density":1082.5758,"poi_density":0.0,"poi_diversity":0.0,"gdp_density":5831.3925,"P":1082.5758,"I":0.0,"G":5831.3925},{"stationName":"上海蟠祥路(地铁站)","station_id":"上海蟠祥路(地铁站)_31.18406_121.28299","lineId":"上海地铁2号线","lat":31.1840645,"lon":121.28298674,"area_km2":1.6661,"D":0.1858,"C":0.8621,"T":0.0401,"U1":0.0603,"U2":0.0198,"couplingDegree":0.1858,"level":"极度失调","road_density":21.8203,"walk_accessibility":0.334,"metro_line_density":3.1707,"station_count":1,"line_count":1,"population_density":4281.2968,"poi_density":0.0,"poi_diversity":0.0,"gdp_density":0.0,"P":4281.2968,"I":0.0,"G":0.0},{"stationName":"上海石龙路(地铁站)","station_id":"上海石龙路(地铁站)_31.15986_121.43860","lineId":"上海地铁3号线","lat":31.159856395,"lon":121.43860487,"area_km2":1.434,"D":0.5773,"C":0.992,"T":0.3359,"U1":0.2935,"U2":0.3784,"couplingDegree":0.5773,"level":"勉强协调","road_density":18.6084,"walk_accessibility":0.2875,"metro_line_density":4.9467,"station_count":2,"line_count":3,"population_density":16411.0033,"poi_density":0.0,"poi_diversity":0.0,"gdp_density":10622.8828,"P":16411.0033,"I":0.0,"G":10622.8828},{"stationName":"上海龙漕路(地铁站)","station_id":"上海龙漕路(地铁站)_31.17136_121.43978","lineId":"上海地铁3号线","lat":31.17136246,"lon":121.43978352,"area_km2":2.0729,"D":0.5756,"C":0.9991,"T":0.3316,"U1":0.3177,"U2":0.3454,"couplingDegree":0.5756,"level":"勉强协调","road_density":22.0931,"walk_accessibility":0.4156,"metro_line_density":6.8827,"station_count":3,"line_count":2,"population_density":29390.2071,"poi_density":0.0,"poi_diversity":0.0,"gdp_density":7362.9047,"P":29390.2071,"I":0.0,"G":7362.9047},{"stationName":"上海漕溪路(地铁站)","station_id":"上海漕溪路(地铁站)_31.17864_121.43380","lineId":"上海地铁3号线","lat":31.17863651,"lon":121.43379847,"area_km2":1.9684,"D":0.6862,"C":0.9477,"T":0.4968,"U1":0.6554,"U2":0.3382,"couplingDegree":0.6862,"level":"良好协调","road_density":28.7905,"walk_accessibility":0.3947,"metro_line_density":9.3366,"station_count":5,"line_count":4,"population_density":25420.5675,"poi_density":0.0,"poi_diversity":0.0,"gdp_density":7753.7735,"P":25420.5675,"I":0.0,"G":7753.7735},{"stationName":"上海宜山路(地铁站)","station_id":"上海宜山路(地铁站)_31.18788_121.42264","lineId":"上海地铁3号线 / 上海地铁4号线 / 上海地铁9号线","lat":31.1878847,"lon":121.42264432,"area_km2":2.5916,"D":0.4953,"C":0.8457,"T":0.2901,"U1":0.4449,"U2":0.1353,"couplingDegree":0.4953,"level":"勉强协调","road_density":26.941,"walk_accessibility":0.5196,"metro_line_density":7.1891,"station_count":2,"line_count":4,"population_density":29325.1439,"poi_density":0.0,"poi_diversity":0.0,"gdp_density":0.0,"P":29325.1439,"I":0.0,"G":0.0},{"stationName":"上海虹桥路(地铁站)","station_id":"上海虹桥路(地铁站)_31.19894_121.41700","lineId":"上海地铁10号线 / 上海地铁3号线 / 上海地铁4号线","lat":31.19893825,"lon":121.4169995475,"area_km2":3.1907,"D":0.5532,"C":0.9987,"T":0.3064,"U1":0.2909,"U2":0.3218,"couplingDegree":0.5532,"level":"勉强协调","road_density":25.1448,"walk_accessibility":0.6397,"metro_line_density":5.3623,"station_count":1,"line_count":3,"population_density":40174.1269,"poi_density":0.0,"poi_diversity":0.0,"gdp_density":4789.5849,"P":40174.1269,"I":0.0,"G":4789.5849},{"stationName":"上海延安西路(地铁站)","station_id":"上海延安西路(地铁站)_31.21147_121.41242","lineId":"上海地铁3号线","lat":31.21146575,"lon":121.41241925,"area_km2":3.3431,"D":0.5988,"C":0.9764,"T":0.3672,"U1":0.2878,"U2":0.4465,"couplingDegree":0.5988,"level":"勉强协调","road_density":30.6086,"walk_accessibility":0.6703,"metro_line_density":4.1026,"station_count":2,"line_count":2,"population_density":68558.8579,"poi_density":0.0,"poi_diversity":0.0,"gdp_density":4569.0726,"P":68558.8579,"I":0.0,"G":4569.0726},{"stationName":"上海金沙江路(地铁站)","station_id":"上海金沙江路(地铁站)_31.23350_121.40783","lineId":"上海地铁13号线 / 上海地铁3号线","lat":31.233497315,"lon":121.40783292,"area_km2":3.008,"D":0.6256,"C":0.9928,"T":0.3942,"U1":0.4414,"U2":0.3471,"couplingDegree":0.6256,"level":"良好协调","road_density":26.2215,"walk_accessibility":0.6031,"metro_line_density":5.2156,"station_count":2,"line_count":4,"population_density":43890.4683,"poi_density":0.0,"poi_diversity":0.0,"gdp_density":5073.048,"P":43890.4683,"I":0.0,"G":5073.048},{"stationName":"上海曹杨路(地铁站)","station_id":"上海曹杨路(地铁站)_31.24092_121.41402","lineId":"上海地铁11号线 / 上海地铁14号线 / 上海地铁3号线","lat":31.24092087,"lon":121.414017685,"area_km2":2.4253,"D":0.6496,"C":0.9983,"T":0.4227,"U1":0.4477,"U2":0.3978,"couplingDegree":0.6496,"level":"良好协调","road_density":27.2683,"walk_accessibility":0.4863,"metro_line_density":8.1738,"station_count":2,"line_count":4,"population_density":47349.2912,"poi_density":0.0,"poi_diversity":0.0,"gdp_density":6291.9357,"P":47349.2912,"I":0.0,"G":6291.9357},{"stationName":"上海镇坪路(地铁站)","station_id":"上海镇坪路(地铁站)_31.24841_121.42610","lineId":"上海地铁3号线 / 上海地铁7号线","lat":31.248411654999998,"lon":121.42609662999999,"area_km2":2.6791,"D":0.4663,"C":0.9952,"T":0.2185,"U1":0.197,"U2":0.2399,"couplingDegree":0.4663,"level":"勉强协调","road_density":24.3518,"walk_accessibility":0.5371,"metro_line_density":6.2364,"station_count":1,"line_count":2,"population_density":52006.3829,"poi_density":0.0,"poi_diversity":0.0,"gdp_density":0.0,"P":52006.3829,"I":0.0,"G":0.0},{"stationName":"上海中潭路(地铁站)","station_id":"上海中潭路(地铁站)_31.25643_121.43639","lineId":"上海地铁3号线","lat":31.25642627,"lon":121.43638781,"area_km2":2.4935,"D":0.4602,"C":0.7969,"T":0.2658,"U1":0.1052,"U2":0.4263,"couplingDegree":0.4602,"level":"勉强协调","road_density":27.3354,"walk_accessibility":0.4999,"metro_line_density":4.409,"station_count":1,"line_count":1,"population_density":54695.0229,"poi_density":0.0,"poi_diversity":0.0,"gdp_density":6104.3784,"P":54695.0229,"I":0.0,"G":6104.3784},{"stationName":"上海宝山路(地铁站)","station_id":"上海宝山路(地铁站)_31.25346_121.47178","lineId":"上海地铁3号线","lat":31.25346217,"lon":121.47178086,"area_km2":2.6428,"D":0.6284,"C":0.9997,"T":0.395,"U1":0.385,"U2":0.405,"couplingDegree":0.6284,"level":"良好协调","road_density":21.1024,"walk_accessibility":0.5299,"metro_line_density":4.6083,"station_count":4,"line_count":2,"population_density":52370.8584,"poi_density":0.0,"poi_diversity":0.0,"gdp_density":5732.1121,"P":52370.8584,"I":0.0,"G":5732.1121},{"stationName":"上海东宝兴路(地铁站)","station_id":"上海东宝兴路(地铁站)_31.26183_121.47570","lineId":"上海地铁3号线","lat":31.26183279,"lon":121.47569748,"area_km2":3.1459,"D":0.6927,"C":0.9224,"T":0.5202,"U1":0.7211,"U2":0.3194,"couplingDegree":0.6927,"level":"良好协调","road_density":20.2161,"walk_accessibility":0.6308,"metro_line_density":5.3534,"station_count":5,"line_count":5,"population_density":39476.799,"poi_density":0.0,"poi_diversity":0.0,"gdp_density":4815.3887,"P":39476.799,"I":0.0,"G":4815.3887},{"stationName":"上海虹口足球场(地铁站)","station_id":"上海虹口足球场(地铁站)_31.27283_121.47470","lineId":"上海地铁3号线 / 上海地铁8号线","lat":31.272831903333337,"lon":121.47470314666667,"area_km2":2.9026,"D":0.6042,"C":0.9981,"T":0.3657,"U1":0.3431,"U2":0.3883,"couplingDegree":0.6042,"level":"良好协调","road_density":25.0696,"walk_accessibility":0.582,"metro_line_density":6.1434,"station_count":3,"line_count":2,"population_density":51954.3415,"poi_density":0.0,"poi_diversity":0.0,"gdp_density":5215.6877,"P":51954.3415,"I":0.0,"G":5215.6877},{"stationName":"上海赤峰路(地铁站)","station_id":"上海赤峰路(地铁站)_31.28319_121.47793","lineId":"上海地铁3号线","lat":31.28319225,"lon":121.47793119,"area_km2":3.29,"D":0.6017,"C":0.9847,"T":0.3676,"U1":0.4317,"U2":0.3036,"couplingDegree":0.6017,"level":"良好协调","road_density":32.7444,"walk_accessibility":0.6596,"metro_line_density":4.1796,"station_count":4,"line_count":2,"population_density":37384.4562,"poi_density":0.0,"poi_diversity":0.0,"gdp_density":4601.6024,"P":37384.4562,"I":0.0,"G":4601.6024},{"stationName":"上海大柏树(地铁站)","station_id":"上海大柏树(地铁站)_31.29138_121.47872","lineId":"上海地铁3号线","lat":31.29137698,"lon":121.47871962,"area_km2":2.4501,"D":0.5176,"C":0.9359,"T":0.2862,"U1":0.1854,"U2":0.3871,"couplingDegree":0.5176,"level":"勉强协调","road_density":34.1026,"walk_accessibility":0.4912,"metro_line_density":3.3025,"station_count":2,"line_count":1,"population_density":45824.0026,"poi_density":0.0,"poi_diversity":0.0,"gdp_density":6164.5997,"P":45824.0026,"I":0.0,"G":6164.5997},{"stationName":"上海江湾镇(地铁站)","station_id":"上海江湾镇(地铁站)_31.30873_121.48060","lineId":"上海地铁20号线 / 上海地铁3号线","lat":31.308728435,"lon":121.480602725,"area_km2":1.8997,"D":0.3396,"C":0.927,"T":0.1244,"U1":0.1711,"U2":0.0777,"couplingDegree":0.3396,"level":"中度失调","road_density":24.3637,"walk_accessibility":0.3809,"metro_line_density":5.3492,"station_count":1,"line_count":2,"population_density":16848.8187,"poi_density":0.0,"poi_diversity":0.0,"gdp_density":0.0,"P":16848.8187,"I":0.0,"G":0.0},{"stationName":"上海殷高西路(地铁站)","station_id":"上海殷高西路(地铁站)_31.32194_121.48036","lineId":"上海地铁3号线","lat":31.32194102,"lon":121.48036209,"area_km2":1.8166,"D":0.0,"C":0.0,"T":0.041,"U1":0.082,"U2":0.0,"couplingDegree":0.0,"level":"极度失调","road_density":27.2187,"walk_accessibility":0.3642,"metro_line_density":3.5955,"station_count":1,"line_count":1,"population_density":0.0,"poi_density":0.0,"poi_diversity":0.0,"gdp_density":0.0,"P":0.0,"I":0.0,"G":0.0},{"stationName":"上海长江南路(地铁站)","station_id":"上海长江南路(地铁站)_31.33386_121.48603","lineId":"上海地铁18号线 / 上海地铁3号线","lat":31.33385695,"lon":121.48602720000001,"area_km2":1.454,"D":0.2729,"C":0.7114,"T":0.1047,"U1":0.1782,"U2":0.0311,"couplingDegree":0.2729,"level":"中度失调","road_density":26.6361,"walk_accessibility":0.2915,"metro_line_density":7.3406,"station_count":1,"line_count":2,"population_density":6742.0685,"poi_density":0.0,"poi_diversity":0.0,"gdp_density":0.0,"P":6742.0685,"I":0.0,"G":0.0},{"stationName":"上海淞发路(地铁站)","station_id":"上海淞发路(地铁站)_31.34711_121.49595","lineId":"上海地铁3号线","lat":31.34710814,"lon":121.49595013,"area_km2":2.0762,"D":0.3704,"C":0.8823,"T":0.1555,"U1":0.0823,"U2":0.2287,"couplingDegree":0.3704,"level":"中度失调","road_density":26.8095,"walk_accessibility":0.4163,"metro_line_density":2.74,"station_count":1,"line_count":1,"population_density":5001.9242,"poi_density":0.0,"poi_diversity":0.0,"gdp_density":7215.9143,"P":5001.9242,"I":0.0,"G":7215.9143},{"stationName":"上海张华浜(地铁站)","station_id":"上海张华浜(地铁站)_31.35998_121.49422","lineId":"上海地铁3号线","lat":31.35997956,"lon":121.4942232,"area_km2":1.2524,"D":0.403,"C":0.7765,"T":0.2091,"U1":0.0774,"U2":0.3409,"couplingDegree":0.403,"level":"勉强协调","road_density":28.8967,"walk_accessibility":0.2511,"metro_line_density":4.4628,"station_count":1,"line_count":1,"population_density":0.0,"poi_density":0.0,"poi_diversity":0.0,"gdp_density":11962.5063,"P":0.0,"I":0.0,"G":11962.5063},{"stationName":"上海淞滨路(地铁站)","station_id":"上海淞滨路(地铁站)_31.37287_121.48835","lineId":"上海地铁3号线","lat":31.37287018,"lon":121.48834979,"area_km2":1.6219,"D":0.4333,"C":0.9656,"T":0.1944,"U1":0.1439,"U2":0.2449,"couplingDegree":0.4333,"level":"勉强协调","road_density":26.9182,"walk_accessibility":0.3252,"metro_line_density":3.3413,"station_count":2,"line_count":1,"population_density":7142.9371,"poi_density":0.0,"poi_diversity":0.0,"gdp_density":7438.3205,"P":7142.9371,"I":0.0,"G":7438.3205},{"stationName":"上海水产路(地铁站)","station_id":"上海水产路(地铁站)_31.38323_121.48376","lineId":"上海地铁3号线","lat":31.38322778,"lon":121.48376147,"area_km2":1.0764,"D":0.0,"C":0.0,"T":0.0717,"U1":0.1434,"U2":0.0,"couplingDegree":0.0,"level":"极度失调","road_density":27.4228,"walk_accessibility":0.2158,"metro_line_density":5.3176,"station_count":2,"line_count":1,"population_density":0.0,"poi_density":0.0,"poi_diversity":0.0,"gdp_density":0.0,"P":0.0,"I":0.0,"G":0.0},{"stationName":"上海宝杨路(地铁站)","station_id":"上海宝杨路(地铁站)_31.39721_121.47506","lineId":"上海地铁3号线","lat":31.39721093,"lon":121.47505543,"area_km2":1.3211,"D":0.3186,"C":0.9588,"T":0.1059,"U1":0.1359,"U2":0.0758,"couplingDegree":0.3186,"level":"中度失调","road_density":24.539,"walk_accessibility":0.2649,"metro_line_density":4.3831,"station_count":2,"line_count":1,"population_density":16427.6795,"poi_density":0.0,"poi_diversity":0.0,"gdp_density":0.0,"P":16427.6795,"I":0.0,"G":0.0},{"stationName":"上海友谊路(地铁站)","station_id":"上海友谊路(地铁站)_31.40590_121.47139","lineId":"上海地铁3号线","lat":31.40589946,"lon":121.47139412,"area_km2":1.4863,"D":0.2826,"C":0.8797,"T":0.0908,"U1":0.134,"U2":0.0476,"couplingDegree":0.2826,"level":"中度失调","road_density":23.7229,"walk_accessibility":0.298,"metro_line_density":3.7479,"station_count":2,"line_count":1,"population_density":10322.9205,"poi_density":0.0,"poi_diversity":0.0,"gdp_density":0.0,"P":10322.9205,"I":0.0,"G":0.0},{"stationName":"上海铁力路(地铁站)","station_id":"上海铁力路(地铁站)_31.40996_121.45656","lineId":"上海地铁3号线","lat":31.409964685,"lon":121.456561565,"area_km2":1.6037,"D":0.3864,"C":0.7995,"T":0.1867,"U1":0.0746,"U2":0.2989,"couplingDegree":0.3864,"level":"中度失调","road_density":26.6508,"walk_accessibility":0.3215,"metro_line_density":3.5484,"station_count":1,"line_count":1,"population_density":7203.7484,"poi_density":0.0,"poi_diversity":0.0,"gdp_density":9321.1049,"P":7203.7484,"I":0.0,"G":9321.1049},{"stationName":"上海江杨北路(地铁站)","station_id":"上海江杨北路(地铁站)_31.40966_121.43519","lineId":"上海地铁3号线","lat":31.40965845,"lon":121.43519049,"area_km2":1.5497,"D":0.2028,"C":0.992,"T":0.0415,"U1":0.0467,"U2":0.0362,"couplingDegree":0.2028,"level":"中度失调","road_density":24.9956,"walk_accessibility":0.3107,"metro_line_density":0.0789,"station_count":1,"line_count":1,"population_density":7853.0869,"poi_density":0.0,"poi_diversity":0.0,"gdp_density":0.0,"P":7853.0869,"I":0.0,"G":0.0},{"stationName":"上海海伦路(地铁站)","station_id":"上海海伦路(地铁站)_31.26110_121.48461","lineId":"上海地铁10号线 / 上海地铁19号线 / 上海地铁4号线","lat":31.2611021775,"lon":121.4846140375,"area_km2":3.0604,"D":0.6381,"C":0.9781,"T":0.4163,"U1":0.5029,"U2":0.3297,"couplingDegree":0.6381,"level":"良好协调","road_density":23.863,"walk_accessibility":0.6136,"metro_line_density":4.7847,"station_count":3,"line_count":4,"population_density":71456.2375,"poi_density":0.0,"poi_diversity":0.0,"gdp_density":0.0,"P":71456.2375,"I":0.0,"G":0.0},{"stationName":"上海临平路(地铁站)","station_id":"上海临平路(地铁站)_31.26288_121.49626","lineId":"上海地铁4号线","lat":31.262881505000003,"lon":121.496264755,"area_km2":3.157,"D":0.6058,"C":0.9936,"T":0.3694,"U1":0.4112,"U2":0.3276,"couplingDegree":0.6058,"level":"良好协调","road_density":22.824,"walk_accessibility":0.633,"metro_line_density":3.5843,"station_count":3,"line_count":3,"population_density":41422.8416,"poi_density":0.0,"poi_diversity":0.0,"gdp_density":4788.3534,"P":41422.8416,"I":0.0,"G":4788.3534},{"stationName":"上海大连路(地铁站)","station_id":"上海大连路(地铁站)_31.25998_121.50870","lineId":"上海地铁4号线","lat":31.25998412,"lon":121.50870081,"area_km2":2.6899,"D":0.4141,"C":0.9736,"T":0.1762,"U1":0.2164,"U2":0.1359,"couplingDegree":0.4141,"level":"勉强协调","road_density":20.1692,"walk_accessibility":0.5393,"metro_line_density":2.3758,"station_count":3,"line_count":1,"population_density":29465.8439,"poi_density":0.0,"poi_diversity":0.0,"gdp_density":0.0,"P":29465.8439,"I":0.0,"G":0.0},{"stationName":"上海杨树浦路(地铁站)","station_id":"上海杨树浦路(地铁站)_31.25400_121.51284","lineId":"上海地铁4号线","lat":31.2539951,"lon":121.51283866,"area_km2":2.1994,"D":0.4143,"C":0.9685,"T":0.1773,"U1":0.1331,"U2":0.2214,"couplingDegree":0.4143,"level":"勉强协调","road_density":18.5555,"walk_accessibility":0.441,"metro_line_density":2.9333,"station_count":2,"line_count":1,"population_density":23065.3684,"poi_density":0.0,"poi_diversity":0.0,"gdp_density":4035.6511,"P":23065.3684,"I":0.0,"G":4035.6511},{"stationName":"上海浦东大道(地铁站)","station_id":"上海浦东大道(地铁站)_31.24238_121.51494","lineId":"上海地铁4号线","lat":31.24237941,"lon":121.51493791,"area_km2":3.488,"D":0.6255,"C":0.9476,"T":0.4129,"U1":0.5448,"U2":0.2809,"couplingDegree":0.6255,"level":"良好协调","road_density":33.3573,"walk_accessibility":0.6993,"metro_line_density":5.4561,"station_count":3,"line_count":4,"population_density":25879.8141,"poi_density":0.0,"poi_diversity":0.0,"gdp_density":5668.0879,"P":25879.8141,"I":0.0,"G":5668.0879},{"stationName":"上海向城路(地铁站)","station_id":"上海向城路(地铁站)_31.22440_121.52776","lineId":"上海地铁4号线","lat":31.22439979,"lon":121.52776134,"area_km2":3.9467,"D":0.4028,"C":0.4554,"T":0.3563,"U1":0.6735,"U2":0.0391,"couplingDegree":0.4028,"level":"勉强协调","road_density":30.9933,"walk_accessibility":0.7913,"metro_line_density":5.2825,"station_count":6,"line_count":3,"population_density":8473.3207,"poi_density":0.0,"poi_diversity":0.0,"gdp_density":0.0,"P":8473.3207,"I":0.0,"G":0.0},{"stationName":"上海蓝村路(地铁站)","station_id":"上海蓝村路(地铁站)_31.21373_121.52343","lineId":"上海地铁4号线 / 上海地铁6号线","lat":31.21372554,"lon":121.523430885,"area_km2":2.5268,"D":0.6341,"C":0.9495,"T":0.4235,"U1":0.5564,"U2":0.2906,"couplingDegree":0.6341,"level":"良好协调","road_density":27.9217,"walk_accessibility":0.5066,"metro_line_density":4.9673,"station_count":5,"line_count":3,"population_density":14743.3688,"poi_density":0.0,"poi_diversity":0.0,"gdp_density":7810.4617,"P":14743.3688,"I":0.0,"G":7810.4617},{"stationName":"上海塘桥(地铁站)","station_id":"上海塘桥(地铁站)_31.21208_121.51389","lineId":"上海地铁19号线 / 上海地铁4号线","lat":31.212079146666667,"lon":121.51389470666668,"area_km2":2.552,"D":0.5916,"C":0.9869,"T":0.3547,"U1":0.4118,"U2":0.2975,"couplingDegree":0.5916,"level":"勉强协调","road_density":26.1282,"walk_accessibility":0.5117,"metro_line_density":4.7454,"station_count":3,"line_count":3,"population_density":16711.2686,"poi_density":0.0,"poi_diversity":0.0,"gdp_density":7733.4596,"P":16711.2686,"I":0.0,"G":7733.4596},{"stationName":"上海南浦大桥(地铁站)","station_id":"上海南浦大桥(地铁站)_31.21053_121.49529","lineId":"上海地铁4号线","lat":31.21053316,"lon":121.49529392,"area_km2":2.8972,"D":0.5365,"C":0.9916,"T":0.2903,"U1":0.3279,"U2":0.2526,"couplingDegree":0.5365,"level":"勉强协调","road_density":27.2131,"walk_accessibility":0.5809,"metro_line_density":2.7974,"station_count":3,"line_count":2,"population_density":30247.0593,"poi_density":0.0,"poi_diversity":0.0,"gdp_density":3968.6316,"P":30247.0593,"I":0.0,"G":3968.6316},{"stationName":"上海西藏南路(地铁站)","station_id":"上海西藏南路(地铁站)_31.20397_121.48509","lineId":"上海地铁4号线","lat":31.20396821,"lon":121.48508793,"area_km2":2.9382,"D":0.4461,"C":0.8856,"T":0.2247,"U1":0.3291,"U2":0.1203,"couplingDegree":0.4461,"level":"勉强协调","road_density":24.8853,"walk_accessibility":0.5891,"metro_line_density":3.8494,"station_count":3,"line_count":2,"population_density":26084.1666,"poi_density":0.0,"poi_diversity":0.0,"gdp_density":0.0,"P":26084.1666,"I":0.0,"G":0.0},{"stationName":"上海鲁班路(地铁站)","station_id":"上海鲁班路(地铁站)_31.20118_121.47063","lineId":"上海地铁4号线","lat":31.20118265,"lon":121.47063185,"area_km2":2.6139,"D":0.589,"C":0.9869,"T":0.3515,"U1":0.4083,"U2":0.2947,"couplingDegree":0.589,"level":"勉强协调","road_density":28.5494,"walk_accessibility":0.5241,"metro_line_density":2.8551,"station_count":3,"line_count":3,"population_density":42677.723,"poi_density":0.0,"poi_diversity":0.0,"gdp_density":3432.7348,"P":42677.723,"I":0.0,"G":3432.7348},{"stationName":"上海大木桥路(地铁站)","station_id":"上海大木桥路(地铁站)_31.19599_121.45873","lineId":"上海地铁4号线","lat":31.195989140000002,"lon":121.45872563500001,"area_km2":2.6763,"D":0.5869,"C":0.996,"T":0.3458,"U1":0.315,"U2":0.3766,"couplingDegree":0.5869,"level":"勉强协调","road_density":24.297,"walk_accessibility":0.5366,"metro_line_density":2.9709,"station_count":3,"line_count":2,"population_density":46499.8951,"poi_density":0.0,"poi_diversity":0.0,"gdp_density":5685.8887,"P":46499.8951,"I":0.0,"G":5685.8887},{"stationName":"上海东安路(地铁站)","station_id":"上海东安路(地铁站)_31.19273_121.45032","lineId":"上海地铁4号线","lat":31.1927333,"lon":121.4503209,"area_km2":2.1722,"D":0.7125,"C":0.9975,"T":0.5089,"U1":0.5452,"U2":0.4726,"couplingDegree":0.7125,"level":"良好协调","road_density":22.0654,"walk_accessibility":0.4355,"metro_line_density":4.9708,"station_count":4,"line_count":4,"population_density":59166.2365,"poi_density":0.0,"poi_diversity":0.0,"gdp_density":7005.4196,"P":59166.2365,"I":0.0,"G":7005.4196},{"stationName":"上海上海体育场(地铁站)","station_id":"上海上海体育场(地铁站)_31.18750_121.43892","lineId":"上海地铁23号线 / 上海地铁4号线","lat":31.187497855,"lon":121.43892246499999,"area_km2":2.3774,"D":0.6877,"C":0.8753,"T":0.5403,"U1":0.8016,"U2":0.279,"couplingDegree":0.6877,"level":"良好协调","road_density":24.3677,"walk_accessibility":0.4767,"metro_line_density":6.1917,"station_count":5,"line_count":6,"population_density":60480.632,"poi_density":0.0,"poi_diversity":0.0,"gdp_density":0.0,"P":60480.632,"I":0.0,"G":0.0},{"stationName":"上海闵行开发区(地铁站)","station_id":"上海闵行开发区(地铁站)_31.00261_121.36511","lineId":"上海地铁5号线","lat":31.00260857,"lon":121.36510635,"area_km2":1.6655,"D":0.2013,"C":0.6956,"T":0.0582,"U1":0.1001,"U2":0.0164,"couplingDegree":0.2013,"level":"中度失调","road_density":16.4577,"walk_accessibility":0.3339,"metro_line_density":0.8352,"station_count":2,"line_count":1,"population_density":3553.885,"poi_density":0.0,"poi_diversity":0.0,"gdp_density":0.0,"P":3553.885,"I":0.0,"G":0.0},{"stationName":"上海文井路(地铁站)","station_id":"上海文井路(地铁站)_31.00556_121.37615","lineId":"上海地铁5号线","lat":31.00556401,"lon":121.3761541,"area_km2":1.5058,"D":0.2253,"C":0.8214,"T":0.0618,"U1":0.0971,"U2":0.0266,"couplingDegree":0.2253,"level":"中度失调","road_density":15.1949,"walk_accessibility":0.3019,"metro_line_density":1.5823,"station_count":2,"line_count":1,"population_density":5755.7224,"poi_density":0.0,"poi_diversity":0.0,"gdp_density":0.0,"P":5755.7224,"I":0.0,"G":0.0},{"stationName":"上海华宁路(地铁站)","station_id":"上海华宁路(地铁站)_31.00942_121.39062","lineId":"上海地铁5号线","lat":31.00942305,"lon":121.39062465,"area_km2":0.9148,"D":0.3607,"C":0.4194,"T":0.3102,"U1":0.0286,"U2":0.5917,"couplingDegree":0.3607,"level":"中度失调","road_density":17.586,"walk_accessibility":0.1834,"metro_line_density":3.129,"station_count":1,"line_count":1,"population_density":6466.8537,"poi_density":0.0,"poi_diversity":0.0,"gdp_density":19716.2315,"P":6466.8537,"I":0.0,"G":19716.2315},{"stationName":"上海金平路(地铁站)","station_id":"上海金平路(地铁站)_31.01324_121.40555","lineId":"上海地铁5号线","lat":31.01323606,"lon":121.40555436,"area_km2":1.9659,"D":0.4971,"C":0.9937,"T":0.2487,"U1":0.2208,"U2":0.2765,"couplingDegree":0.4971,"level":"勉强协调","road_density":25.3315,"walk_accessibility":0.3941,"metro_line_density":1.5281,"station_count":2,"line_count":2,"population_density":3393.9406,"poi_density":0.0,"poi_diversity":0.0,"gdp_density":9154.5538,"P":3393.9406,"I":0.0,"G":9154.5538},{"stationName":"上海东川路(地铁站)","station_id":"上海东川路(地铁站)_31.02015_121.41526","lineId":"上海地铁23号线 / 上海地铁5号线","lat":31.020148675,"lon":121.415260665,"area_km2":1.3099,"D":0.602,"C":0.9896,"T":0.3662,"U1":0.3135,"U2":0.4189,"couplingDegree":0.602,"level":"良好协调","road_density":29.0959,"walk_accessibility":0.2626,"metro_line_density":6.2899,"station_count":3,"line_count":2,"population_density":5930.0867,"poi_density":0.0,"poi_diversity":0.0,"gdp_density":13738.5473,"P":5930.0867,"I":0.0,"G":13738.5473},{"stationName":"上海剑川路(地铁站)","station_id":"上海剑川路(地铁站)_31.02843_121.41195","lineId":"上海地铁5号线","lat":31.0284323,"lon":121.41195429,"area_km2":1.5551,"D":0.218,"C":0.4257,"T":0.1116,"U1":0.2126,"U2":0.0106,"couplingDegree":0.218,"level":"中度失调","road_density":20.9175,"walk_accessibility":0.3118,"metro_line_density":3.8904,"station_count":2,"line_count":2,"population_density":2301.4912,"poi_density":0.0,"poi_diversity":0.0,"gdp_density":0.0,"P":2301.4912,"I":0.0,"G":0.0},{"stationName":"上海北桥(地铁站)","station_id":"上海北桥(地铁站)_31.04705_121.40542","lineId":"上海地铁5号线","lat":31.04704591,"lon":121.40542082,"area_km2":1.0863,"D":0.0904,"C":0.3168,"T":0.0258,"U1":0.0503,"U2":0.0013,"couplingDegree":0.0904,"level":"极度失调","road_density":21.1749,"walk_accessibility":0.2178,"metro_line_density":4.2705,"station_count":1,"line_count":1,"population_density":288.1411,"poi_density":0.0,"poi_diversity":0.0,"gdp_density":0.0,"P":288.1411,"I":0.0,"G":0.0},{"stationName":"上海颛桥(地铁站)","station_id":"上海颛桥(地铁站)_31.06893_121.39723","lineId":"上海地铁5号线","lat":31.06893414,"lon":121.39723048,"area_km2":1.6246,"D":0.3466,"C":0.6512,"T":0.1845,"U1":0.0445,"U2":0.3245,"couplingDegree":0.3466,"level":"中度失调","road_density":17.1506,"walk_accessibility":0.3257,"metro_line_density":2.8903,"station_count":1,"line_count":1,"population_density":1167.0522,"poi_density":0.0,"poi_diversity":0.0,"gdp_density":11198.0941,"P":1167.0522,"I":0.0,"G":11198.0941},{"stationName":"上海银都路(地铁站)","station_id":"上海银都路(地铁站)_31.09125_121.38563","lineId":"上海地铁5号线 / 上海地铁嘉闵线","lat":31.09124586,"lon":121.38562715,"area_km2":1.2933,"D":0.293,"C":0.7228,"T":0.1188,"U1":0.2008,"U2":0.0367,"couplingDegree":0.293,"level":"中度失调","road_density":18.8424,"walk_accessibility":0.2593,"metro_line_density":4.0251,"station_count":2,"line_count":2,"population_density":7953.2793,"poi_density":0.0,"poi_diversity":0.0,"gdp_density":0.0,"P":7953.2793,"I":0.0,"G":0.0},{"stationName":"上海春申路(地铁站)","station_id":"上海春申路(地铁站)_31.10016_121.38118","lineId":"上海地铁5号线","lat":31.10015955,"lon":121.381184825,"area_km2":1.4201,"D":0.2273,"C":0.4657,"T":0.1109,"U1":0.2091,"U2":0.0128,"couplingDegree":0.2273,"level":"中度失调","road_density":16.7411,"walk_accessibility":0.2847,"metro_line_density":5.7396,"station_count":2,"line_count":2,"population_density":2766.7316,"poi_density":0.0,"poi_diversity":0.0,"gdp_density":0.0,"P":2766.7316,"I":0.0,"G":0.0},{"stationName":"上海江川路(地铁站)","station_id":"上海江川路(地铁站)_31.00739_121.41885","lineId":"上海地铁5号线","lat":31.00739453,"lon":121.41885497,"area_km2":1.5696,"D":0.1432,"C":0.7144,"T":0.0287,"U1":0.0488,"U2":0.0086,"couplingDegree":0.1432,"level":"极度失调","road_density":20.3012,"walk_accessibility":0.3147,"metro_line_density":2.4048,"station_count":1,"line_count":1,"population_density":1867.2996,"poi_density":0.0,"poi_diversity":0.0,"gdp_density":0.0,"P":1867.2996,"I":0.0,"G":0.0},{"stationName":"上海西渡(地铁站)","station_id":"上海西渡(地铁站)_30.99134_121.42783","lineId":"上海地铁5号线","lat":30.991337,"lon":121.42783429,"area_km2":1.3446,"D":0.1474,"C":0.893,"T":0.0243,"U1":0.0353,"U2":0.0134,"couplingDegree":0.1474,"level":"极度失调","road_density":18.2224,"walk_accessibility":0.2696,"metro_line_density":2.1234,"station_count":1,"line_count":1,"population_density":2901.3002,"poi_density":0.0,"poi_diversity":0.0,"gdp_density":0.0,"P":2901.3002,"I":0.0,"G":0.0},{"stationName":"上海萧塘(地铁站)","station_id":"上海萧塘(地铁站)_30.96790_121.43727","lineId":"上海地铁5号线","lat":30.96790283,"lon":121.43726984,"area_km2":1.4716,"D":0.2694,"C":0.837,"T":0.0867,"U1":0.0392,"U2":0.1341,"couplingDegree":0.2694,"level":"中度失调","road_density":18.8616,"walk_accessibility":0.295,"metro_line_density":1.9383,"station_count":1,"line_count":1,"population_density":1065.5308,"poi_density":0.0,"poi_diversity":0.0,"gdp_density":4534.0004,"P":1065.5308,"I":0.0,"G":4534.0004},{"stationName":"上海奉浦大道(地铁站)","station_id":"上海奉浦大道(地铁站)_30.94410_121.44441","lineId":"上海地铁5号线","lat":30.94409721,"lon":121.44441493,"area_km2":1.1087,"D":0.0,"C":0.0,"T":0.0127,"U1":0.0253,"U2":0.0,"couplingDegree":0.0,"level":"极度失调","road_density":16.1657,"walk_accessibility":0.2223,"metro_line_density":2.4305,"station_count":1,"line_count":1,"population_density":0.0,"poi_density":0.0,"poi_diversity":0.0,"gdp_density":0.0,"P":0.0,"I":0.0,"G":0.0},{"stationName":"上海环城东路(地铁站)","station_id":"上海环城东路(地铁站)_30.93325_121.45867","lineId":"上海地铁5号线","lat":30.93324829,"lon":121.45867408,"area_km2":1.1811,"D":0.3278,"C":0.7135,"T":0.1506,"U1":0.0451,"U2":0.2561,"couplingDegree":0.3278,"level":"中度失调","road_density":14.2141,"walk_accessibility":0.2368,"metro_line_density":6.1351,"station_count":1,"line_count":1,"population_density":3209.6131,"poi_density":0.0,"poi_diversity":0.0,"gdp_density":8467.7882,"P":3209.6131,"I":0.0,"G":8467.7882},{"stationName":"上海望园路(地铁站)","station_id":"上海望园路(地铁站)_30.93444_121.47839","lineId":"上海上海南枫线(枫泾站--滴水湖北) / 上海地铁15号线 / 上海地铁5号线","lat":30.93443741666667,"lon":121.47838775999999,"area_km2":1.9953,"D":0.2006,"C":0.2465,"T":0.1633,"U1":0.3216,"U2":0.005,"couplingDegree":0.2006,"level":"中度失调","road_density":20.6521,"walk_accessibility":0.4001,"metro_line_density":6.1711,"station_count":2,"line_count":3,"population_density":1092.5505,"poi_density":0.0,"poi_diversity":0.0,"gdp_density":0.0,"P":1092.5505,"I":0.0,"G":0.0},{"stationName":"上海金海湖(地铁站)","station_id":"上海金海湖(地铁站)_30.93097_121.48807","lineId":"上海地铁5号线","lat":30.93096841,"lon":121.48807425,"area_km2":1.683,"D":0.1693,"C":0.1928,"T":0.1486,"U1":0.2944,"U2":0.0028,"couplingDegree":0.1693,"level":"极度失调","road_density":22.3848,"walk_accessibility":0.3374,"metro_line_density":2.3836,"station_count":2,"line_count":3,"population_density":604.284,"poi_density":0.0,"poi_diversity":0.0,"gdp_density":0.0,"P":604.284,"I":0.0,"G":0.0},{"stationName":"上海奉贤新城(地铁站)","station_id":"上海奉贤新城(地铁站)_30.91610_121.49187","lineId":"上海地铁5号线","lat":30.91609875,"lon":121.49187161,"area_km2":1.7155,"D":0.2631,"C":0.8513,"T":0.0813,"U1":0.0387,"U2":0.124,"couplingDegree":0.2631,"level":"中度失调","road_density":18.8465,"walk_accessibility":0.3439,"metro_line_density":0.8355,"station_count":1,"line_count":1,"population_density":1231.1491,"poi_density":0.0,"poi_diversity":0.0,"gdp_density":4151.4245,"P":1231.1491,"I":0.0,"G":4151.4245},{"stationName":"上海东方体育中心(地铁站)","station_id":"上海东方体育中心(地铁站)_31.15658_121.47608","lineId":"上海地铁19号线 / 上海地铁6号线 / 上海地铁8号线","lat":31.156584353333333,"lon":121.47607742333332,"area_km2":2.1706,"D":0.4882,"C":0.99,"T":0.2408,"U1":0.2747,"U2":0.2068,"couplingDegree":0.4882,"level":"勉强协调","road_density":24.7943,"walk_accessibility":0.4352,"metro_line_density":7.1867,"station_count":1,"line_count":3,"population_density":7977.9508,"poi_density":0.0,"poi_diversity":0.0,"gdp_density":5966.4384,"P":7977.9508,"I":0.0,"G":5966.4384},{"stationName":"上海灵岩南路(地铁站)","station_id":"上海灵岩南路(地铁站)_31.15071_121.49085","lineId":"上海地铁6号线","lat":31.15071059,"lon":121.49085397,"area_km2":2.3506,"D":0.5358,"C":0.94,"T":0.3054,"U1":0.4096,"U2":0.2012,"couplingDegree":0.5358,"level":"勉强协调","road_density":28.3257,"walk_accessibility":0.4713,"metro_line_density":4.2466,"station_count":3,"line_count":3,"population_density":7112.1102,"poi_density":0.0,"poi_diversity":0.0,"gdp_density":5907.9361,"P":7112.1102,"I":0.0,"G":5907.9361},{"stationName":"上海上南路(地铁站)","station_id":"上海上南路(地铁站)_31.15090_121.50205","lineId":"上海地铁6号线","lat":31.15089773,"lon":121.50204605,"area_km2":1.9552,"D":0.2817,"C":0.6038,"T":0.1314,"U1":0.2362,"U2":0.0267,"couplingDegree":0.2817,"level":"中度失调","road_density":27.9791,"walk_accessibility":0.392,"metro_line_density":5.124,"station_count":3,"line_count":1,"population_density":5778.4708,"poi_density":0.0,"poi_diversity":0.0,"gdp_density":0.0,"P":5778.4708,"I":0.0,"G":0.0},{"stationName":"上海华夏西路(地铁站)","station_id":"上海华夏西路(地铁站)_31.15198_121.51017","lineId":"上海地铁6号线","lat":31.15198098,"lon":121.51016731,"area_km2":1.5525,"D":0.5029,"C":0.9795,"T":0.2582,"U1":0.2061,"U2":0.3102,"couplingDegree":0.5029,"level":"勉强协调","road_density":24.4967,"walk_accessibility":0.3113,"metro_line_density":3.5681,"station_count":3,"line_count":1,"population_density":4971.9218,"poi_density":0.0,"poi_diversity":0.0,"gdp_density":10079.6468,"P":4971.9218,"I":0.0,"G":10079.6468},{"stationName":"上海高青路(地铁站)","station_id":"上海高青路(地铁站)_31.16201_121.51142","lineId":"上海地铁6号线","lat":31.16200657,"lon":121.51141843,"area_km2":1.5325,"D":0.288,"C":0.9356,"T":0.0886,"U1":0.1199,"U2":0.0573,"couplingDegree":0.288,"level":"中度失调","road_density":20.0671,"walk_accessibility":0.3073,"metro_line_density":2.9453,"station_count":2,"line_count":1,"population_density":12427.788,"poi_density":0.0,"poi_diversity":0.0,"gdp_density":0.0,"P":12427.788,"I":0.0,"G":0.0},{"stationName":"上海东明路(地铁站)","station_id":"上海东明路(地铁站)_31.17480_121.50693","lineId":"上海地铁13号线 / 上海地铁6号线","lat":31.17479533,"lon":121.50693477666668,"area_km2":1.8727,"D":0.2741,"C":0.8182,"T":0.0918,"U1":0.1446,"U2":0.039,"couplingDegree":0.2741,"level":"中度失调","road_density":17.1011,"walk_accessibility":0.3755,"metro_line_density":4.4794,"station_count":1,"line_count":2,"population_density":8459.4078,"poi_density":0.0,"poi_diversity":0.0,"gdp_density":0.0,"P":8459.4078,"I":0.0,"G":0.0},{"stationName":"上海高科西路(地铁站)","station_id":"上海高科西路(地铁站)_31.18783_121.50545","lineId":"上海地铁6号线","lat":31.18783031,"lon":121.50545234,"area_km2":2.3571,"D":0.3147,"C":0.8819,"T":0.1123,"U1":0.1652,"U2":0.0593,"couplingDegree":0.3147,"level":"中度失调","road_density":21.5364,"walk_accessibility":0.4726,"metro_line_density":6.0542,"station_count":2,"line_count":1,"population_density":12863.9184,"poi_density":0.0,"poi_diversity":0.0,"gdp_density":0.0,"P":12863.9184,"I":0.0,"G":0.0},{"stationName":"上海临沂新村(地铁站)","station_id":"上海临沂新村(地铁站)_31.19529_121.51233","lineId":"上海地铁6号线","lat":31.19528786,"lon":121.51232588,"area_km2":1.8068,"D":0.4783,"C":0.9202,"T":0.2486,"U1":0.1513,"U2":0.3459,"couplingDegree":0.4783,"level":"勉强协调","road_density":23.0859,"walk_accessibility":0.3623,"metro_line_density":5.4494,"station_count":2,"line_count":1,"population_density":7274.5695,"poi_density":0.0,"poi_diversity":0.0,"gdp_density":10958.8331,"P":7274.5695,"I":0.0,"G":10958.8331},{"stationName":"上海上海儿童医学中心(地铁站)","station_id":"上海上海儿童医学中心(地铁站)_31.20538_121.51914","lineId":"上海地铁6号线","lat":31.20537817,"lon":121.51913574,"area_km2":1.9186,"D":0.4237,"C":0.7368,"T":0.2437,"U1":0.4085,"U2":0.0789,"couplingDegree":0.4237,"level":"勉强协调","road_density":29.7189,"walk_accessibility":0.3847,"metro_line_density":5.2543,"station_count":3,"line_count":3,"population_density":17107.8752,"poi_density":0.0,"poi_diversity":0.0,"gdp_density":0.0,"P":17107.8752,"I":0.0,"G":0.0},{"stationName":"上海浦电路(地铁站)","station_id":"上海浦电路(地铁站)_31.22226_121.52502","lineId":"上海地铁6号线","lat":31.22226205,"lon":121.52502408,"area_km2":3.5274,"D":0.3896,"C":0.5322,"T":0.2851,"U1":0.5266,"U2":0.0437,"couplingDegree":0.3896,"level":"中度失调","road_density":30.6509,"walk_accessibility":0.7072,"metro_line_density":5.8811,"station_count":4,"line_count":3,"population_density":9480.7558,"poi_density":0.0,"poi_diversity":0.0,"gdp_density":0.0,"P":9480.7558,"I":0.0,"G":0.0},{"stationName":"上海源深体育中心(地铁站)","station_id":"上海源深体育中心(地铁站)_31.23512_121.53033","lineId":"上海地铁6号线","lat":31.2351201,"lon":121.53033035,"area_km2":3.228,"D":0.5927,"C":0.8771,"T":0.4005,"U1":0.5928,"U2":0.2081,"couplingDegree":0.5927,"level":"勉强协调","road_density":28.6685,"walk_accessibility":0.6472,"metro_line_density":5.2135,"station_count":4,"line_count":4,"population_density":7453.7924,"poi_density":0.0,"poi_diversity":0.0,"gdp_density":6096.8664,"P":7453.7924,"I":0.0,"G":6096.8664},{"stationName":"上海民生路(地铁站)","station_id":"上海民生路(地铁站)_31.23738_121.53996","lineId":"上海地铁18号线 / 上海地铁6号线","lat":31.237378485,"lon":121.53996086999999,"area_km2":2.6983,"D":0.5828,"C":0.9362,"T":0.3628,"U1":0.4904,"U2":0.2353,"couplingDegree":0.5828,"level":"勉强协调","road_density":27.0982,"walk_accessibility":0.541,"metro_line_density":5.1599,"station_count":4,"line_count":3,"population_density":5947.7219,"poi_density":0.0,"poi_diversity":0.0,"gdp_density":7293.6637,"P":5947.7219,"I":0.0,"G":7293.6637},{"stationName":"上海北洋泾路(地铁站)","station_id":"上海北洋泾路(地铁站)_31.24130_121.54805","lineId":"上海地铁6号线","lat":31.24129757,"lon":121.54804977,"area_km2":2.5411,"D":0.5785,"C":0.9847,"T":0.3399,"U1":0.3991,"U2":0.2807,"couplingDegree":0.5785,"level":"勉强协调","road_density":24.0314,"walk_accessibility":0.5095,"metro_line_density":3.6914,"station_count":3,"line_count":3,"population_density":13108.6522,"poi_density":0.0,"poi_diversity":0.0,"gdp_density":7725.9208,"P":13108.6522,"I":0.0,"G":7725.9208},{"stationName":"上海德平路(地铁站)","station_id":"上海德平路(地铁站)_31.24757_121.56000","lineId":"上海地铁6号线","lat":31.24757182,"lon":121.55999933,"area_km2":2.0621,"D":0.4125,"C":0.9443,"T":0.1802,"U1":0.2396,"U2":0.1209,"couplingDegree":0.4125,"level":"勉强协调","road_density":25.1248,"walk_accessibility":0.4134,"metro_line_density":4.1938,"station_count":2,"line_count":2,"population_density":26205.7829,"poi_density":0.0,"poi_diversity":0.0,"gdp_density":0.0,"P":26205.7829,"I":0.0,"G":0.0},{"stationName":"上海云山路(地铁站)","station_id":"上海云山路(地铁站)_31.25287_121.56774","lineId":"上海地铁14号线 / 上海地铁6号线","lat":31.25286957,"lon":121.56773864499999,"area_km2":2.2351,"D":0.6115,"C":0.9716,"T":0.3849,"U1":0.4759,"U2":0.2938,"couplingDegree":0.6115,"level":"良好协调","road_density":26.627,"walk_accessibility":0.4481,"metro_line_density":4.9999,"station_count":4,"line_count":3,"population_density":9550.9536,"poi_density":0.0,"poi_diversity":0.0,"gdp_density":8763.1865,"P":9550.9536,"I":0.0,"G":8763.1865},{"stationName":"上海金桥路(地铁站)","station_id":"上海金桥路(地铁站)_31.25927_121.57760","lineId":"上海地铁6号线","lat":31.25926813,"lon":121.57760381,"area_km2":2.3315,"D":0.5654,"C":1.0,"T":0.3197,"U1":0.322,"U2":0.3174,"couplingDegree":0.5654,"level":"勉强协调","road_density":30.9567,"walk_accessibility":0.4675,"metro_line_density":2.5563,"station_count":3,"line_count":2,"population_density":16902.3206,"poi_density":0.0,"poi_diversity":0.0,"gdp_density":8400.8867,"P":16902.3206,"I":0.0,"G":8400.8867},{"stationName":"上海博兴路(地铁站)","station_id":"上海博兴路(地铁站)_31.26571_121.58248","lineId":"上海地铁6号线","lat":31.26570519,"lon":121.582479955,"area_km2":2.5521,"D":0.3121,"C":0.7266,"T":0.1341,"U1":0.2262,"U2":0.042,"couplingDegree":0.3121,"level":"中度失调","road_density":25.2733,"walk_accessibility":0.5117,"metro_line_density":2.2492,"station_count":3,"line_count":1,"population_density":9093.6952,"poi_density":0.0,"poi_diversity":0.0,"gdp_density":0.0,"P":9093.6952,"I":0.0,"G":0.0},{"stationName":"上海五莲路(地铁站)","station_id":"上海五莲路(地铁站)_31.27421_121.58366","lineId":"上海地铁6号线","lat":31.27420761,"lon":121.58365608,"area_km2":2.5665,"D":0.4941,"C":0.9982,"T":0.2446,"U1":0.2301,"U2":0.2591,"couplingDegree":0.4941,"level":"勉强协调","road_density":26.6698,"walk_accessibility":0.5146,"metro_line_density":2.1888,"station_count":3,"line_count":1,"population_density":9028.5919,"poi_density":0.0,"poi_diversity":0.0,"gdp_density":7628.7292,"P":9028.5919,"I":0.0,"G":7628.7292},{"stationName":"上海巨峰路(地铁站)","station_id":"上海巨峰路(地铁站)_31.28286_121.58416","lineId":"上海地铁6号线","lat":31.28286335,"lon":121.58415516,"area_km2":2.0424,"D":0.2776,"C":0.5689,"T":0.1354,"U1":0.2468,"U2":0.0241,"couplingDegree":0.2776,"level":"中度失调","road_density":36.0094,"walk_accessibility":0.4095,"metro_line_density":2.8967,"station_count":3,"line_count":1,"population_density":5213.0621,"poi_density":0.0,"poi_diversity":0.0,"gdp_density":0.0,"P":5213.0621,"I":0.0,"G":0.0},{"stationName":"上海东靖路(地铁站)","station_id":"上海东靖路(地铁站)_31.29286_121.58453","lineId":"上海地铁6号线","lat":31.29285883,"lon":121.5845257,"area_km2":1.8289,"D":0.2063,"C":0.4804,"T":0.0886,"U1":0.1662,"U2":0.0109,"couplingDegree":0.2063,"level":"中度失调","road_density":33.3699,"walk_accessibility":0.3667,"metro_line_density":3.1721,"station_count":2,"line_count":1,"population_density":2359.8981,"poi_density":0.0,"poi_diversity":0.0,"gdp_density":0.0,"P":2359.8981,"I":0.0,"G":0.0},{"stationName":"上海五洲大道(地铁站)","station_id":"上海五洲大道(地铁站)_31.30474_121.58500","lineId":"上海地铁6号线","lat":31.30473941,"lon":121.58500145,"area_km2":1.5003,"D":0.157,"C":0.3405,"T":0.0724,"U1":0.1405,"U2":0.0043,"couplingDegree":0.157,"level":"极度失调","road_density":25.7264,"walk_accessibility":0.3008,"metro_line_density":3.8411,"station_count":2,"line_count":1,"population_density":937.793,"poi_density":0.0,"poi_diversity":0.0,"gdp_density":0.0,"P":937.793,"I":0.0,"G":0.0},{"stationName":"上海洲海路(地铁站)","station_id":"上海洲海路(地铁站)_31.31440_121.58518","lineId":"上海地铁6号线","lat":31.314395570000002,"lon":121.585184605,"area_km2":1.6024,"D":0.2284,"C":0.6512,"T":0.0801,"U1":0.141,"U2":0.0193,"couplingDegree":0.2284,"level":"中度失调","road_density":20.5525,"walk_accessibility":0.3213,"metro_line_density":5.7799,"station_count":2,"line_count":1,"population_density":4188.2024,"poi_density":0.0,"poi_diversity":0.0,"gdp_density":0.0,"P":4188.2024,"I":0.0,"G":0.0},{"stationName":"上海外高桥保税区南(地铁站)","station_id":"上海外高桥保税区南(地铁站)_31.32374_121.59775","lineId":"上海地铁6号线","lat":31.32374186,"lon":121.59775472,"area_km2":1.5304,"D":0.1825,"C":0.7845,"T":0.0425,"U1":0.0688,"U2":0.0161,"couplingDegree":0.1825,"level":"极度失调","road_density":22.3189,"walk_accessibility":0.3068,"metro_line_density":4.8554,"station_count":1,"line_count":1,"population_density":3495.795,"poi_density":0.0,"poi_diversity":0.0,"gdp_density":0.0,"P":3495.795,"I":0.0,"G":0.0},{"stationName":"上海航津路(地铁站)","station_id":"上海航津路(地铁站)_31.33753_121.58976","lineId":"上海地铁6号线","lat":31.33752986,"lon":121.58976359,"area_km2":1.8542,"D":0.3634,"C":0.6617,"T":0.1996,"U1":0.0499,"U2":0.3492,"couplingDegree":0.3634,"level":"中度失调","road_density":16.9689,"walk_accessibility":0.3718,"metro_line_density":2.8817,"station_count":1,"line_count":1,"population_density":20631.0279,"poi_density":0.0,"poi_diversity":0.0,"gdp_density":8913.379,"P":20631.0279,"I":0.0,"G":8913.379},{"stationName":"上海外高桥保税区北(地铁站)","station_id":"上海外高桥保税区北(地铁站)_31.34996_121.58271","lineId":"上海地铁6号线","lat":31.34995506,"lon":121.582710265,"area_km2":2.1018,"D":0.2249,"C":0.9921,"T":0.051,"U1":0.0574,"U2":0.0446,"couplingDegree":0.2249,"level":"中度失调","road_density":18.7316,"walk_accessibility":0.4214,"metro_line_density":2.2528,"station_count":1,"line_count":1,"population_density":9671.5468,"poi_density":0.0,"poi_diversity":0.0,"gdp_density":0.0,"P":9671.5468,"I":0.0,"G":0.0},{"stationName":"上海港城路(地铁站)","station_id":"上海港城路(地铁站)_31.35530_121.57079","lineId":"上海地铁10号线 / 上海地铁6号线","lat":31.355295995,"lon":121.5707851,"area_km2":1.9885,"D":0.4719,"C":0.9108,"T":0.2445,"U1":0.1436,"U2":0.3455,"couplingDegree":0.4719,"level":"勉强协调","road_density":19.4051,"walk_accessibility":0.3987,"metro_line_density":2.8116,"station_count":1,"line_count":2,"population_density":14559.6827,"poi_density":0.0,"poi_diversity":0.0,"gdp_density":9764.9432,"P":14559.6827,"I":0.0,"G":9764.9432},{"stationName":"上海肇嘉浜路(地铁站)","station_id":"上海肇嘉浜路(地铁站)_31.20084_121.44576","lineId":"上海地铁7号线 / 上海地铁9号线","lat":31.200835186666666,"lon":121.44575531666668,"area_km2":2.6178,"D":0.6352,"C":0.9487,"T":0.4252,"U1":0.5597,"U2":0.2908,"couplingDegree":0.6352,"level":"良好协调","road_density":19.953,"walk_accessibility":0.5249,"metro_line_density":6.3588,"station_count":4,"line_count":4,"population_density":63029.2177,"poi_density":0.0,"poi_diversity":0.0,"gdp_density":0.0,"P":63029.2177,"I":0.0,"G":0.0},{"stationName":"上海沈杜公路(地铁站)","station_id":"上海沈杜公路(地铁站)_31.06329_121.50803","lineId":"上海上海轨道交通浦江线(汇臻路--沈杜公路) / 上海上海轨道交通浦江线(沈杜公路--汇臻路) / 上海地铁8号线","lat":31.06329439,"lon":121.50802977666667,"area_km2":1.9034,"D":0.1729,"C":0.2609,"T":0.1146,"U1":0.2252,"U2":0.004,"couplingDegree":0.1729,"level":"极度失调","road_density":19.7658,"walk_accessibility":0.3816,"metro_line_density":2.6618,"station_count":1,"line_count":3,"population_density":860.5504,"poi_density":0.0,"poi_diversity":0.0,"gdp_density":0.0,"P":860.5504,"I":0.0,"G":0.0},{"stationName":"上海联航路(地铁站)","station_id":"上海联航路(地铁站)_31.07570_121.50621","lineId":"上海地铁8号线","lat":31.07569844,"lon":121.50621353,"area_km2":2.453,"D":0.19,"C":0.4721,"T":0.0765,"U1":0.1439,"U2":0.0091,"couplingDegree":0.19,"level":"极度失调","road_density":21.4697,"walk_accessibility":0.4918,"metro_line_density":2.3021,"station_count":2,"line_count":1,"population_density":1963.7129,"poi_density":0.0,"poi_diversity":0.0,"gdp_density":0.0,"P":1963.7129,"I":0.0,"G":0.0},{"stationName":"上海江月路(地铁站)","station_id":"上海江月路(地铁站)_31.08637_121.50422","lineId":"上海地铁8号线","lat":31.08637366,"lon":121.50421528000001,"area_km2":2.3797,"D":0.1431,"C":0.2839,"T":0.0722,"U1":0.1413,"U2":0.003,"couplingDegree":0.1431,"level":"极度失调","road_density":21.0974,"walk_accessibility":0.4771,"metro_line_density":2.3611,"station_count":2,"line_count":1,"population_density":643.3516,"poi_density":0.0,"poi_diversity":0.0,"gdp_density":0.0,"P":643.3516,"I":0.0,"G":0.0},{"stationName":"上海浦江镇(地铁站)","station_id":"上海浦江镇(地铁站)_31.09870_121.50187","lineId":"上海地铁8号线","lat":31.09869707,"lon":121.50187481,"area_km2":2.1311,"D":0.3175,"C":0.8661,"T":0.1164,"U1":0.0582,"U2":0.1745,"couplingDegree":0.3175,"level":"中度失调","road_density":19.7048,"walk_accessibility":0.4273,"metro_line_density":1.8296,"station_count":1,"line_count":1,"population_density":3223.292,"poi_density":0.0,"poi_diversity":0.0,"gdp_density":5602.2717,"P":3223.292,"I":0.0,"G":5602.2717},{"stationName":"上海芦恒路(地铁站)","station_id":"上海芦恒路(地铁站)_31.12113_121.49380","lineId":"上海地铁8号线","lat":31.12112846,"lon":121.49379766,"area_km2":1.9116,"D":0.3403,"C":0.8813,"T":0.1314,"U1":0.0693,"U2":0.1935,"couplingDegree":0.3403,"level":"中度失调","road_density":23.9106,"walk_accessibility":0.3833,"metro_line_density":2.6441,"station_count":1,"line_count":1,"population_density":654.9601,"poi_density":0.0,"poi_diversity":0.0,"gdp_density":6683.0245,"P":654.9601,"I":0.0,"G":6683.0245},{"stationName":"上海凌兆新村(地铁站)","station_id":"上海凌兆新村(地铁站)_31.14296_121.48393","lineId":"上海地铁19号线 / 上海地铁8号线","lat":31.142961285,"lon":121.48392774,"area_km2":2.1316,"D":0.3731,"C":0.7079,"T":0.1967,"U1":0.3356,"U2":0.0578,"couplingDegree":0.3731,"level":"中度失调","road_density":27.1382,"walk_accessibility":0.4274,"metro_line_density":4.9542,"station_count":2,"line_count":3,"population_density":12519.9728,"poi_density":0.0,"poi_diversity":0.0,"gdp_density":0.0,"P":12519.9728,"I":0.0,"G":0.0},{"stationName":"上海杨思(地铁站)","station_id":"上海杨思(地铁站)_31.16309_121.48899","lineId":"上海地铁8号线","lat":31.16308806,"lon":121.48899317,"area_km2":1.5984,"D":0.3039,"C":0.7752,"T":0.1192,"U1":0.1945,"U2":0.0439,"couplingDegree":0.3039,"level":"中度失调","road_density":15.7331,"walk_accessibility":0.3205,"metro_line_density":3.1212,"station_count":2,"line_count":2,"population_density":9512.5561,"poi_density":0.0,"poi_diversity":0.0,"gdp_density":0.0,"P":9512.5561,"I":0.0,"G":0.0},{"stationName":"上海成山路(地铁站)","station_id":"上海成山路(地铁站)_31.17302_121.49230","lineId":"上海地铁13号线 / 上海地铁8号线","lat":31.173015470000003,"lon":121.492296005,"area_km2":1.7549,"D":0.5226,"C":0.9707,"T":0.2814,"U1":0.2138,"U2":0.349,"couplingDegree":0.5226,"level":"勉强协调","road_density":16.9118,"walk_accessibility":0.3518,"metro_line_density":5.016,"station_count":2,"line_count":2,"population_density":5914.4364,"poi_density":0.0,"poi_diversity":0.0,"gdp_density":11287.6873,"P":5914.4364,"I":0.0,"G":11287.6873},{"stationName":"上海中华艺术宫(地铁站)","station_id":"上海中华艺术宫(地铁站)_31.18726_121.48918","lineId":"上海地铁8号线","lat":31.1872639,"lon":121.48917574,"area_km2":2.3299,"D":0.4125,"C":0.8591,"T":0.1981,"U1":0.0967,"U2":0.2995,"couplingDegree":0.4125,"level":"勉强协调","road_density":22.2419,"walk_accessibility":0.4671,"metro_line_density":5.9999,"station_count":1,"line_count":1,"population_density":12269.6325,"poi_density":0.0,"poi_diversity":0.0,"gdp_density":8521.4678,"P":12269.6325,"I":0.0,"G":8521.4678},{"stationName":"上海陆家浜路(地铁站)","station_id":"上海陆家浜路(地铁站)_31.21378_121.48164","lineId":"上海地铁8号线","lat":31.213775425,"lon":121.48163531,"area_km2":3.6408,"D":0.6827,"C":0.9402,"T":0.4957,"U1":0.6646,"U2":0.3268,"couplingDegree":0.6827,"level":"良好协调","road_density":23.2047,"walk_accessibility":0.73,"metro_line_density":4.0091,"station_count":4,"line_count":5,"population_density":45084.6281,"poi_density":0.0,"poi_diversity":0.0,"gdp_density":4168.0297,"P":45084.6281,"I":0.0,"G":4168.0297},{"stationName":"上海老西门(地铁站)","station_id":"上海老西门(地铁站)_31.22087_121.47890","lineId":"上海地铁10号线 / 上海地铁8号线","lat":31.220867165,"lon":121.47890408,"area_km2":3.7962,"D":0.678,"C":0.8453,"T":0.5438,"U1":0.8343,"U2":0.2533,"couplingDegree":0.678,"level":"良好协调","road_density":25.9341,"walk_accessibility":0.7611,"metro_line_density":4.7906,"station_count":5,"line_count":6,"population_density":30209.3493,"poi_density":0.0,"poi_diversity":0.0,"gdp_density":3997.48,"P":30209.3493,"I":0.0,"G":3997.48},{"stationName":"上海大世界(地铁站)","station_id":"上海大世界(地铁站)_31.22911_121.47523","lineId":"上海地铁14号线 / 上海地铁8号线","lat":31.229105465,"lon":121.4752349,"area_km2":4.0319,"D":0.681,"C":0.8768,"T":0.5289,"U1":0.7832,"U2":0.2745,"couplingDegree":0.681,"level":"良好协调","road_density":33.8766,"walk_accessibility":0.8084,"metro_line_density":5.4774,"station_count":5,"line_count":5,"population_density":36274.0914,"poi_density":0.0,"poi_diversity":0.0,"gdp_density":3761.4544,"P":36274.0914,"I":0.0,"G":3761.4544},{"stationName":"上海曲阜路(地铁站)","station_id":"上海曲阜路(地铁站)_31.24424_121.46701","lineId":"上海地铁8号线","lat":31.24423809,"lon":121.46701185,"area_km2":3.5113,"D":0.6087,"C":0.7539,"T":0.4915,"U1":0.8144,"U2":0.1686,"couplingDegree":0.6087,"level":"良好协调","road_density":28.5897,"walk_accessibility":0.704,"metro_line_density":3.9146,"station_count":6,"line_count":5,"population_density":36534.6463,"poi_density":0.0,"poi_diversity":0.0,"gdp_density":0.0,"P":36534.6463,"I":0.0,"G":0.0},{"stationName":"上海中兴路(地铁站)","station_id":"上海中兴路(地铁站)_31.25515_121.46449","lineId":"上海地铁8号线","lat":31.25514782,"lon":121.46448545,"area_km2":2.6416,"D":0.7258,"C":0.9993,"T":0.5271,"U1":0.5472,"U2":0.5071,"couplingDegree":0.7258,"level":"良好协调","road_density":24.6901,"walk_accessibility":0.5296,"metro_line_density":4.4617,"station_count":5,"line_count":3,"population_density":74409.4265,"poi_density":0.0,"poi_diversity":0.0,"gdp_density":5747.753,"P":74409.4265,"I":0.0,"G":5747.753},{"stationName":"上海西藏北路(地铁站)","station_id":"上海西藏北路(地铁站)_31.26537_121.46428","lineId":"上海地铁8号线","lat":31.26536738,"lon":121.46427653,"area_km2":2.7645,"D":0.593,"C":0.9644,"T":0.3646,"U1":0.4611,"U2":0.2681,"couplingDegree":0.593,"level":"勉强协调","road_density":23.0797,"walk_accessibility":0.5543,"metro_line_density":2.0127,"station_count":4,"line_count":3,"population_density":58120.7455,"poi_density":0.0,"poi_diversity":0.0,"gdp_density":0.0,"P":58120.7455,"I":0.0,"G":0.0},{"stationName":"上海曲阳路(地铁站)","station_id":"上海曲阳路(地铁站)_31.27850_121.48667","lineId":"上海地铁8号线","lat":31.27849665,"lon":121.48667163,"area_km2":3.2734,"D":0.5831,"C":0.9984,"T":0.3405,"U1":0.3595,"U2":0.3215,"couplingDegree":0.5831,"level":"勉强协调","road_density":32.62,"walk_accessibility":0.6563,"metro_line_density":3.8666,"station_count":3,"line_count":2,"population_density":41173.5021,"poi_density":0.0,"poi_diversity":0.0,"gdp_density":4616.8866,"P":41173.5021,"I":0.0,"G":4616.8866},{"stationName":"上海四平路(地铁站)","station_id":"上海四平路(地铁站)_31.27688_121.49706","lineId":"上海地铁8号线","lat":31.27688415,"lon":121.49705802,"area_km2":3.3571,"D":0.5567,"C":0.9877,"T":0.3138,"U1":0.2648,"U2":0.3628,"couplingDegree":0.5567,"level":"勉强协调","road_density":29.1243,"walk_accessibility":0.6731,"metro_line_density":3.319,"station_count":3,"line_count":1,"population_density":50833.4518,"poi_density":0.0,"poi_diversity":0.0,"gdp_density":4501.7917,"P":50833.4518,"I":0.0,"G":4501.7917},{"stationName":"上海鞍山新村(地铁站)","station_id":"上海鞍山新村(地铁站)_31.27527_121.50528","lineId":"上海地铁8号线","lat":31.27527032,"lon":121.50528451,"area_km2":2.8775,"D":0.5313,"C":0.9898,"T":0.2851,"U1":0.3257,"U2":0.2446,"couplingDegree":0.5313,"level":"勉强协调","road_density":24.9554,"walk_accessibility":0.5769,"metro_line_density":3.5302,"station_count":3,"line_count":2,"population_density":20647.1746,"poi_density":0.0,"poi_diversity":0.0,"gdp_density":5240.044,"P":20647.1746,"I":0.0,"G":5240.044},{"stationName":"上海江浦路(地铁站)","station_id":"上海江浦路(地铁站)_31.27640_121.51429","lineId":"上海地铁18号线 / 上海地铁8号线","lat":31.276395450000003,"lon":121.51428757,"area_km2":2.5623,"D":0.5733,"C":0.9997,"T":0.3288,"U1":0.3205,"U2":0.337,"couplingDegree":0.5733,"level":"勉强协调","road_density":24.1941,"walk_accessibility":0.5137,"metro_line_density":4.3641,"station_count":3,"line_count":2,"population_density":36702.754,"poi_density":0.0,"poi_diversity":0.0,"gdp_density":5884.7493,"P":36702.754,"I":0.0,"G":5884.7493},{"stationName":"上海黄兴路(地铁站)","station_id":"上海黄兴路(地铁站)_31.28089_121.52406","lineId":"上海地铁8号线","lat":31.280893405,"lon":121.52406494,"area_km2":2.3872,"D":0.4724,"C":0.956,"T":0.2334,"U1":0.3019,"U2":0.1649,"couplingDegree":0.4724,"level":"勉强协调","road_density":22.7077,"walk_accessibility":0.4786,"metro_line_density":2.7884,"station_count":3,"line_count":2,"population_density":35747.4447,"poi_density":0.0,"poi_diversity":0.0,"gdp_density":0.0,"P":35747.4447,"I":0.0,"G":0.0},{"stationName":"上海延吉中路(地铁站)","station_id":"上海延吉中路(地铁站)_31.29064_121.53062","lineId":"上海地铁8号线","lat":31.29063633,"lon":121.5306242,"area_km2":2.309,"D":0.5073,"C":0.971,"T":0.265,"U1":0.2017,"U2":0.3284,"couplingDegree":0.5073,"level":"勉强协调","road_density":18.4816,"walk_accessibility":0.4629,"metro_line_density":2.3789,"station_count":3,"line_count":1,"population_density":31051.9595,"poi_density":0.0,"poi_diversity":0.0,"gdp_density":6495.5499,"P":31051.9595,"I":0.0,"G":6495.5499},{"stationName":"上海黄兴公园(地铁站)","station_id":"上海黄兴公园(地铁站)_31.29748_121.52906","lineId":"上海地铁8号线","lat":31.297475249999998,"lon":121.52906191,"area_km2":2.0047,"D":0.4094,"C":0.9823,"T":0.1706,"U1":0.2026,"U2":0.1387,"couplingDegree":0.4094,"level":"勉强协调","road_density":20.6544,"walk_accessibility":0.4019,"metro_line_density":2.8202,"station_count":3,"line_count":1,"population_density":30062.5643,"poi_density":0.0,"poi_diversity":0.0,"gdp_density":0.0,"P":30062.5643,"I":0.0,"G":0.0},{"stationName":"上海翔殷路(地铁站)","station_id":"上海翔殷路(地铁站)_31.30708_121.52765","lineId":"上海地铁8号线","lat":31.30708029,"lon":121.52764644,"area_km2":2.2193,"D":0.4619,"C":0.9476,"T":0.2251,"U1":0.297,"U2":0.1532,"couplingDegree":0.4619,"level":"勉强协调","road_density":21.9071,"walk_accessibility":0.445,"metro_line_density":3.0631,"station_count":3,"line_count":2,"population_density":33211.2256,"poi_density":0.0,"poi_diversity":0.0,"gdp_density":0.0,"P":33211.2256,"I":0.0,"G":0.0},{"stationName":"上海嫩江路(地铁站)","station_id":"上海嫩江路(地铁站)_31.31682_121.52763","lineId":"上海地铁20号线 / 上海地铁8号线","lat":31.316820865,"lon":121.52763156500001,"area_km2":2.7628,"D":0.289,"C":0.4778,"T":0.1748,"U1":0.3283,"U2":0.0212,"couplingDegree":0.289,"level":"中度失调","road_density":26.6957,"walk_accessibility":0.5539,"metro_line_density":3.6514,"station_count":3,"line_count":2,"population_density":4603.2467,"poi_density":0.0,"poi_diversity":0.0,"gdp_density":0.0,"P":4603.2467,"I":0.0,"G":0.0},{"stationName":"上海市光路(地铁站)","station_id":"上海市光路(地铁站)_31.32480_121.52760","lineId":"上海地铁8号线","lat":31.32479686,"lon":121.52760498,"area_km2":3.0928,"D":0.3167,"C":0.6562,"T":0.1529,"U1":0.2683,"U2":0.0375,"couplingDegree":0.3167,"level":"中度失调","road_density":31.6403,"walk_accessibility":0.6201,"metro_line_density":1.5745,"station_count":2,"line_count":2,"population_density":8132.1774,"poi_density":0.0,"poi_diversity":0.0,"gdp_density":0.0,"P":8132.1774,"I":0.0,"G":0.0},{"stationName":"上海上海松江站(地铁站)","station_id":"上海上海松江站(地铁站)_30.98697_121.22647","lineId":"上海地铁9号线","lat":30.98696657,"lon":121.22647377,"area_km2":1.2,"D":0.1498,"C":0.872,"T":0.0257,"U1":0.0383,"U2":0.0131,"couplingDegree":0.1498,"level":"极度失调","road_density":20.3385,"walk_accessibility":0.2406,"metro_line_density":2.2699,"station_count":1,"line_count":1,"population_density":2848.2376,"poi_density":0.0,"poi_diversity":0.0,"gdp_density":0.0,"P":2848.2376,"I":0.0,"G":0.0},{"stationName":"上海醉白池(地铁站)","station_id":"上海醉白池(地铁站)_31.00326_121.22495","lineId":"上海地铁9号线","lat":31.00326411,"lon":121.22494796,"area_km2":1.4468,"D":0.0,"C":0.0,"T":0.0143,"U1":0.0287,"U2":0.0,"couplingDegree":0.0,"level":"极度失调","road_density":14.2777,"walk_accessibility":0.2901,"metro_line_density":2.3933,"station_count":1,"line_count":1,"population_density":0.0,"poi_density":0.0,"poi_diversity":0.0,"gdp_density":0.0,"P":0.0,"I":0.0,"G":0.0},{"stationName":"上海松江体育中心(地铁站)","station_id":"上海松江体育中心(地铁站)_31.01814_121.22613","lineId":"上海地铁9号线","lat":31.01813752,"lon":121.22613289,"area_km2":1.6322,"D":0.1996,"C":0.9741,"T":0.0409,"U1":0.0501,"U2":0.0316,"couplingDegree":0.1996,"level":"极度失调","road_density":20.4853,"walk_accessibility":0.3272,"metro_line_density":2.2791,"station_count":1,"line_count":1,"population_density":6857.6692,"poi_density":0.0,"poi_diversity":0.0,"gdp_density":0.0,"P":6857.6692,"I":0.0,"G":0.0},{"stationName":"上海松江新城(地铁站)","station_id":"上海松江新城(地铁站)_31.03242_121.22632","lineId":"上海地铁9号线","lat":31.032417995,"lon":121.226324765,"area_km2":2.2249,"D":0.3379,"C":0.8346,"T":0.1368,"U1":0.0614,"U2":0.2122,"couplingDegree":0.3379,"level":"中度失调","road_density":18.9058,"walk_accessibility":0.4461,"metro_line_density":2.3077,"station_count":1,"line_count":1,"population_density":1439.1667,"poi_density":0.0,"poi_diversity":0.0,"gdp_density":7211.6872,"P":1439.1667,"I":0.0,"G":7211.6872},{"stationName":"上海松江大学城(地铁站)","station_id":"上海松江大学城(地铁站)_31.05609_121.22816","lineId":"上海地铁9号线","lat":31.0560943,"lon":121.22816102,"area_km2":1.1224,"D":0.1447,"C":0.7492,"T":0.028,"U1":0.0465,"U2":0.0094,"couplingDegree":0.1447,"level":"极度失调","road_density":18.4722,"walk_accessibility":0.225,"metro_line_density":4.715,"station_count":1,"line_count":1,"population_density":2046.572,"poi_density":0.0,"poi_diversity":0.0,"gdp_density":0.0,"P":2046.572,"I":0.0,"G":0.0},{"stationName":"上海洞泾(地铁站)","station_id":"上海洞泾(地铁站)_31.08755_121.22653","lineId":"上海地铁12号线 / 上海地铁9号线","lat":31.087548495,"lon":121.226528635,"area_km2":1.3544,"D":0.2396,"C":0.6703,"T":0.0856,"U1":0.1491,"U2":0.0221,"couplingDegree":0.2396,"level":"中度失调","road_density":17.9555,"walk_accessibility":0.2715,"metro_line_density":6.9769,"station_count":1,"line_count":2,"population_density":4786.0518,"poi_density":0.0,"poi_diversity":0.0,"gdp_density":0.0,"P":4786.0518,"I":0.0,"G":0.0},{"stationName":"上海佘山(地铁站)","station_id":"上海佘山(地铁站)_31.10618_121.22526","lineId":"上海地铁9号线","lat":31.10617731,"lon":121.22526439,"area_km2":1.0185,"D":0.0,"C":0.0,"T":0.0155,"U1":0.031,"U2":0.0,"couplingDegree":0.0,"level":"极度失调","road_density":17.73,"walk_accessibility":0.2042,"metro_line_density":3.0154,"station_count":1,"line_count":1,"population_density":0.0,"poi_density":0.0,"poi_diversity":0.0,"gdp_density":0.0,"P":0.0,"I":0.0,"G":0.0},{"stationName":"上海泗泾(地铁站)","station_id":"上海泗泾(地铁站)_31.12035_121.25583","lineId":"上海地铁9号线","lat":31.12034919,"lon":121.25582661,"area_km2":1.2809,"D":0.3167,"C":0.6473,"T":0.155,"U1":0.0368,"U2":0.2731,"couplingDegree":0.3167,"level":"中度失调","road_density":14.6097,"walk_accessibility":0.2568,"metro_line_density":4.2346,"station_count":1,"line_count":1,"population_density":1469.2351,"poi_density":0.0,"poi_diversity":0.0,"gdp_density":9344.5573,"P":1469.2351,"I":0.0,"G":9344.5573},{"stationName":"上海九亭(地铁站)","station_id":"上海九亭(地铁站)_31.13924_121.31491","lineId":"上海地铁9号线","lat":31.13924213,"lon":121.31490693,"area_km2":2.3095,"D":0.1937,"C":0.7451,"T":0.0504,"U1":0.084,"U2":0.0168,"couplingDegree":0.1937,"level":"极度失调","road_density":25.8945,"walk_accessibility":0.463,"metro_line_density":2.441,"station_count":1,"line_count":1,"population_density":3635.9206,"poi_density":0.0,"poi_diversity":0.0,"gdp_density":0.0,"P":3635.9206,"I":0.0,"G":0.0},{"stationName":"上海中春路(地铁站)","station_id":"上海中春路(地铁站)_31.15136_121.33314","lineId":"上海地铁9号线","lat":31.15136424,"lon":121.33314206,"area_km2":1.8707,"D":0.5068,"C":0.9934,"T":0.2586,"U1":0.229,"U2":0.2882,"couplingDegree":0.5068,"level":"勉强协调","road_density":25.3538,"walk_accessibility":0.3751,"metro_line_density":3.2076,"station_count":2,"line_count":2,"population_density":1875.8014,"poi_density":0.0,"poi_diversity":0.0,"gdp_density":9809.5542,"P":1875.8014,"I":0.0,"G":9809.5542},{"stationName":"上海七宝(地铁站)","station_id":"上海七宝(地铁站)_31.15692_121.34418","lineId":"上海地铁9号线 / 上海地铁嘉闵线","lat":31.156921466666663,"lon":121.34417625333333,"area_km2":1.9671,"D":0.5068,"C":0.9956,"T":0.258,"U1":0.2338,"U2":0.2822,"couplingDegree":0.5068,"level":"勉强协调","road_density":20.2477,"walk_accessibility":0.3944,"metro_line_density":5.8346,"station_count":2,"line_count":2,"population_density":3547.793,"poi_density":0.0,"poi_diversity":0.0,"gdp_density":9328.4796,"P":3547.793,"I":0.0,"G":9328.4796},{"stationName":"上海星中路(地铁站)","station_id":"上海星中路(地铁站)_31.16000_121.36428","lineId":"上海地铁9号线","lat":31.16000252,"lon":121.36428409,"area_km2":1.7559,"D":0.1763,"C":0.8753,"T":0.0355,"U1":0.0527,"U2":0.0183,"couplingDegree":0.1763,"level":"极度失调","road_density":19.0233,"walk_accessibility":0.352,"metro_line_density":2.8139,"station_count":1,"line_count":1,"population_density":3972.391,"poi_density":0.0,"poi_diversity":0.0,"gdp_density":0.0,"P":3972.391,"I":0.0,"G":0.0},{"stationName":"上海合川路(地铁站)","station_id":"上海合川路(地铁站)_31.16842_121.38013","lineId":"上海地铁9号线","lat":31.168415080000003,"lon":121.380134035,"area_km2":1.7037,"D":0.1897,"C":0.9734,"T":0.037,"U1":0.0454,"U2":0.0285,"couplingDegree":0.1897,"level":"极度失调","road_density":16.7016,"walk_accessibility":0.3416,"metro_line_density":2.9129,"station_count":1,"line_count":1,"population_density":6179.6035,"poi_density":0.0,"poi_diversity":0.0,"gdp_density":0.0,"P":6179.6035,"I":0.0,"G":0.0},{"stationName":"上海漕河泾开发区(地铁站)","station_id":"上海漕河泾开发区(地铁站)_31.17251_121.39312","lineId":"上海地铁9号线","lat":31.17250887,"lon":121.3931236,"area_km2":2.2468,"D":0.3524,"C":0.8427,"T":0.1474,"U1":0.068,"U2":0.2267,"couplingDegree":0.3524,"level":"中度失调","road_density":20.5243,"walk_accessibility":0.4505,"metro_line_density":2.5474,"station_count":1,"line_count":1,"population_density":6976.0895,"poi_density":0.0,"poi_diversity":0.0,"gdp_density":6827.1767,"P":6976.0895,"I":0.0,"G":6827.1767},{"stationName":"上海桂林路(地铁站)","station_id":"上海桂林路(地铁站)_31.17776_121.41207","lineId":"上海地铁15号线 / 上海地铁9号线","lat":31.177757465,"lon":121.412065185,"area_km2":1.4365,"D":0.4615,"C":0.8968,"T":0.2375,"U1":0.1324,"U2":0.3426,"couplingDegree":0.4615,"level":"勉强协调","road_density":15.8224,"walk_accessibility":0.288,"metro_line_density":4.9229,"station_count":1,"line_count":2,"population_density":8469.7418,"poi_density":0.0,"poi_diversity":0.0,"gdp_density":10651.4488,"P":8469.7418,"I":0.0,"G":10651.4488},{"stationName":"上海嘉善路(地铁站)","station_id":"上海嘉善路(地铁站)_31.20474_121.45614","lineId":"上海地铁9号线","lat":31.20474139,"lon":121.45614375,"area_km2":2.9395,"D":0.6389,"C":0.9924,"T":0.4114,"U1":0.4621,"U2":0.3606,"couplingDegree":0.6389,"level":"良好协调","road_density":20.5107,"walk_accessibility":0.5894,"metro_line_density":2.5865,"station_count":4,"line_count":3,"population_density":46214.5619,"poi_density":0.0,"poi_diversity":0.0,"gdp_density":5171.8523,"P":46214.5619,"I":0.0,"G":5171.8523},{"stationName":"上海打浦桥(地铁站)","station_id":"上海打浦桥(地铁站)_31.20825_121.46414","lineId":"上海地铁9号线","lat":31.20824992,"lon":121.46414482,"area_km2":2.6557,"D":0.6682,"C":0.9992,"T":0.4468,"U1":0.4649,"U2":0.4287,"couplingDegree":0.6682,"level":"良好协调","road_density":23.2659,"walk_accessibility":0.5325,"metro_line_density":2.9828,"station_count":4,"line_count":3,"population_density":92920.3232,"poi_density":0.0,"poi_diversity":0.0,"gdp_density":0.0,"P":92920.3232,"I":0.0,"G":0.0},{"stationName":"上海马当路(地铁站)","station_id":"上海马当路(地铁站)_31.21169_121.47222","lineId":"上海地铁13号线 / 上海地铁9号线","lat":31.21168604,"lon":121.47222043,"area_km2":2.9886,"D":0.7457,"C":0.9685,"T":0.5742,"U1":0.7171,"U2":0.4313,"couplingDegree":0.7457,"level":"良好协调","road_density":22.8414,"walk_accessibility":0.5992,"metro_line_density":4.2039,"station_count":5,"line_count":5,"population_density":62115.2614,"poi_density":0.0,"poi_diversity":0.0,"gdp_density":5077.6104,"P":62115.2614,"I":0.0,"G":5077.6104},{"stationName":"上海小南门(地铁站)","station_id":"上海小南门(地铁站)_31.21889_121.49396","lineId":"上海地铁9号线","lat":31.21888723,"lon":121.49396252,"area_km2":3.5563,"D":0.4826,"C":0.9805,"T":0.2375,"U1":0.2842,"U2":0.1908,"couplingDegree":0.4826,"level":"勉强协调","road_density":31.8174,"walk_accessibility":0.713,"metro_line_density":2.0957,"station_count":2,"line_count":2,"population_density":21388.212,"poi_density":0.0,"poi_diversity":0.0,"gdp_density":3233.0798,"P":21388.212,"I":0.0,"G":3233.0798},{"stationName":"上海商城路(地铁站)","station_id":"上海商城路(地铁站)_31.23215_121.51133","lineId":"上海地铁19号线 / 上海地铁9号线","lat":31.232148855,"lon":121.511331095,"area_km2":4.1883,"D":0.623,"C":0.8906,"T":0.4358,"U1":0.6339,"U2":0.2376,"couplingDegree":0.623,"level":"良好协调","road_density":34.9753,"walk_accessibility":0.8397,"metro_line_density":4.9627,"station_count":4,"line_count":4,"population_density":22336.5262,"poi_density":0.0,"poi_diversity":0.0,"gdp_density":4720.3762,"P":22336.5262,"I":0.0,"G":4720.3762},{"stationName":"上海杨高中路(地铁站)","station_id":"上海杨高中路(地铁站)_31.22898_121.54460","lineId":"上海地铁18号线 / 上海地铁9号线","lat":31.228979550000002,"lon":121.54460059333333,"area_km2":3.432,"D":0.362,"C":0.4185,"T":0.3132,"U1":0.5977,"U2":0.0287,"couplingDegree":0.362,"level":"中度失调","road_density":32.1662,"walk_accessibility":0.6881,"metro_line_density":3.5943,"station_count":4,"line_count":4,"population_density":6230.1629,"poi_density":0.0,"poi_diversity":0.0,"gdp_density":0.0,"P":6230.1629,"I":0.0,"G":0.0},{"stationName":"上海芳甸路(地铁站)","station_id":"上海芳甸路(地铁站)_31.23401_121.55418","lineId":"上海地铁9号线","lat":31.23401308,"lon":121.55418296,"area_km2":3.5854,"D":0.5413,"C":0.9252,"T":0.3167,"U1":0.4369,"U2":0.1965,"couplingDegree":0.5413,"level":"勉强协调","road_density":31.5332,"walk_accessibility":0.7189,"metro_line_density":2.0282,"station_count":3,"line_count":3,"population_density":8769.2182,"poi_density":0.0,"poi_diversity":0.0,"gdp_density":5475.5957,"P":8769.2182,"I":0.0,"G":5475.5957},{"stationName":"上海蓝天路(地铁站)","station_id":"上海蓝天路(地铁站)_31.24322_121.57378","lineId":"上海地铁9号线","lat":31.24321721,"lon":121.57377788,"area_km2":2.4877,"D":0.3408,"C":0.5875,"T":0.1977,"U1":0.3576,"U2":0.0377,"couplingDegree":0.3408,"level":"中度失调","road_density":32.6772,"walk_accessibility":0.4988,"metro_line_density":4.5206,"station_count":2,"line_count":3,"population_density":8172.8527,"poi_density":0.0,"poi_diversity":0.0,"gdp_density":0.0,"P":8172.8527,"I":0.0,"G":0.0},{"stationName":"上海台儿庄路(地铁站)","station_id":"上海台儿庄路(地铁站)_31.25502_121.59326","lineId":"上海地铁9号线","lat":31.255017475,"lon":121.59325525,"area_km2":2.34,"D":0.4365,"C":0.9309,"T":0.2047,"U1":0.1299,"U2":0.2794,"couplingDegree":0.4365,"level":"勉强协调","road_density":41.9035,"walk_accessibility":0.4692,"metro_line_density":2.5164,"station_count":1,"line_count":1,"population_density":9135.3329,"poi_density":0.0,"poi_diversity":0.0,"gdp_density":8325.8368,"P":9135.3329,"I":0.0,"G":8325.8368},{"stationName":"上海金桥(地铁站)","station_id":"上海金桥(地铁站)_31.26303_121.60713","lineId":"上海地铁9号线","lat":31.26303485,"lon":121.60713097499999,"area_km2":1.7599,"D":0.2911,"C":0.9134,"T":0.0928,"U1":0.1305,"U2":0.055,"couplingDegree":0.2911,"level":"中度失调","road_density":45.8194,"walk_accessibility":0.3529,"metro_line_density":3.2965,"station_count":1,"line_count":1,"population_density":11921.1053,"poi_density":0.0,"poi_diversity":0.0,"gdp_density":0.0,"P":11921.1053,"I":0.0,"G":0.0},{"stationName":"上海金吉路(地铁站)","station_id":"上海金吉路(地铁站)_31.26649_121.62280","lineId":"上海地铁22号线 / 上海地铁9号线","lat":31.266493240000003,"lon":121.62280082999999,"area_km2":1.9916,"D":0.2831,"C":0.5323,"T":0.1506,"U1":0.278,"U2":0.0231,"couplingDegree":0.2831,"level":"中度失调","road_density":39.6388,"walk_accessibility":0.3993,"metro_line_density":4.1688,"station_count":2,"line_count":2,"population_density":5008.0411,"poi_density":0.0,"poi_diversity":0.0,"gdp_density":0.0,"P":5008.0411,"I":0.0,"G":0.0},{"stationName":"上海金海路(地铁站)","station_id":"上海金海路(地铁站)_31.26596_121.63473","lineId":"上海地铁9号线","lat":31.26596009,"lon":121.63473323,"area_km2":1.8053,"D":0.0,"C":0.0,"T":0.1249,"U1":0.2498,"U2":0.0,"couplingDegree":0.0,"level":"极度失调","road_density":33.396,"walk_accessibility":0.362,"metro_line_density":3.2233,"station_count":2,"line_count":2,"population_density":0.0,"poi_density":0.0,"poi_diversity":0.0,"gdp_density":0.0,"P":0.0,"I":0.0,"G":0.0},{"stationName":"上海顾唐路(地铁站)","station_id":"上海顾唐路(地铁站)_31.26820_121.65220","lineId":"上海地铁9号线","lat":31.26819839,"lon":121.65220211,"area_km2":2.1006,"D":0.4058,"C":0.9955,"T":0.1654,"U1":0.1498,"U2":0.181,"couplingDegree":0.4058,"level":"勉强协调","road_density":25.8551,"walk_accessibility":0.4212,"metro_line_density":2.7544,"station_count":2,"line_count":1,"population_density":3768.9987,"poi_density":0.0,"poi_diversity":0.0,"gdp_density":5741.9722,"P":3768.9987,"I":0.0,"G":5741.9722},{"stationName":"上海民雷路(地铁站)","station_id":"上海民雷路(地铁站)_31.27044_121.66384","lineId":"上海地铁9号线","lat":31.27043577,"lon":121.66383869,"area_km2":1.5937,"D":0.224,"C":0.628,"T":0.0799,"U1":0.1421,"U2":0.0177,"couplingDegree":0.224,"level":"中度失调","road_density":26.1163,"walk_accessibility":0.3195,"metro_line_density":3.5389,"station_count":2,"line_count":1,"population_density":3842.025,"poi_density":0.0,"poi_diversity":0.0,"gdp_density":0.0,"P":3842.025,"I":0.0,"G":0.0},{"stationName":"上海曹路(地铁站)","station_id":"上海曹路(地铁站)_31.27337_121.67884","lineId":"上海地铁9号线","lat":31.27336834,"lon":121.67883823,"area_km2":1.7004,"D":0.1861,"C":0.8684,"T":0.0399,"U1":0.0597,"U2":0.0201,"couplingDegree":0.1861,"level":"极度失调","road_density":24.5041,"walk_accessibility":0.3409,"metro_line_density":1.7292,"station_count":1,"line_count":1,"population_density":4358.2679,"poi_density":0.0,"poi_diversity":0.0,"gdp_density":0.0,"P":4358.2679,"I":0.0,"G":0.0}]}