{"cityCode":"510100","year":2010,"stations":[{"stationName":"成都韦家碾(地铁站)","station_id":"成都韦家碾(地铁站)_30.72083_104.08385","lineId":"成都地铁1号线 / 成都成都S11号线(德阳线)(韦家碾--德阳北站)","lat":30.72082873,"lon":104.08385342,"area_km2":1.6505,"D":0.2148,"C":0.4098,"T":0.1126,"U1":0.2153,"U2":0.0099,"couplingDegree":0.2148,"level":"中度失调","road_density":27.2158,"walk_accessibility":0.3309,"metro_line_density":3.2387,"station_count":1,"line_count":2,"population_density":3851.6412,"poi_density":0.0,"poi_diversity":0.0,"gdp_density":0.0,"P":3851.6412,"I":0.0,"G":0.0},{"stationName":"成都升仙湖(地铁站)","station_id":"成都升仙湖(地铁站)_30.70701_104.08094","lineId":"成都地铁1号线","lat":30.70700627,"lon":104.08093818,"area_km2":1.1795,"D":0.0,"C":0.0,"T":0.0407,"U1":0.0813,"U2":0.0,"couplingDegree":0.0,"level":"极度失调","road_density":23.8426,"walk_accessibility":0.2365,"metro_line_density":3.6751,"station_count":1,"line_count":1,"population_density":0.0,"poi_density":0.0,"poi_diversity":0.0,"gdp_density":0.0,"P":0.0,"I":0.0,"G":0.0},{"stationName":"成都火车北站(地铁站)","station_id":"成都火车北站(地铁站)_30.69790_104.07152","lineId":"成都地铁18号线 / 成都地铁1号线","lat":30.697896765,"lon":104.07152233,"area_km2":1.4845,"D":0.4724,"C":0.7908,"T":0.2822,"U1":0.4549,"U2":0.1095,"couplingDegree":0.4724,"level":"勉强协调","road_density":25.5147,"walk_accessibility":0.2976,"metro_line_density":7.746,"station_count":2,"line_count":3,"population_density":42639.8275,"poi_density":0.0,"poi_diversity":0.0,"gdp_density":0.0,"P":42639.8275,"I":0.0,"G":0.0},{"stationName":"成都人民北路(地铁站)","station_id":"成都人民北路(地铁站)_30.68776_104.07003","lineId":"成都地铁1号线 / 成都地铁6号线","lat":30.687759030000002,"lon":104.07002592500001,"area_km2":1.984,"D":0.5776,"C":0.8729,"T":0.3821,"U1":0.5686,"U2":0.1957,"couplingDegree":0.5776,"level":"勉强协调","road_density":18.2711,"walk_accessibility":0.3978,"metro_line_density":13.6863,"station_count":2,"line_count":3,"population_density":76240.5669,"poi_density":0.0,"poi_diversity":0.0,"gdp_density":0.0,"P":76240.5669,"I":0.0,"G":0.0},{"stationName":"成都文殊院(地铁站)","station_id":"成都文殊院(地铁站)_30.67495_104.06552","lineId":"成都地铁1号线","lat":30.67494641,"lon":104.06552465,"area_km2":3.0021,"D":0.4542,"C":0.8329,"T":0.2477,"U1":0.3848,"U2":0.1106,"couplingDegree":0.4542,"level":"勉强协调","road_density":22.1907,"walk_accessibility":0.6019,"metro_line_density":6.8563,"station_count":2,"line_count":2,"population_density":43087.5364,"poi_density":0.0,"poi_diversity":0.0,"gdp_density":0.0,"P":43087.5364,"I":0.0,"G":0.0},{"stationName":"成都骡马市(地铁站)","station_id":"成都骡马市(地铁站)_30.66919_104.06343","lineId":"成都地铁1号线 / 成都地铁4号线","lat":30.669185919999997,"lon":104.06343204000001,"area_km2":3.106,"D":0.465,"C":0.7631,"T":0.2834,"U1":0.4665,"U2":0.1002,"couplingDegree":0.465,"level":"勉强协调","road_density":23.4212,"walk_accessibility":0.6227,"metro_line_density":7.5328,"station_count":3,"line_count":2,"population_density":39045.6449,"poi_density":0.0,"poi_diversity":0.0,"gdp_density":0.0,"P":39045.6449,"I":0.0,"G":0.0},{"stationName":"成都天府广场(地铁站)","station_id":"成都天府广场(地铁站)_30.65956_104.06338","lineId":"成都地铁1号线","lat":30.65956312,"lon":104.06338318,"area_km2":3.3311,"D":0.4714,"C":0.7689,"T":0.289,"U1":0.4738,"U2":0.1042,"couplingDegree":0.4714,"level":"勉强协调","road_density":25.6197,"walk_accessibility":0.6679,"metro_line_density":6.8245,"station_count":3,"line_count":2,"population_density":40607.234,"poi_density":0.0,"poi_diversity":0.0,"gdp_density":0.0,"P":40607.234,"I":0.0,"G":0.0},{"stationName":"成都锦江宾馆(地铁站)","station_id":"成都锦江宾馆(地铁站)_30.65247_104.06355","lineId":"成都地铁1号线","lat":30.65247035,"lon":104.06354593,"area_km2":3.048,"D":0.3775,"C":0.5514,"T":0.2584,"U1":0.474,"U2":0.0428,"couplingDegree":0.3775,"level":"中度失调","road_density":26.3841,"walk_accessibility":0.6111,"metro_line_density":7.2333,"station_count":3,"line_count":2,"population_density":16686.2739,"poi_density":0.0,"poi_diversity":0.0,"gdp_density":0.0,"P":16686.2739,"I":0.0,"G":0.0},{"stationName":"成都华西坝(地铁站)","station_id":"成都华西坝(地铁站)_30.64567_104.06370","lineId":"成都地铁13号线 / 成都地铁1号线","lat":30.64567355,"lon":104.06369502999999,"area_km2":2.7431,"D":0.4727,"C":0.6913,"T":0.3233,"U1":0.5568,"U2":0.0897,"couplingDegree":0.4727,"level":"勉强协调","road_density":24.3383,"walk_accessibility":0.55,"metro_line_density":7.5163,"station_count":3,"line_count":3,"population_density":34940.5031,"poi_density":0.0,"poi_diversity":0.0,"gdp_density":0.0,"P":34940.5031,"I":0.0,"G":0.0},{"stationName":"成都省体育馆(地铁站)","station_id":"成都省体育馆(地铁站)_30.63588_104.06363","lineId":"成都地铁1号线 / 成都地铁3号线","lat":30.63587763,"lon":104.06363431,"area_km2":2.9869,"D":0.4348,"C":0.4813,"T":0.3927,"U1":0.7369,"U2":0.0485,"couplingDegree":0.4348,"level":"勉强协调","road_density":23.5813,"walk_accessibility":0.5989,"metro_line_density":6.0711,"station_count":3,"line_count":5,"population_density":18886.2907,"poi_density":0.0,"poi_diversity":0.0,"gdp_density":0.0,"P":18886.2907,"I":0.0,"G":0.0},{"stationName":"成都倪家桥(地铁站)","station_id":"成都倪家桥(地铁站)_30.62727_104.06399","lineId":"成都地铁18号线 / 成都地铁1号线 / 成都地铁8号线","lat":30.627269593333335,"lon":104.06398988333335,"area_km2":3.0066,"D":0.3801,"C":0.4187,"T":0.345,"U1":0.6584,"U2":0.0317,"couplingDegree":0.3801,"level":"中度失调","road_density":26.3134,"walk_accessibility":0.6028,"metro_line_density":6.4117,"station_count":3,"line_count":4,"population_density":12347.7205,"poi_density":0.0,"poi_diversity":0.0,"gdp_density":0.0,"P":12347.7205,"I":0.0,"G":0.0},{"stationName":"成都桐梓林(地铁站)","station_id":"成都桐梓林(地铁站)_30.61775_104.06461","lineId":"成都地铁1号线","lat":30.61774792,"lon":104.06460685,"area_km2":2.6405,"D":0.3536,"C":0.3843,"T":0.3253,"U1":0.6257,"U2":0.025,"couplingDegree":0.3536,"level":"中度失调","road_density":27.1106,"walk_accessibility":0.5294,"metro_line_density":5.5028,"station_count":3,"line_count":4,"population_density":9734.2324,"poi_density":0.0,"poi_diversity":0.0,"gdp_density":0.0,"P":9734.2324,"I":0.0,"G":0.0},{"stationName":"成都火车南站(地铁站)","station_id":"成都火车南站(地铁站)_30.60723_104.06476","lineId":"成都地铁18号线 / 成都地铁1号线 / 成都地铁7号线","lat":30.60723415,"lon":104.064760252,"area_km2":2.51,"D":0.3206,"C":0.3736,"T":0.2751,"U1":0.5303,"U2":0.0199,"couplingDegree":0.3206,"level":"中度失调","road_density":30.1828,"walk_accessibility":0.5032,"metro_line_density":5.3094,"station_count":3,"line_count":3,"population_density":7761.5078,"poi_density":0.0,"poi_diversity":0.0,"gdp_density":0.0,"P":7761.5078,"I":0.0,"G":0.0},{"stationName":"成都高新(地铁站)","station_id":"成都高新(地铁站)_30.59682_104.06135","lineId":"成都地铁1号线","lat":30.59681777,"lon":104.06134696,"area_km2":3.108,"D":0.2909,"C":0.367,"T":0.2306,"U1":0.4452,"U2":0.0161,"couplingDegree":0.2909,"level":"中度失调","road_density":29.8077,"walk_accessibility":0.6232,"metro_line_density":2.773,"station_count":2,"line_count":3,"population_density":6267.6147,"poi_density":0.0,"poi_diversity":0.0,"gdp_density":0.0,"P":6267.6147,"I":0.0,"G":0.0},{"stationName":"成都金融城(地铁站)","station_id":"成都金融城(地铁站)_30.58503_104.06165","lineId":"成都地铁1号线","lat":30.58503344,"lon":104.06164534,"area_km2":2.7404,"D":0.2288,"C":0.2964,"T":0.1767,"U1":0.3454,"U2":0.0079,"couplingDegree":0.2288,"level":"中度失调","road_density":30.0402,"walk_accessibility":0.5494,"metro_line_density":3.6115,"station_count":2,"line_count":2,"population_density":3092.6437,"poi_density":0.0,"poi_diversity":0.0,"gdp_density":0.0,"P":3092.6437,"I":0.0,"G":0.0},{"stationName":"成都孵化园(地铁站)","station_id":"成都孵化园(地铁站)_30.57818_104.06286","lineId":"成都地铁1号线 / 成都地铁9号线","lat":30.578179115,"lon":104.06286249499999,"area_km2":2.9676,"D":0.2004,"C":0.1902,"T":0.2111,"U1":0.4183,"U2":0.0039,"couplingDegree":0.2004,"level":"中度失调","road_density":32.4125,"walk_accessibility":0.595,"metro_line_density":3.3401,"station_count":3,"line_count":2,"population_density":1501.5661,"poi_density":0.0,"poi_diversity":0.0,"gdp_density":0.0,"P":1501.5661,"I":0.0,"G":0.0},{"stationName":"成都锦城广场(地铁站)","station_id":"成都锦城广场(地铁站)_30.57018_104.06402","lineId":"成都地铁1号线","lat":30.57017806,"lon":104.06402315,"area_km2":2.2024,"D":0.1224,"C":0.0902,"T":0.1662,"U1":0.3318,"U2":0.0007,"couplingDegree":0.1224,"level":"极度失调","road_density":37.4084,"walk_accessibility":0.4416,"metro_line_density":2.2433,"station_count":2,"line_count":2,"population_density":263.8024,"poi_density":0.0,"poi_diversity":0.0,"gdp_density":0.0,"P":263.8024,"I":0.0,"G":0.0},{"stationName":"成都世纪城(地铁站)","station_id":"成都世纪城(地铁站)_30.55733_104.06642","lineId":"成都地铁1号线","lat":30.55732774,"lon":104.06642126,"area_km2":2.9438,"D":0.1215,"C":0.1367,"T":0.108,"U1":0.215,"U2":0.001,"couplingDegree":0.1215,"level":"极度失调","road_density":30.259,"walk_accessibility":0.5902,"metro_line_density":1.8623,"station_count":2,"line_count":1,"population_density":394.7232,"poi_density":0.0,"poi_diversity":0.0,"gdp_density":0.0,"P":394.7232,"I":0.0,"G":0.0},{"stationName":"成都天府三街(地铁站)","station_id":"成都天府三街(地铁站)_30.54866_104.06670","lineId":"成都地铁1号线","lat":30.54866303,"lon":104.0666959,"area_km2":3.1711,"D":0.684,"C":0.8686,"T":0.5387,"U1":0.2717,"U2":0.8056,"couplingDegree":0.684,"level":"良好协调","road_density":29.3473,"walk_accessibility":0.6358,"metro_line_density":1.7032,"station_count":3,"line_count":1,"population_density":517.7972,"poi_density":0.0,"poi_diversity":0.0,"gdp_density":2745.4563,"P":517.7972,"I":0.0,"G":2745.4563},{"stationName":"成都天府五街(地铁站)","station_id":"成都天府五街(地铁站)_30.53957_104.06700","lineId":"成都地铁1号线","lat":30.53956871,"lon":104.0670019,"area_km2":2.3727,"D":0.1276,"C":0.1927,"T":0.0845,"U1":0.1675,"U2":0.0016,"couplingDegree":0.1276,"level":"极度失调","road_density":24.8404,"walk_accessibility":0.4757,"metro_line_density":2.3158,"station_count":2,"line_count":1,"population_density":617.4341,"poi_density":0.0,"poi_diversity":0.0,"gdp_density":0.0,"P":617.4341,"I":0.0,"G":0.0},{"stationName":"成都华府大道(地铁站)","station_id":"成都华府大道(地铁站)_30.52821_104.06733","lineId":"成都地铁1号线","lat":30.52821079,"lon":104.06732647,"area_km2":1.7385,"D":0.1537,"C":0.3334,"T":0.0709,"U1":0.1377,"U2":0.0041,"couplingDegree":0.1537,"level":"极度失调","road_density":21.9298,"walk_accessibility":0.3486,"metro_line_density":3.0561,"station_count":2,"line_count":1,"population_density":1579.491,"poi_density":0.0,"poi_diversity":0.0,"gdp_density":0.0,"P":1579.491,"I":0.0,"G":0.0},{"stationName":"成都四河(地铁站)","station_id":"成都四河(地铁站)_30.51860_104.06762","lineId":"成都地铁1号线","lat":30.51860022,"lon":104.06761676,"area_km2":2.2315,"D":0.1309,"C":0.1632,"T":0.105,"U1":0.2085,"U2":0.0014,"couplingDegree":0.1309,"level":"极度失调","road_density":22.5903,"walk_accessibility":0.4474,"metro_line_density":2.5681,"station_count":3,"line_count":1,"population_density":548.5066,"poi_density":0.0,"poi_diversity":0.0,"gdp_density":0.0,"P":548.5066,"I":0.0,"G":0.0},{"stationName":"成都广都(地铁站)","station_id":"成都广都(地铁站)_30.51322_104.07320","lineId":"成都地铁1号线","lat":30.513215459999998,"lon":104.07319614,"area_km2":2.2549,"D":0.1138,"C":0.13,"T":0.0997,"U1":0.1986,"U2":0.0008,"couplingDegree":0.1138,"level":"极度失调","road_density":22.5927,"walk_accessibility":0.4521,"metro_line_density":2.0679,"station_count":3,"line_count":1,"population_density":329.5104,"poi_density":0.0,"poi_diversity":0.0,"gdp_density":0.0,"P":329.5104,"I":0.0,"G":0.0},{"stationName":"成都五根松(地铁站)","station_id":"成都五根松(地铁站)_30.50450_104.07885","lineId":"成都地铁1号线","lat":30.50450227,"lon":104.0788457,"area_km2":1.8097,"D":0.1234,"C":0.2631,"T":0.0579,"U1":0.1137,"U2":0.002,"couplingDegree":0.1234,"level":"极度失调","road_density":23.4426,"walk_accessibility":0.3628,"metro_line_density":1.431,"station_count":2,"line_count":1,"population_density":794.0534,"poi_density":0.0,"poi_diversity":0.0,"gdp_density":0.0,"P":794.0534,"I":0.0,"G":0.0}]}