{"cityCode":"510100","year":2019,"stations":[{"stationName":"成都韦家碾(地铁站)","station_id":"成都韦家碾(地铁站)_30.72083_104.08385","lineId":"成都地铁1号线 / 成都成都S11号线(德阳线)(韦家碾--德阳北站)","lat":30.72082873,"lon":104.08385342,"area_km2":1.6505,"D":0.1936,"C":0.3635,"T":0.1031,"U1":0.1992,"U2":0.0071,"couplingDegree":0.1936,"level":"极度失调","road_density":27.2158,"walk_accessibility":0.3309,"metro_line_density":3.2387,"station_count":1,"line_count":2,"population_density":5572.3681,"poi_density":0.0,"poi_diversity":0.0,"gdp_density":0.0,"P":5572.3681,"I":0.0,"G":0.0},{"stationName":"成都升仙湖(地铁站)","station_id":"成都升仙湖(地铁站)_30.70701_104.08094","lineId":"成都地铁1号线","lat":30.70700627,"lon":104.08093818,"area_km2":1.1795,"D":0.0,"C":0.0,"T":0.0311,"U1":0.0623,"U2":0.0,"couplingDegree":0.0,"level":"极度失调","road_density":23.8426,"walk_accessibility":0.2365,"metro_line_density":3.6751,"station_count":1,"line_count":1,"population_density":0.0,"poi_density":0.0,"poi_diversity":0.0,"gdp_density":0.0,"P":0.0,"I":0.0,"G":0.0},{"stationName":"成都火车北站(地铁站)","station_id":"成都火车北站(地铁站)_30.69790_104.07152","lineId":"成都地铁18号线 / 成都地铁1号线","lat":30.697896765,"lon":104.07152233,"area_km2":1.4845,"D":0.5641,"C":0.7274,"T":0.4374,"U1":0.7376,"U2":0.1373,"couplingDegree":0.5641,"level":"勉强协调","road_density":25.5147,"walk_accessibility":0.2976,"metro_line_density":7.746,"station_count":4,"line_count":5,"population_density":61689.2144,"poi_density":1.3473,"poi_diversity":0.6931,"gdp_density":0.0,"P":61689.2144,"I":1.3473,"G":0.0},{"stationName":"成都人民北路(地铁站)","station_id":"成都人民北路(地铁站)_30.68776_104.07003","lineId":"成都地铁1号线 / 成都地铁6号线","lat":30.687759030000002,"lon":104.07002592500001,"area_km2":1.984,"D":0.7124,"C":0.9316,"T":0.5449,"U1":0.7429,"U2":0.3468,"couplingDegree":0.7124,"level":"良好协调","road_density":18.2711,"walk_accessibility":0.3978,"metro_line_density":13.6863,"station_count":3,"line_count":5,"population_density":96512.2785,"poi_density":9.5766,"poi_diversity":1.9811,"gdp_density":0.0,"P":96512.2785,"I":9.5766,"G":0.0},{"stationName":"成都文殊院(地铁站)","station_id":"成都文殊院(地铁站)_30.67495_104.06552","lineId":"成都地铁1号线","lat":30.67494641,"lon":104.06552465,"area_km2":3.0021,"D":0.6125,"C":0.9946,"T":0.3771,"U1":0.338,"U2":0.4162,"couplingDegree":0.6125,"level":"良好协调","road_density":22.1907,"walk_accessibility":0.6019,"metro_line_density":6.8563,"station_count":3,"line_count":2,"population_density":48758.9477,"poi_density":19.9862,"poi_diversity":2.4187,"gdp_density":0.0,"P":48758.9477,"I":19.9862,"G":0.0},{"stationName":"成都骡马市(地铁站)","station_id":"成都骡马市(地铁站)_30.66919_104.06343","lineId":"成都地铁1号线 / 成都地铁4号线","lat":30.669185919999997,"lon":104.06343204000001,"area_km2":3.106,"D":0.7206,"C":0.963,"T":0.5392,"U1":0.6845,"U2":0.3939,"couplingDegree":0.7206,"level":"良好协调","road_density":23.4212,"walk_accessibility":0.6227,"metro_line_density":7.5328,"station_count":5,"line_count":4,"population_density":44184.8057,"poi_density":16.4201,"poi_diversity":2.6892,"gdp_density":0.0,"P":44184.8057,"I":16.4201,"G":0.0},{"stationName":"成都天府广场(地铁站)","station_id":"成都天府广场(地铁站)_30.65956_104.06338","lineId":"成都地铁1号线","lat":30.65956312,"lon":104.06338318,"area_km2":3.3311,"D":0.7767,"C":0.9579,"T":0.6297,"U1":0.8106,"U2":0.4488,"couplingDegree":0.7767,"level":"良好协调","road_density":25.6197,"walk_accessibility":0.6679,"metro_line_density":6.8245,"station_count":5,"line_count":5,"population_density":51592.1742,"poi_density":19.513,"poi_diversity":2.9235,"gdp_density":0.0,"P":51592.1742,"I":19.513,"G":0.0},{"stationName":"成都锦江宾馆(地铁站)","station_id":"成都锦江宾馆(地铁站)_30.65247_104.06355","lineId":"成都地铁1号线","lat":30.65247035,"lon":104.06354593,"area_km2":3.048,"D":0.7256,"C":0.9651,"T":0.5455,"U1":0.6883,"U2":0.4027,"couplingDegree":0.7256,"level":"良好协调","road_density":26.3841,"walk_accessibility":0.6111,"metro_line_density":7.2333,"station_count":5,"line_count":4,"population_density":25046.9636,"poi_density":19.3572,"poi_diversity":2.7575,"gdp_density":0.0,"P":25046.9636,"I":19.3572,"G":0.0},{"stationName":"成都华西坝(地铁站)","station_id":"成都华西坝(地铁站)_30.64567_104.06370","lineId":"成都地铁13号线 / 成都地铁1号线","lat":30.64567355,"lon":104.06369502999999,"area_km2":2.7431,"D":0.7097,"C":0.9377,"T":0.5372,"U1":0.7239,"U2":0.3505,"couplingDegree":0.7097,"level":"良好协调","road_density":24.3383,"walk_accessibility":0.55,"metro_line_density":7.5163,"station_count":6,"line_count":4,"population_density":48659.4088,"poi_density":12.03,"poi_diversity":2.5908,"gdp_density":0.0,"P":48659.4088,"I":12.03,"G":0.0},{"stationName":"成都省体育馆(地铁站)","station_id":"成都省体育馆(地铁站)_30.63588_104.06363","lineId":"成都地铁1号线 / 成都地铁3号线","lat":30.63587763,"lon":104.06363431,"area_km2":2.9869,"D":0.6951,"C":0.9124,"T":0.5295,"U1":0.7463,"U2":0.3128,"couplingDegree":0.6951,"level":"良好协调","road_density":23.5813,"walk_accessibility":0.5989,"metro_line_density":6.0711,"station_count":4,"line_count":5,"population_density":25613.6027,"poi_density":9.0394,"poi_diversity":2.8977,"gdp_density":0.0,"P":25613.6027,"I":9.0394,"G":0.0},{"stationName":"成都倪家桥(地铁站)","station_id":"成都倪家桥(地铁站)_30.62727_104.06399","lineId":"成都地铁18号线 / 成都地铁1号线 / 成都地铁8号线","lat":30.627269593333335,"lon":104.06398988333335,"area_km2":3.0066,"D":0.652,"C":0.9485,"T":0.4482,"U1":0.5901,"U2":0.3063,"couplingDegree":0.652,"level":"良好协调","road_density":26.3134,"walk_accessibility":0.6028,"metro_line_density":6.4117,"station_count":3,"line_count":4,"population_density":16746.3361,"poi_density":11.9735,"poi_diversity":2.5411,"gdp_density":0.0,"P":16746.3361,"I":11.9735,"G":0.0},{"stationName":"成都桐梓林(地铁站)","station_id":"成都桐梓林(地铁站)_30.61775_104.06461","lineId":"成都地铁1号线","lat":30.61774792,"lon":104.06460685,"area_km2":2.6405,"D":0.6071,"C":0.9081,"T":0.4059,"U1":0.5758,"U2":0.2359,"couplingDegree":0.6071,"level":"良好协调","road_density":27.1106,"walk_accessibility":0.5294,"metro_line_density":5.5028,"station_count":3,"line_count":4,"population_density":13202.5474,"poi_density":7.9531,"poi_diversity":2.1365,"gdp_density":0.0,"P":13202.5474,"I":7.9531,"G":0.0},{"stationName":"成都火车南站(地铁站)","station_id":"成都火车南站(地铁站)_30.60723_104.06476","lineId":"成都地铁18号线 / 成都地铁1号线 / 成都地铁7号线","lat":30.60723415,"lon":104.064760252,"area_km2":2.51,"D":0.55,"C":0.8848,"T":0.3419,"U1":0.5012,"U2":0.1826,"couplingDegree":0.55,"level":"勉强协调","road_density":30.1828,"walk_accessibility":0.5032,"metro_line_density":5.3094,"station_count":4,"line_count":3,"population_density":10526.901,"poi_density":3.1873,"poi_diversity":2.0794,"gdp_density":0.0,"P":10526.901,"I":3.1873,"G":0.0},{"stationName":"成都高新(地铁站)","station_id":"成都高新(地铁站)_30.59682_104.06135","lineId":"成都地铁1号线","lat":30.59681777,"lon":104.06134696,"area_km2":3.108,"D":0.5892,"C":0.8918,"T":0.3893,"U1":0.5654,"U2":0.2132,"couplingDegree":0.5892,"level":"勉强协调","road_density":29.8077,"walk_accessibility":0.6232,"metro_line_density":2.773,"station_count":3,"line_count":4,"population_density":8500.5328,"poi_density":4.8262,"poi_diversity":2.3384,"gdp_density":0.0,"P":8500.5328,"I":4.8262,"G":0.0},{"stationName":"成都金融城(地铁站)","station_id":"成都金融城(地铁站)_30.58503_104.06165","lineId":"成都地铁1号线","lat":30.58503344,"lon":104.06164534,"area_km2":2.7404,"D":0.4498,"C":0.9527,"T":0.2124,"U1":0.277,"U2":0.1478,"couplingDegree":0.4498,"level":"勉强协调","road_density":30.0402,"walk_accessibility":0.5494,"metro_line_density":3.6115,"station_count":2,"line_count":2,"population_density":5342.7016,"poi_density":2.5544,"poi_diversity":1.7479,"gdp_density":0.0,"P":5342.7016,"I":2.5544,"G":0.0},{"stationName":"成都孵化园(地铁站)","station_id":"成都孵化园(地铁站)_30.57818_104.06286","lineId":"成都地铁1号线 / 成都地铁9号线","lat":30.578179115,"lon":104.06286249499999,"area_km2":2.9676,"D":0.3696,"C":0.7072,"T":0.1931,"U1":0.3297,"U2":0.0566,"couplingDegree":0.3696,"level":"中度失调","road_density":32.4125,"walk_accessibility":0.595,"metro_line_density":3.3401,"station_count":3,"line_count":2,"population_density":3096.8116,"poi_density":0.674,"poi_diversity":0.6931,"gdp_density":0.0,"P":3096.8116,"I":0.674,"G":0.0},{"stationName":"成都锦城广场(地铁站)","station_id":"成都锦城广场(地铁站)_30.57018_104.06402","lineId":"成都地铁1号线","lat":30.57017806,"lon":104.06402315,"area_km2":2.2024,"D":0.3502,"C":0.7493,"T":0.1637,"U1":0.2721,"U2":0.0553,"couplingDegree":0.3502,"level":"中度失调","road_density":37.4084,"walk_accessibility":0.4416,"metro_line_density":2.2433,"station_count":2,"line_count":2,"population_density":283.7806,"poi_density":0.9081,"poi_diversity":0.6931,"gdp_density":0.0,"P":283.7806,"I":0.9081,"G":0.0},{"stationName":"成都世纪城(地铁站)","station_id":"成都世纪城(地铁站)_30.55733_104.06642","lineId":"成都地铁1号线","lat":30.55732774,"lon":104.06642126,"area_km2":2.9438,"D":0.3607,"C":0.9964,"T":0.1305,"U1":0.1416,"U2":0.1195,"couplingDegree":0.3607,"level":"中度失调","road_density":30.259,"walk_accessibility":0.5902,"metro_line_density":1.8623,"station_count":2,"line_count":1,"population_density":714.3743,"poi_density":2.7175,"poi_diversity":1.3863,"gdp_density":0.0,"P":714.3743,"I":2.7175,"G":0.0},{"stationName":"成都天府三街(地铁站)","station_id":"成都天府三街(地铁站)_30.54866_104.06670","lineId":"成都地铁1号线","lat":30.54866303,"lon":104.0666959,"area_km2":3.1711,"D":0.4992,"C":0.9596,"T":0.2597,"U1":0.1867,"U2":0.3327,"couplingDegree":0.4992,"level":"勉强协调","road_density":29.3473,"walk_accessibility":0.6358,"metro_line_density":1.7032,"station_count":3,"line_count":1,"population_density":974.4174,"poi_density":2.5228,"poi_diversity":1.3863,"gdp_density":71344.6998,"P":974.4174,"I":2.5228,"G":71344.6998},{"stationName":"成都天府五街(地铁站)","station_id":"成都天府五街(地铁站)_30.53957_104.06700","lineId":"成都地铁1号线","lat":30.53956871,"lon":104.0670019,"area_km2":2.3727,"D":0.3195,"C":0.987,"T":0.1034,"U1":0.1201,"U2":0.0868,"couplingDegree":0.3195,"level":"中度失调","road_density":24.8404,"walk_accessibility":0.4757,"metro_line_density":2.3158,"station_count":2,"line_count":1,"population_density":1120.6534,"poi_density":1.2644,"poi_diversity":1.0986,"gdp_density":0.0,"P":1120.6534,"I":1.2644,"G":0.0},{"stationName":"成都华府大道(地铁站)","station_id":"成都华府大道(地铁站)_30.52821_104.06733","lineId":"成都地铁1号线","lat":30.52821079,"lon":104.06732647,"area_km2":1.7385,"D":0.2843,"C":0.9623,"T":0.084,"U1":0.1068,"U2":0.0611,"couplingDegree":0.2843,"level":"中度失调","road_density":21.9298,"walk_accessibility":0.3486,"metro_line_density":3.0561,"station_count":2,"line_count":1,"population_density":3056.0218,"poi_density":1.1504,"poi_diversity":0.6931,"gdp_density":0.0,"P":3056.0218,"I":1.1504,"G":0.0},{"stationName":"成都四河(地铁站)","station_id":"成都四河(地铁站)_30.51860_104.06762","lineId":"成都地铁1号线","lat":30.51860022,"lon":104.06761676,"area_km2":2.2315,"D":0.1248,"C":0.1952,"T":0.0799,"U1":0.1582,"U2":0.0015,"couplingDegree":0.1248,"level":"极度失调","road_density":22.5903,"walk_accessibility":0.4474,"metro_line_density":2.5681,"station_count":3,"line_count":1,"population_density":1213.0779,"poi_density":0.0,"poi_diversity":0.0,"gdp_density":0.0,"P":1213.0779,"I":0.0,"G":0.0},{"stationName":"成都广都(地铁站)","station_id":"成都广都(地铁站)_30.51322_104.07320","lineId":"成都地铁1号线","lat":30.513215459999998,"lon":104.07319614,"area_km2":2.2549,"D":0.1175,"C":0.1782,"T":0.0775,"U1":0.1537,"U2":0.0012,"couplingDegree":0.1175,"level":"极度失调","road_density":22.5927,"walk_accessibility":0.4521,"metro_line_density":2.0679,"station_count":3,"line_count":1,"population_density":979.6615,"poi_density":0.0,"poi_diversity":0.0,"gdp_density":0.0,"P":979.6615,"I":0.0,"G":0.0},{"stationName":"成都五根松(地铁站)","station_id":"成都五根松(地铁站)_30.50450_104.07885","lineId":"成都地铁1号线","lat":30.50450227,"lon":104.0788457,"area_km2":1.8097,"D":0.1132,"C":0.2619,"T":0.0489,"U1":0.0961,"U2":0.0017,"couplingDegree":0.1132,"level":"极度失调","road_density":23.4426,"walk_accessibility":0.3628,"metro_line_density":1.431,"station_count":2,"line_count":1,"population_density":1348.841,"poi_density":0.0,"poi_diversity":0.0,"gdp_density":0.0,"P":1348.841,"I":0.0,"G":0.0},{"stationName":"成都龙泉驿(地铁站)","station_id":"成都龙泉驿(地铁站)_30.56272_104.26558","lineId":"成都地铁2号线","lat":30.56272345,"lon":104.26558174,"area_km2":2.6595,"D":0.2467,"C":0.9894,"T":0.0615,"U1":0.0526,"U2":0.0705,"couplingDegree":0.2467,"level":"中度失调","road_density":19.6324,"walk_accessibility":0.5332,"metro_line_density":0.8101,"station_count":1,"line_count":1,"population_density":13457.9415,"poi_density":0.752,"poi_diversity":0.6931,"gdp_density":0.0,"P":13457.9415,"I":0.752,"G":0.0},{"stationName":"成都龙平路(地铁站)","station_id":"成都龙平路(地铁站)_30.57554_104.25661","lineId":"成都地铁2号线","lat":30.57553663,"lon":104.25661269,"area_km2":2.0118,"D":0.1549,"C":0.6239,"T":0.0384,"U1":0.0685,"U2":0.0084,"couplingDegree":0.1549,"level":"极度失调","road_density":22.7275,"walk_accessibility":0.4034,"metro_line_density":2.9013,"station_count":1,"line_count":1,"population_density":6634.5132,"poi_density":0.0,"poi_diversity":0.0,"gdp_density":0.0,"P":6634.5132,"I":0.0,"G":0.0},{"stationName":"成都书房(地铁站)","station_id":"成都书房(地铁站)_30.57824_104.23977","lineId":"成都地铁2号线","lat":30.57823786,"lon":104.23976595,"area_km2":1.5713,"D":0.1008,"C":0.3081,"T":0.033,"U1":0.0643,"U2":0.0016,"couplingDegree":0.1008,"level":"极度失调","road_density":21.7449,"walk_accessibility":0.315,"metro_line_density":3.6449,"station_count":1,"line_count":1,"population_density":1266.504,"poi_density":0.0,"poi_diversity":0.0,"gdp_density":0.0,"P":1266.504,"I":0.0,"G":0.0},{"stationName":"成都界牌(地铁站)","station_id":"成都界牌(地铁站)_30.58540_104.22276","lineId":"成都地铁2号线","lat":30.58540211,"lon":104.22275954,"area_km2":1.4885,"D":0.2448,"C":0.9895,"T":0.0606,"U1":0.0693,"U2":0.0518,"couplingDegree":0.2448,"level":"中度失调","road_density":23.5996,"walk_accessibility":0.2984,"metro_line_density":3.8199,"station_count":1,"line_count":1,"population_density":124.2876,"poi_density":0.0,"poi_diversity":0.0,"gdp_density":17155.0419,"P":124.2876,"I":0.0,"G":17155.0419},{"stationName":"成都连山坡(地铁站)","station_id":"成都连山坡(地铁站)_30.59017_104.21037","lineId":"成都地铁2号线","lat":30.590165265,"lon":104.210370055,"area_km2":1.9664,"D":0.1576,"C":0.413,"T":0.0602,"U1":0.1149,"U2":0.0054,"couplingDegree":0.1576,"level":"极度失调","road_density":23.8381,"walk_accessibility":0.3943,"metro_line_density":2.8972,"station_count":2,"line_count":1,"population_density":351.9172,"poi_density":0.5086,"poi_diversity":0.0,"gdp_density":0.0,"P":351.9172,"I":0.5086,"G":0.0},{"stationName":"成都大面铺(地铁站)","station_id":"成都大面铺(地铁站)_30.59497_104.19890","lineId":"成都地铁2号线","lat":30.59496629,"lon":104.19889628,"area_km2":1.4382,"D":0.068,"C":0.0919,"T":0.0504,"U1":0.1005,"U2":0.0002,"couplingDegree":0.068,"level":"极度失调","road_density":20.1684,"walk_accessibility":0.2884,"metro_line_density":3.5067,"station_count":2,"line_count":1,"population_density":168.2624,"poi_density":0.0,"poi_diversity":0.0,"gdp_density":0.0,"P":168.2624,"I":0.0,"G":0.0},{"stationName":"成都成都行政学院(地铁站)","station_id":"成都成都行政学院(地铁站)_30.59963_104.16823","lineId":"成都地铁2号线","lat":30.59962531,"lon":104.168233705,"area_km2":2.264,"D":0.1442,"C":0.6636,"T":0.0313,"U1":0.0548,"U2":0.0079,"couplingDegree":0.1442,"level":"极度失调","road_density":20.5102,"walk_accessibility":0.4539,"metro_line_density":1.6008,"station_count":1,"line_count":1,"population_density":6232.8009,"poi_density":0.0,"poi_diversity":0.0,"gdp_density":0.0,"P":6232.8009,"I":0.0,"G":0.0},{"stationName":"成都洪河(地铁站)","station_id":"成都洪河(地铁站)_30.60750_104.15503","lineId":"成都地铁2号线","lat":30.60749849,"lon":104.15502838,"area_km2":2.0288,"D":0.2516,"C":0.5066,"T":0.125,"U1":0.2327,"U2":0.0172,"couplingDegree":0.2516,"level":"中度失调","road_density":23.4923,"walk_accessibility":0.4068,"metro_line_density":2.3623,"station_count":2,"line_count":2,"population_density":13602.4636,"poi_density":0.0,"poi_diversity":0.0,"gdp_density":0.0,"P":13602.4636,"I":0.0,"G":0.0},{"stationName":"成都惠王陵(地铁站)","station_id":"成都惠王陵(地铁站)_30.61496_104.14989","lineId":"成都地铁2号线 / 成都地铁30号线","lat":30.614963966666664,"lon":104.14989259666667,"area_km2":1.8069,"D":0.2751,"C":0.5676,"T":0.1333,"U1":0.2431,"U2":0.0236,"couplingDegree":0.2751,"level":"中度失调","road_density":23.5768,"walk_accessibility":0.3623,"metro_line_density":3.8443,"station_count":2,"line_count":2,"population_density":18611.3927,"poi_density":0.0,"poi_diversity":0.0,"gdp_density":0.0,"P":18611.3927,"I":0.0,"G":0.0},{"stationName":"成都成渝立交(地铁站)","station_id":"成都成渝立交(地铁站)_30.62728_104.14493","lineId":"成都地铁2号线","lat":30.62727881,"lon":104.14493221,"area_km2":2.4707,"D":0.2192,"C":0.6769,"T":0.071,"U1":0.1232,"U2":0.0187,"couplingDegree":0.2192,"level":"中度失调","road_density":26.0069,"walk_accessibility":0.4954,"metro_line_density":2.1175,"station_count":2,"line_count":1,"population_density":8601.453,"poi_density":0.8095,"poi_diversity":0.0,"gdp_density":0.0,"P":8601.453,"I":0.8095,"G":0.0},{"stationName":"成都成都东客站(地铁站)","station_id":"成都成都东客站(地铁站)_30.63177_104.13744","lineId":"成都地铁2号线","lat":30.63177323,"lon":104.13743786,"area_km2":2.6723,"D":0.2707,"C":0.3888,"T":0.1884,"U1":0.362,"U2":0.0148,"couplingDegree":0.2707,"level":"中度失调","road_density":29.3821,"walk_accessibility":0.5358,"metro_line_density":3.5332,"station_count":4,"line_count":2,"population_density":8849.3055,"poi_density":0.3742,"poi_diversity":0.0,"gdp_density":0.0,"P":8849.3055,"I":0.3742,"G":0.0},{"stationName":"成都塔子山公园(地铁站)","station_id":"成都塔子山公园(地铁站)_30.63189_104.12039","lineId":"成都地铁2号线","lat":30.63188768,"lon":104.12039026,"area_km2":2.0958,"D":0.2287,"C":0.8389,"T":0.0623,"U1":0.0963,"U2":0.0284,"couplingDegree":0.2287,"level":"中度失调","road_density":20.1528,"walk_accessibility":0.4202,"metro_line_density":1.7417,"station_count":2,"line_count":1,"population_density":18792.4361,"poi_density":0.4771,"poi_diversity":0.0,"gdp_density":0.0,"P":18792.4361,"I":0.4771,"G":0.0},{"stationName":"成都东大路(地铁站)","station_id":"成都东大路(地铁站)_30.63623_104.10963","lineId":"成都地铁2号线","lat":30.63622797,"lon":104.10963337,"area_km2":2.3597,"D":0.3604,"C":0.9522,"T":0.1364,"U1":0.178,"U2":0.0947,"couplingDegree":0.3604,"level":"中度失调","road_density":22.7602,"walk_accessibility":0.4731,"metro_line_density":4.2607,"station_count":3,"line_count":1,"population_density":31883.0903,"poi_density":0.8476,"poi_diversity":0.6931,"gdp_density":0.0,"P":31883.0903,"I":0.8476,"G":0.0},{"stationName":"成都牛市口(地铁站)","station_id":"成都牛市口(地铁站)_30.64032_104.10512","lineId":"成都地铁2号线","lat":30.64031993,"lon":104.10512122,"area_km2":2.3246,"D":0.6089,"C":0.9893,"T":0.3747,"U1":0.4294,"U2":0.3201,"couplingDegree":0.6089,"level":"良好协调","road_density":25.4637,"walk_accessibility":0.4661,"metro_line_density":4.2042,"station_count":3,"line_count":3,"population_density":33674.4001,"poi_density":1.7207,"poi_diversity":1.3863,"gdp_density":55961.8207,"P":33674.4001,"I":1.7207,"G":55961.8207},{"stationName":"成都牛王庙(地铁站)","station_id":"成都牛王庙(地铁站)_30.64715_104.09080","lineId":"成都地铁2号线 / 成都地铁6号线","lat":30.64715388,"lon":104.09079618333334,"area_km2":2.7475,"D":0.6096,"C":0.9893,"T":0.3756,"U1":0.4305,"U2":0.3207,"couplingDegree":0.6096,"level":"良好协调","road_density":20.5153,"walk_accessibility":0.5509,"metro_line_density":4.7759,"station_count":3,"line_count":3,"population_density":40167.41,"poi_density":12.011,"poi_diversity":2.307,"gdp_density":0.0,"P":40167.41,"I":12.011,"G":0.0},{"stationName":"成都东门大桥(地铁站)","station_id":"成都东门大桥(地铁站)_30.65060_104.08477","lineId":"成都地铁2号线","lat":30.65059639,"lon":104.08477173,"area_km2":3.0341,"D":0.7364,"C":0.9953,"T":0.5448,"U1":0.5977,"U2":0.4919,"couplingDegree":0.7364,"level":"良好协调","road_density":22.965,"walk_accessibility":0.6083,"metro_line_density":3.5342,"station_count":4,"line_count":4,"population_density":46326.3405,"poi_density":26.3667,"poi_diversity":2.6738,"gdp_density":0.0,"P":46326.3405,"I":26.3667,"G":0.0},{"stationName":"成都春熙路(地铁站)","station_id":"成都春熙路(地铁站)_30.65573_104.07696","lineId":"成都地铁2号线 / 成都地铁3号线","lat":30.65572677,"lon":104.076964855,"area_km2":3.348,"D":0.7299,"C":0.9933,"T":0.5363,"U1":0.5981,"U2":0.4745,"couplingDegree":0.7299,"level":"良好协调","road_density":23.0828,"walk_accessibility":0.6713,"metro_line_density":2.9044,"station_count":4,"line_count":4,"population_density":35171.9297,"poi_density":26.5834,"poi_diversity":2.5936,"gdp_density":0.0,"P":35171.9297,"I":26.5834,"G":0.0},{"stationName":"成都人民公园(地铁站)","station_id":"成都人民公园(地铁站)_30.66214_104.05383","lineId":"成都地铁10号线 / 成都地铁2号线","lat":30.662142340000003,"lon":104.05383298333334,"area_km2":3.1708,"D":0.7946,"C":0.9538,"T":0.662,"U1":0.8609,"U2":0.4631,"couplingDegree":0.7946,"level":"良好协调","road_density":23.9826,"walk_accessibility":0.6357,"metro_line_density":8.1762,"station_count":6,"line_count":5,"population_density":48790.7854,"poi_density":22.3915,"poi_diversity":2.7728,"gdp_density":0.0,"P":48790.7854,"I":22.3915,"G":0.0},{"stationName":"成都通惠门(地铁站)","station_id":"成都通惠门(地铁站)_30.66454_104.04606","lineId":"成都地铁2号线","lat":30.664538370000002,"lon":104.04605502000001,"area_km2":3.0922,"D":0.7536,"C":0.9399,"T":0.6041,"U1":0.8104,"U2":0.3979,"couplingDegree":0.7536,"level":"良好协调","road_density":26.2632,"walk_accessibility":0.62,"metro_line_density":7.1169,"station_count":5,"line_count":5,"population_density":45169.64,"poi_density":17.1401,"poi_diversity":2.6252,"gdp_density":0.0,"P":45169.64,"I":17.1401,"G":0.0},{"stationName":"成都中医大·省医院(地铁站)","station_id":"成都中医大·省医院(地铁站)_30.66857_104.03817","lineId":"成都地铁2号线 / 成都地铁4号线","lat":30.66857235,"lon":104.03816534,"area_km2":3.1212,"D":0.676,"C":0.878,"T":0.5206,"U1":0.7697,"U2":0.2714,"couplingDegree":0.676,"level":"良好协调","road_density":27.0499,"walk_accessibility":0.6258,"metro_line_density":6.1549,"station_count":7,"line_count":4,"population_density":48137.0053,"poi_density":5.767,"poi_diversity":2.3222,"gdp_density":0.0,"P":48137.0053,"I":5.767,"G":0.0},{"stationName":"成都白果林(地铁站)","station_id":"成都白果林(地铁站)_30.67633_104.03085","lineId":"成都地铁2号线","lat":30.67633217,"lon":104.03085332,"area_km2":2.3443,"D":0.5517,"C":0.8822,"T":0.345,"U1":0.5075,"U2":0.1825,"couplingDegree":0.5517,"level":"勉强协调","road_density":19.7804,"walk_accessibility":0.47,"metro_line_density":4.5949,"station_count":5,"line_count":3,"population_density":39846.2657,"poi_density":2.9859,"poi_diversity":1.5498,"gdp_density":0.0,"P":39846.2657,"I":2.9859,"G":0.0},{"stationName":"成都蜀汉路东(地铁站)","station_id":"成都蜀汉路东(地铁站)_30.68536_104.02664","lineId":"成都地铁2号线","lat":30.68535648,"lon":104.02663788,"area_km2":2.7866,"D":0.4476,"C":0.9421,"T":0.2126,"U1":0.284,"U2":0.1413,"couplingDegree":0.4476,"level":"勉强协调","road_density":19.7852,"walk_accessibility":0.5587,"metro_line_density":2.4966,"station_count":3,"line_count":2,"population_density":13088.8184,"poi_density":2.1532,"poi_diversity":1.5607,"gdp_density":0.0,"P":13088.8184,"I":2.1532,"G":0.0},{"stationName":"成都一品天下(地铁站)","station_id":"成都一品天下(地铁站)_30.69151_104.01796","lineId":"成都地铁2号线 / 成都地铁7号线","lat":30.69151318,"lon":104.017957805,"area_km2":1.9833,"D":0.2968,"C":0.404,"T":0.2181,"U1":0.4175,"U2":0.0186,"couplingDegree":0.2968,"level":"中度失调","road_density":17.3123,"walk_accessibility":0.3977,"metro_line_density":5.8931,"station_count":3,"line_count":3,"population_density":14685.366,"poi_density":0.0,"poi_diversity":0.0,"gdp_density":0.0,"P":14685.366,"I":0.0,"G":0.0},{"stationName":"成都羊犀立交(地铁站)","station_id":"成都羊犀立交(地铁站)_30.69588_104.00971","lineId":"成都地铁27号线 / 成都地铁2号线","lat":30.695884693333337,"lon":104.00971202,"area_km2":2.3643,"D":0.285,"C":0.4182,"T":0.1943,"U1":0.3708,"U2":0.0178,"couplingDegree":0.285,"level":"中度失调","road_density":19.4351,"walk_accessibility":0.474,"metro_line_density":4.3132,"station_count":2,"line_count":3,"population_density":14061.7642,"poi_density":0.0,"poi_diversity":0.0,"gdp_density":0.0,"P":14061.7642,"I":0.0,"G":0.0},{"stationName":"成都茶店子客运站(地铁站)","station_id":"成都茶店子客运站(地铁站)_30.70851_104.01133","lineId":"成都地铁2号线","lat":30.70850695,"lon":104.01133333,"area_km2":2.0727,"D":0.4892,"C":0.8077,"T":0.2962,"U1":0.1216,"U2":0.4709,"couplingDegree":0.4892,"level":"勉强协调","road_density":27.6862,"walk_accessibility":0.4156,"metro_line_density":2.3167,"station_count":2,"line_count":1,"population_density":18575.7301,"poi_density":6.7545,"poi_diversity":2.342,"gdp_density":75093.1921,"P":18575.7301,"I":6.7545,"G":75093.1921},{"stationName":"成都迎宾大道(地铁站)","station_id":"成都迎宾大道(地铁站)_30.71569_104.01117","lineId":"成都地铁2号线","lat":30.71568668,"lon":104.01116917,"area_km2":1.7924,"D":0.4394,"C":0.9623,"T":0.2007,"U1":0.1461,"U2":0.2552,"couplingDegree":0.4394,"level":"勉强协调","road_density":21.7608,"walk_accessibility":0.3594,"metro_line_density":2.4678,"station_count":3,"line_count":1,"population_density":22485.1378,"poi_density":7.2529,"poi_diversity":2.3517,"gdp_density":0.0,"P":22485.1378,"I":7.2529,"G":0.0},{"stationName":"成都金科北路(地铁站)","station_id":"成都金科北路(地铁站)_30.72330_104.00430","lineId":"成都地铁2号线","lat":30.72329698,"lon":104.00430181,"area_km2":2.406,"D":0.2326,"C":0.6626,"T":0.0816,"U1":0.1428,"U2":0.0205,"couplingDegree":0.2326,"level":"中度失调","road_density":18.0143,"walk_accessibility":0.4824,"metro_line_density":1.8889,"station_count":3,"line_count":1,"population_density":16184.3363,"poi_density":0.0,"poi_diversity":0.0,"gdp_density":0.0,"P":16184.3363,"I":0.0,"G":0.0},{"stationName":"成都金周路(地铁站)","station_id":"成都金周路(地铁站)_30.72420_103.99388","lineId":"成都地铁2号线","lat":30.72420352,"lon":103.99388075,"area_km2":1.4044,"D":0.2177,"C":0.8113,"T":0.0584,"U1":0.0926,"U2":0.0243,"couplingDegree":0.2177,"level":"中度失调","road_density":18.1747,"walk_accessibility":0.2816,"metro_line_density":3.3131,"station_count":2,"line_count":1,"population_density":19171.6815,"poi_density":0.0,"poi_diversity":0.0,"gdp_density":0.0,"P":19171.6815,"I":0.0,"G":0.0},{"stationName":"成都百草路(地铁站)","station_id":"成都百草路(地铁站)_30.73567_103.97709","lineId":"成都地铁2号线","lat":30.73567269,"lon":103.97709239,"area_km2":1.5693,"D":0.1639,"C":0.8178,"T":0.0328,"U1":0.0517,"U2":0.0139,"couplingDegree":0.1639,"level":"极度失调","road_density":20.6069,"walk_accessibility":0.3146,"metro_line_density":2.688,"station_count":1,"line_count":1,"population_density":11008.9445,"poi_density":0.0,"poi_diversity":0.0,"gdp_density":0.0,"P":11008.9445,"I":0.0,"G":0.0},{"stationName":"成都天河路(地铁站)","station_id":"成都天河路(地铁站)_30.74850_103.97394","lineId":"成都地铁2号线","lat":30.74849582,"lon":103.97393786,"area_km2":1.4297,"D":0.1927,"C":0.9568,"T":0.0388,"U1":0.0501,"U2":0.0275,"couplingDegree":0.1927,"level":"极度失调","road_density":20.6984,"walk_accessibility":0.2867,"metro_line_density":2.7848,"station_count":1,"line_count":1,"population_density":16398.7633,"poi_density":0.6994,"poi_diversity":0.0,"gdp_density":0.0,"P":16398.7633,"I":0.6994,"G":0.0},{"stationName":"成都犀浦(地铁站)","station_id":"成都犀浦(地铁站)_30.76058_103.96839","lineId":"成都地铁2号线 / 成都地铁6号线","lat":30.76058166,"lon":103.96838909499999,"area_km2":2.1856,"D":0.34,"C":0.8628,"T":0.134,"U1":0.2017,"U2":0.0663,"couplingDegree":0.34,"level":"中度失调","road_density":23.3171,"walk_accessibility":0.4382,"metro_line_density":3.4485,"station_count":1,"line_count":2,"population_density":8893.6065,"poi_density":0.9151,"poi_diversity":0.6931,"gdp_density":0.0,"P":8893.6065,"I":0.9151,"G":0.0},{"stationName":"成都文庙广场(地铁站)","station_id":"成都文庙广场(地铁站)_31.12872_104.39022","lineId":"成都地铁3号线 / 成都成都S11号线(德阳线)(韦家碾--德阳北站)","lat":31.12872157,"lon":104.390223495,"area_km2":1.7579,"D":0.1895,"C":0.2998,"T":0.1197,"U1":0.2339,"U2":0.0055,"couplingDegree":0.1895,"level":"极度失调","road_density":20.1874,"walk_accessibility":0.3525,"metro_line_density":3.9284,"station_count":2,"line_count":2,"population_density":0.0,"poi_density":0.5689,"poi_diversity":0.0,"gdp_density":0.0,"P":0.0,"I":0.5689,"G":0.0},{"stationName":"成都体育场站(地铁站)","station_id":"成都体育场站(地铁站)_31.12451_104.39223","lineId":"成都地铁3号线","lat":31.12451337,"lon":104.3922292,"area_km2":1.3384,"D":0.2428,"C":0.4631,"T":0.1273,"U1":0.2401,"U2":0.0145,"couplingDegree":0.2428,"level":"中度失调","road_density":19.0337,"walk_accessibility":0.2683,"metro_line_density":5.7102,"station_count":2,"line_count":2,"population_density":0.0,"poi_density":1.4944,"poi_diversity":0.0,"gdp_density":0.0,"P":0.0,"I":1.4944,"G":0.0},{"stationName":"成都五洲广场站(地铁站)","station_id":"成都五洲广场站(地铁站)_31.10360_104.38596","lineId":"成都地铁3号线","lat":31.10360215,"lon":104.38595837,"area_km2":1.3336,"D":0.0,"C":0.0,"T":0.0352,"U1":0.0703,"U2":0.0,"couplingDegree":0.0,"level":"极度失调","road_density":16.6851,"walk_accessibility":0.2674,"metro_line_density":6.0945,"station_count":1,"line_count":1,"population_density":0.0,"poi_density":0.0,"poi_diversity":0.0,"gdp_density":0.0,"P":0.0,"I":0.0,"G":0.0},{"stationName":"成都四川建院北(地铁站)","station_id":"成都四川建院北(地铁站)_31.08802_104.38480","lineId":"成都地铁3号线","lat":31.08802206,"lon":104.3847956,"area_km2":1.0623,"D":0.0,"C":0.0,"T":0.0464,"U1":0.0928,"U2":0.0,"couplingDegree":0.0,"level":"极度失调","road_density":19.4227,"walk_accessibility":0.213,"metro_line_density":8.1727,"station_count":1,"line_count":1,"population_density":0.0,"poi_density":0.0,"poi_diversity":0.0,"gdp_density":0.0,"P":0.0,"I":0.0,"G":0.0},{"stationName":"成都成都医学院(地铁站)","station_id":"成都成都医学院(地铁站)_30.81914_104.19434","lineId":"成都地铁3号线","lat":30.81913814,"lon":104.19433703,"area_km2":2.1245,"D":0.283,"C":0.8621,"T":0.0929,"U1":0.1399,"U2":0.0458,"couplingDegree":0.283,"level":"中度失调","road_density":21.9331,"walk_accessibility":0.4259,"metro_line_density":1.1247,"station_count":3,"line_count":1,"population_density":840.2163,"poi_density":0.0,"poi_diversity":0.0,"gdp_density":14862.1786,"P":840.2163,"I":0.0,"G":14862.1786},{"stationName":"成都双流西站(地铁站)","station_id":"成都双流西站(地铁站)_30.54610_103.91518","lineId":"成都地铁3号线","lat":30.54609533,"lon":103.91518066,"area_km2":0.9891,"D":0.1304,"C":0.3326,"T":0.0511,"U1":0.0993,"U2":0.0029,"couplingDegree":0.1304,"level":"极度失调","road_density":22.2317,"walk_accessibility":0.1983,"metro_line_density":3.7504,"station_count":2,"line_count":1,"population_density":2299.1125,"poi_density":0.0,"poi_diversity":0.0,"gdp_density":0.0,"P":2299.1125,"I":0.0,"G":0.0},{"stationName":"成都三里坝(地铁站)","station_id":"成都三里坝(地铁站)_30.55637_103.91249","lineId":"成都地铁3号线","lat":30.5563689,"lon":103.91249006,"area_km2":1.3573,"D":0.0913,"C":0.2091,"T":0.0399,"U1":0.0789,"U2":0.0009,"couplingDegree":0.0913,"level":"极度失调","road_density":18.3536,"walk_accessibility":0.2721,"metro_line_density":1.9823,"station_count":2,"line_count":1,"population_density":696.2477,"poi_density":0.0,"poi_diversity":0.0,"gdp_density":0.0,"P":696.2477,"I":0.0,"G":0.0},{"stationName":"成都双流广场(地铁站)","station_id":"成都双流广场(地铁站)_30.56707_103.91811","lineId":"成都地铁3号线","lat":30.56706823,"lon":103.91811481,"area_km2":1.9035,"D":0.1682,"C":0.5935,"T":0.0477,"U1":0.086,"U2":0.0093,"couplingDegree":0.1682,"level":"极度失调","road_density":18.9206,"walk_accessibility":0.3817,"metro_line_density":1.4368,"station_count":2,"line_count":1,"population_density":7350.4825,"poi_density":0.0,"poi_diversity":0.0,"gdp_density":0.0,"P":7350.4825,"I":0.0,"G":0.0},{"stationName":"成都东升(地铁站)","station_id":"成都东升(地铁站)_30.57401_103.92323","lineId":"成都地铁3号线","lat":30.57401116,"lon":103.92322624,"area_km2":1.9739,"D":0.179,"C":0.6583,"T":0.0487,"U1":0.0853,"U2":0.012,"couplingDegree":0.179,"level":"极度失调","road_density":18.5762,"walk_accessibility":0.3958,"metro_line_density":1.3143,"station_count":2,"line_count":1,"population_density":9508.0299,"poi_density":0.0,"poi_diversity":0.0,"gdp_density":0.0,"P":9508.0299,"I":0.0,"G":0.0},{"stationName":"成都迎春桥(地铁站)","station_id":"成都迎春桥(地铁站)_30.58342_103.93282","lineId":"成都地铁3号线","lat":30.5834247,"lon":103.93281604,"area_km2":1.9998,"D":0.178,"C":0.636,"T":0.0498,"U1":0.0883,"U2":0.0114,"couplingDegree":0.178,"level":"极度失调","road_density":19.6815,"walk_accessibility":0.401,"metro_line_density":1.2577,"station_count":2,"line_count":1,"population_density":8982.4823,"poi_density":0.0,"poi_diversity":0.0,"gdp_density":0.0,"P":8982.4823,"I":0.0,"G":0.0},{"stationName":"成都航都大街(地铁站)","station_id":"成都航都大街(地铁站)_30.59409_103.93476","lineId":"成都地铁3号线","lat":30.59409283,"lon":103.93476488,"area_km2":1.485,"D":0.128,"C":0.414,"T":0.0396,"U1":0.0756,"U2":0.0035,"couplingDegree":0.128,"level":"极度失调","road_density":17.3775,"walk_accessibility":0.2977,"metro_line_density":1.6499,"station_count":2,"line_count":1,"population_density":2804.0948,"poi_density":0.0,"poi_diversity":0.0,"gdp_density":0.0,"P":2804.0948,"I":0.0,"G":0.0},{"stationName":"成都龙桥路(地铁站)","station_id":"成都龙桥路(地铁站)_30.60669_103.94202","lineId":"成都地铁3号线","lat":30.60668762,"lon":103.94202382,"area_km2":1.9147,"D":0.1711,"C":0.8134,"T":0.036,"U1":0.057,"U2":0.0151,"couplingDegree":0.1711,"level":"极度失调","road_density":25.8954,"walk_accessibility":0.3839,"metro_line_density":1.089,"station_count":1,"line_count":1,"population_density":11895.5745,"poi_density":0.0,"poi_diversity":0.0,"gdp_density":0.0,"P":11895.5745,"I":0.0,"G":0.0},{"stationName":"成都双凤桥(地铁站)","station_id":"成都双凤桥(地铁站)_30.61865_103.96701","lineId":"成都地铁3号线","lat":30.61864839,"lon":103.96700784,"area_km2":1.8497,"D":0.1761,"C":0.8916,"T":0.0348,"U1":0.0505,"U2":0.019,"couplingDegree":0.1761,"level":"极度失调","road_density":22.323,"walk_accessibility":0.3709,"metro_line_density":1.5345,"station_count":1,"line_count":1,"population_density":15031.9565,"poi_density":0.0,"poi_diversity":0.0,"gdp_density":0.0,"P":15031.9565,"I":0.0,"G":0.0},{"stationName":"成都武青南路(地铁站)","station_id":"成都武青南路(地铁站)_30.62512_103.98288","lineId":"成都地铁3号线 / 成都地铁9号线","lat":30.62511545,"lon":103.98287674,"area_km2":2.5951,"D":0.5218,"C":0.9976,"T":0.2729,"U1":0.2542,"U2":0.2916,"couplingDegree":0.5218,"level":"勉强协调","road_density":23.8794,"walk_accessibility":0.5203,"metro_line_density":3.2701,"station_count":2,"line_count":2,"population_density":12259.7397,"poi_density":0.0,"poi_diversity":0.0,"gdp_density":91715.4924,"P":12259.7397,"I":0.0,"G":91715.4924},{"stationName":"成都武侯立交(地铁站)","station_id":"成都武侯立交(地铁站)_30.62958_103.99114","lineId":"成都地铁3号线","lat":30.62957648,"lon":103.99113943,"area_km2":2.2004,"D":0.2206,"C":0.3917,"T":0.1242,"U1":0.2386,"U2":0.0099,"couplingDegree":0.2206,"level":"中度失调","road_density":25.921,"walk_accessibility":0.4412,"metro_line_density":1.9521,"station_count":2,"line_count":2,"population_density":7841.4631,"poi_density":0.0,"poi_diversity":0.0,"gdp_density":0.0,"P":7841.4631,"I":0.0,"G":0.0},{"stationName":"成都川藏立交(地铁站)","station_id":"成都川藏立交(地铁站)_30.62551_104.00414","lineId":"成都地铁3号线","lat":30.62551363,"lon":104.00413527,"area_km2":2.2368,"D":0.2067,"C":0.9107,"T":0.0469,"U1":0.0663,"U2":0.0275,"couplingDegree":0.2067,"level":"中度失调","road_density":25.2173,"walk_accessibility":0.4485,"metro_line_density":1.555,"station_count":1,"line_count":1,"population_density":21747.6925,"poi_density":0.0,"poi_diversity":0.0,"gdp_density":0.0,"P":21747.6925,"I":0.0,"G":0.0},{"stationName":"成都太平园(地铁站)","station_id":"成都太平园(地铁站)_30.62799_104.01894","lineId":"成都地铁10号线 / 成都地铁3号线 / 成都地铁7号线","lat":30.6279949075,"lon":104.0189373425,"area_km2":2.0652,"D":0.4485,"C":0.8762,"T":0.2295,"U1":0.3402,"U2":0.1189,"couplingDegree":0.4485,"level":"勉强协调","road_density":18.4507,"walk_accessibility":0.4141,"metro_line_density":6.5858,"station_count":1,"line_count":3,"population_density":25046.1137,"poi_density":1.4526,"poi_diversity":1.0986,"gdp_density":0.0,"P":25046.1137,"I":1.4526,"G":0.0},{"stationName":"成都红牌楼(地铁站)","station_id":"成都红牌楼(地铁站)_30.63748_104.02785","lineId":"成都地铁10号线 / 成都地铁3号线","lat":30.637480183333334,"lon":104.02785185666666,"area_km2":2.6509,"D":0.5124,"C":0.9472,"T":0.2772,"U1":0.3661,"U2":0.1883,"couplingDegree":0.5124,"level":"勉强协调","road_density":19.0697,"walk_accessibility":0.5315,"metro_line_density":3.3542,"station_count":2,"line_count":3,"population_density":24010.9044,"poi_density":4.1496,"poi_diversity":1.7678,"gdp_density":0.0,"P":24010.9044,"I":4.1496,"G":0.0},{"stationName":"成都高升桥(地铁站)","station_id":"成都高升桥(地铁站)_30.64302_104.03952","lineId":"成都地铁10号线 / 成都地铁3号线 / 成都地铁5号线","lat":30.643020619999998,"lon":104.03951983,"area_km2":2.4762,"D":0.8,"C":0.9978,"T":0.6415,"U1":0.5991,"U2":0.6838,"couplingDegree":0.8,"level":"优质协调","road_density":20.1693,"walk_accessibility":0.4965,"metro_line_density":5.5657,"station_count":4,"line_count":4,"population_density":32439.4121,"poi_density":19.788,"poi_diversity":2.5146,"gdp_density":94264.4214,"P":32439.4121,"I":19.788,"G":94264.4214},{"stationName":"成都衣冠庙(地铁站)","station_id":"成都衣冠庙(地铁站)_30.63694_104.04967","lineId":"成都地铁3号线","lat":30.6369407,"lon":104.04966796,"area_km2":2.8479,"D":0.5917,"C":0.9888,"T":0.3541,"U1":0.407,"U2":0.3011,"couplingDegree":0.5917,"level":"勉强协调","road_density":21.9305,"walk_accessibility":0.571,"metro_line_density":1.8266,"station_count":3,"line_count":3,"population_density":24378.1659,"poi_density":9.8317,"poi_diversity":2.63,"gdp_density":0.0,"P":24378.1659,"I":9.8317,"G":0.0},{"stationName":"成都磨子桥(地铁站)","station_id":"成都磨子桥(地铁站)_30.63984_104.07341","lineId":"成都地铁3号线","lat":30.63983939,"lon":104.07341086,"area_km2":2.7311,"D":0.717,"C":0.9938,"T":0.5173,"U1":0.4596,"U2":0.5749,"couplingDegree":0.717,"level":"良好协调","road_density":22.797,"walk_accessibility":0.5476,"metro_line_density":2.6566,"station_count":4,"line_count":3,"population_density":46690.4125,"poi_density":8.0553,"poi_diversity":2.3265,"gdp_density":93977.6504,"P":46690.4125,"I":8.0553,"G":93977.6504},{"stationName":"成都新南门(地铁站)","station_id":"成都新南门(地铁站)_30.64669_104.07304","lineId":"成都地铁13号线 / 成都地铁3号线","lat":30.646688775,"lon":104.07303531,"area_km2":3.3511,"D":0.8127,"C":0.9989,"T":0.6612,"U1":0.6927,"U2":0.6297,"couplingDegree":0.8127,"level":"优质协调","road_density":21.5275,"walk_accessibility":0.6719,"metro_line_density":3.885,"station_count":6,"line_count":4,"population_density":30678.1422,"poi_density":19.3969,"poi_diversity":2.5917,"gdp_density":76592.1044,"P":30678.1422,"I":19.3969,"G":76592.1044},{"stationName":"成都市二医院(地铁站)","station_id":"成都市二医院(地铁站)_30.66294_104.08191","lineId":"成都地铁3号线 / 成都地铁4号线","lat":30.662936025,"lon":104.08190766,"area_km2":3.2968,"D":0.6555,"C":1.0,"T":0.4296,"U1":0.4261,"U2":0.4332,"couplingDegree":0.6555,"level":"良好协调","road_density":21.4023,"walk_accessibility":0.661,"metro_line_density":2.9781,"station_count":3,"line_count":3,"population_density":51189.6166,"poi_density":20.3225,"poi_diversity":2.5782,"gdp_density":0.0,"P":51189.6166,"I":20.3225,"G":0.0},{"stationName":"成都红星桥(地铁站)","station_id":"成都红星桥(地铁站)_30.67457_104.08877","lineId":"成都地铁17号线 / 成都地铁3号线","lat":30.67456579,"lon":104.088768155,"area_km2":2.7776,"D":0.6363,"C":1.0,"T":0.4049,"U1":0.4052,"U2":0.4045,"couplingDegree":0.6363,"level":"良好协调","road_density":22.7079,"walk_accessibility":0.5569,"metro_line_density":6.0621,"station_count":2,"line_count":3,"population_density":38097.6935,"poi_density":20.5213,"poi_diversity":2.3673,"gdp_density":0.0,"P":38097.6935,"I":20.5213,"G":0.0},{"stationName":"成都前锋路(地铁站)","station_id":"成都前锋路(地铁站)_30.68079_104.08995","lineId":"成都地铁3号线 / 成都地铁6号线","lat":30.680792335,"lon":104.08994505,"area_km2":2.3627,"D":0.6703,"C":0.9999,"T":0.4493,"U1":0.4444,"U2":0.4542,"couplingDegree":0.6703,"level":"良好协调","road_density":22.0768,"walk_accessibility":0.4737,"metro_line_density":6.5481,"station_count":3,"line_count":3,"population_density":26451.162,"poi_density":27.5105,"poi_diversity":2.3188,"gdp_density":0.0,"P":26451.162,"I":27.5105,"G":0.0},{"stationName":"成都李家沱(地铁站)","station_id":"成都李家沱(地铁站)_30.69178_104.09199","lineId":"成都地铁3号线","lat":30.69177644,"lon":104.09198632,"area_km2":2.1854,"D":0.589,"C":0.9901,"T":0.3504,"U1":0.3995,"U2":0.3013,"couplingDegree":0.589,"level":"勉强协调","road_density":22.0902,"walk_accessibility":0.4382,"metro_line_density":2.3834,"station_count":3,"line_count":3,"population_density":54736.8982,"poi_density":9.1516,"poi_diversity":2.1548,"gdp_density":0.0,"P":54736.8982,"I":9.1516,"G":0.0},{"stationName":"成都驷马桥(地铁站)","station_id":"成都驷马桥(地铁站)_30.69796_104.09145","lineId":"成都地铁3号线 / 成都地铁7号线","lat":30.697962609999998,"lon":104.09145316499999,"area_km2":2.1304,"D":0.4038,"C":0.8733,"T":0.1867,"U1":0.2777,"U2":0.0958,"couplingDegree":0.4038,"level":"勉强协调","road_density":19.689,"walk_accessibility":0.4271,"metro_line_density":3.2304,"station_count":3,"line_count":2,"population_density":32016.8541,"poi_density":0.9388,"poi_diversity":0.6931,"gdp_density":0.0,"P":32016.8541,"I":0.9388,"G":0.0},{"stationName":"成都昭觉寺南路(地铁站)","station_id":"成都昭觉寺南路(地铁站)_30.70530_104.09428","lineId":"成都地铁3号线","lat":30.70530009,"lon":104.0942784,"area_km2":2.5417,"D":0.4061,"C":0.9612,"T":0.1716,"U1":0.2189,"U2":0.1242,"couplingDegree":0.4061,"level":"勉强协调","road_density":18.812,"walk_accessibility":0.5096,"metro_line_density":1.1813,"station_count":2,"line_count":2,"population_density":13044.1789,"poi_density":1.9672,"poi_diversity":1.3322,"gdp_density":0.0,"P":13044.1789,"I":1.9672,"G":0.0},{"stationName":"成都动物园(地铁站)","station_id":"成都动物园(地铁站)_30.71602_104.10060","lineId":"成都地铁3号线","lat":30.71602154,"lon":104.10059647,"area_km2":2.6464,"D":0.3374,"C":0.8515,"T":0.1337,"U1":0.0636,"U2":0.2038,"couplingDegree":0.3374,"level":"中度失调","road_density":22.8759,"walk_accessibility":0.5306,"metro_line_density":1.074,"station_count":1,"line_count":1,"population_density":10015.5902,"poi_density":11.3363,"poi_diversity":1.2219,"gdp_density":0.0,"P":10015.5902,"I":11.3363,"G":0.0},{"stationName":"成都熊猫大道(熊猫基地南大门)(地铁站)","station_id":"成都熊猫大道(熊猫基地南大门)(地铁站)_30.72782_104.10546","lineId":"成都地铁3号线","lat":30.72781505,"lon":104.10545688,"area_km2":2.0594,"D":0.1723,"C":0.7806,"T":0.038,"U1":0.0618,"U2":0.0143,"couplingDegree":0.1723,"level":"极度失调","road_density":25.5702,"walk_accessibility":0.4129,"metro_line_density":1.366,"station_count":1,"line_count":1,"population_density":11258.793,"poi_density":0.0,"poi_diversity":0.0,"gdp_density":0.0,"P":11258.793,"I":0.0,"G":0.0},{"stationName":"成都军区总医院(熊猫基地西大门)(地铁站)","station_id":"成都军区总医院(熊猫基地西大门)(地铁站)_30.74711_104.11162","lineId":"成都地铁3号线","lat":30.74710952,"lon":104.11162359,"area_km2":1.8045,"D":0.2563,"C":0.9306,"T":0.0706,"U1":0.0448,"U2":0.0964,"couplingDegree":0.2563,"level":"中度失调","road_density":20.2413,"walk_accessibility":0.3618,"metro_line_density":1.6036,"station_count":1,"line_count":1,"population_density":5700.132,"poi_density":1.6625,"poi_diversity":1.0986,"gdp_density":0.0,"P":5700.132,"I":1.6625,"G":0.0},{"stationName":"成都植物园(地铁站)","station_id":"成都植物园(地铁站)_30.76571_104.11876","lineId":"成都地铁3号线","lat":30.76571474,"lon":104.11876123,"area_km2":1.5319,"D":0.265,"C":0.9912,"T":0.0708,"U1":0.0802,"U2":0.0615,"couplingDegree":0.265,"level":"中度失调","road_density":18.282,"walk_accessibility":0.3071,"metro_line_density":1.7773,"station_count":2,"line_count":1,"population_density":2109.7804,"poi_density":1.3056,"poi_diversity":0.6931,"gdp_density":0.0,"P":2109.7804,"I":1.3056,"G":0.0},{"stationName":"成都金华寺东路(地铁站)","station_id":"成都金华寺东路(地铁站)_30.77277_104.12291","lineId":"成都地铁3号线","lat":30.77276643,"lon":104.12291195,"area_km2":1.7396,"D":0.1649,"C":0.529,"T":0.0514,"U1":0.095,"U2":0.0078,"couplingDegree":0.1649,"level":"极度失调","road_density":23.2676,"walk_accessibility":0.3488,"metro_line_density":1.5071,"station_count":2,"line_count":1,"population_density":1749.2251,"poi_density":0.5748,"poi_diversity":0.0,"gdp_density":0.0,"P":1749.2251,"I":0.5748,"G":0.0},{"stationName":"成都三河场(地铁站)","station_id":"成都三河场(地铁站)_30.78706_104.13639","lineId":"成都地铁3号线","lat":30.78705787,"lon":104.13639035,"area_km2":1.8033,"D":0.1707,"C":0.8862,"T":0.0329,"U1":0.0481,"U2":0.0176,"couplingDegree":0.1707,"level":"极度失调","road_density":21.9232,"walk_accessibility":0.3616,"metro_line_density":1.4913,"station_count":1,"line_count":1,"population_density":13935.0395,"poi_density":0.0,"poi_diversity":0.0,"gdp_density":0.0,"P":13935.0395,"I":0.0,"G":0.0},{"stationName":"成都锦水河(地铁站)","station_id":"成都锦水河(地铁站)_30.79984_104.15081","lineId":"成都地铁3号线","lat":30.79983806,"lon":104.15081191,"area_km2":1.3027,"D":0.1212,"C":0.308,"T":0.0477,"U1":0.0931,"U2":0.0023,"couplingDegree":0.1212,"level":"极度失调","road_density":24.0999,"walk_accessibility":0.2612,"metro_line_density":1.9781,"station_count":2,"line_count":1,"population_density":1831.5447,"poi_density":0.0,"poi_diversity":0.0,"gdp_density":0.0,"P":1831.5447,"I":0.0,"G":0.0},{"stationName":"成都团结新区(地铁站)","station_id":"成都团结新区(地铁站)_30.80678_104.15628","lineId":"成都地铁3号线","lat":30.80677767,"lon":104.15628123,"area_km2":1.383,"D":0.1436,"C":0.2921,"T":0.0706,"U1":0.1382,"U2":0.0031,"couplingDegree":0.1436,"level":"极度失调","road_density":23.8424,"walk_accessibility":0.2773,"metro_line_density":1.9521,"station_count":3,"line_count":1,"population_density":2433.0538,"poi_density":0.0,"poi_diversity":0.0,"gdp_density":0.0,"P":2433.0538,"I":0.0,"G":0.0},{"stationName":"成都马超西路(地铁站)","station_id":"成都马超西路(地铁站)_30.81554_104.16224","lineId":"成都地铁3号线","lat":30.81554174,"lon":104.16223731,"area_km2":2.1081,"D":0.1702,"C":0.5606,"T":0.0517,"U1":0.0944,"U2":0.0089,"couplingDegree":0.1702,"level":"极度失调","road_density":20.6954,"walk_accessibility":0.4227,"metro_line_density":1.3881,"station_count":2,"line_count":1,"population_density":7016.4367,"poi_density":0.0,"poi_diversity":0.0,"gdp_density":0.0,"P":7016.4367,"I":0.0,"G":0.0},{"stationName":"成都钟楼(地铁站)","station_id":"成都钟楼(地铁站)_30.82338_104.17286","lineId":"成都地铁3号线","lat":30.82337562,"lon":104.17285571,"area_km2":2.2653,"D":0.2795,"C":0.9686,"T":0.0807,"U1":0.1007,"U2":0.0606,"couplingDegree":0.2795,"level":"中度失调","road_density":22.3823,"walk_accessibility":0.4542,"metro_line_density":1.249,"station_count":2,"line_count":1,"population_density":4805.8807,"poi_density":1.7657,"poi_diversity":0.5623,"gdp_density":0.0,"P":4805.8807,"I":1.7657,"G":0.0},{"stationName":"成都石油大学(地铁站)","station_id":"成都石油大学(地铁站)_30.82119_104.18416","lineId":"成都地铁3号线","lat":30.82118837,"lon":104.18416346,"area_km2":2.6108,"D":0.3872,"C":0.9668,"T":0.1551,"U1":0.1947,"U2":0.1155,"couplingDegree":0.3872,"level":"中度失调","road_density":22.4684,"walk_accessibility":0.5235,"metro_line_density":1.0238,"station_count":4,"line_count":1,"population_density":954.1096,"poi_density":3.4472,"poi_diversity":1.2149,"gdp_density":0.0,"P":954.1096,"I":3.4472,"G":0.0},{"stationName":"成都成都医学院(新都校区)(地铁站)","station_id":"成都成都医学院(新都校区)(地铁站)_30.81936_104.19226","lineId":"成都地铁3号线","lat":30.81936327,"lon":104.19225861,"area_km2":2.2834,"D":0.2793,"C":0.8415,"T":0.0927,"U1":0.1428,"U2":0.0426,"couplingDegree":0.2793,"level":"中度失调","road_density":21.6523,"walk_accessibility":0.4578,"metro_line_density":1.1661,"station_count":3,"line_count":1,"population_density":781.7269,"poi_density":0.0,"poi_diversity":0.0,"gdp_density":13827.5882,"P":781.7269,"I":0.0,"G":13827.5882},{"stationName":"成都西河(地铁站)","station_id":"成都西河(地铁站)_30.64985_104.21792","lineId":"成都地铁4号线","lat":30.649845605,"lon":104.2179158,"area_km2":1.4865,"D":0.0877,"C":0.3018,"T":0.0255,"U1":0.0497,"U2":0.0012,"couplingDegree":0.0877,"level":"极度失调","road_density":24.3319,"walk_accessibility":0.298,"metro_line_density":1.6572,"station_count":1,"line_count":1,"population_density":937.7672,"poi_density":0.0,"poi_diversity":0.0,"gdp_density":0.0,"P":937.7672,"I":0.0,"G":0.0},{"stationName":"成都明蜀王陵(地铁站)","station_id":"成都明蜀王陵(地铁站)_30.65071_104.19393","lineId":"成都地铁4号线","lat":30.65071365,"lon":104.19393318,"area_km2":2.5818,"D":0.1043,"C":0.2947,"T":0.0369,"U1":0.0721,"U2":0.0016,"couplingDegree":0.1043,"level":"极度失调","road_density":22.6017,"walk_accessibility":0.5176,"metro_line_density":2.141,"station_count":1,"line_count":1,"population_density":1293.6726,"poi_density":0.0,"poi_diversity":0.0,"gdp_density":0.0,"P":1293.6726,"I":0.0,"G":0.0},{"stationName":"成都成都大学(地铁站)","station_id":"成都成都大学(地铁站)_30.64920_104.17874","lineId":"成都地铁4号线","lat":30.64919995,"lon":104.17874374,"area_km2":1.8118,"D":0.1644,"C":0.4392,"T":0.0615,"U1":0.1168,"U2":0.0063,"couplingDegree":0.1644,"level":"极度失调","road_density":24.6702,"walk_accessibility":0.3633,"metro_line_density":3.1797,"station_count":2,"line_count":1,"population_density":718.0511,"poi_density":0.5519,"poi_diversity":0.0,"gdp_density":0.0,"P":718.0511,"I":0.5519,"G":0.0},{"stationName":"成都十陵(地铁站)","station_id":"成都十陵(地铁站)_30.64832_104.16998","lineId":"成都地铁4号线","lat":30.64832224,"lon":104.16998306,"area_km2":2.1226,"D":0.3343,"C":0.9383,"T":0.1191,"U1":0.1604,"U2":0.0779,"couplingDegree":0.3343,"level":"中度失调","road_density":23.6622,"walk_accessibility":0.4256,"metro_line_density":2.7208,"station_count":3,"line_count":1,"population_density":8970.1501,"poi_density":0.0,"poi_diversity":0.0,"gdp_density":22110.1952,"P":8970.1501,"I":0.0,"G":22110.1952},{"stationName":"成都来龙(地铁站)","station_id":"成都来龙(地铁站)_30.64934_104.16201","lineId":"成都地铁4号线","lat":30.6493378,"lon":104.16200508,"area_km2":1.7307,"D":0.324,"C":0.983,"T":0.1068,"U1":0.1264,"U2":0.0872,"couplingDegree":0.324,"level":"中度失调","road_density":28.5105,"walk_accessibility":0.347,"metro_line_density":3.2798,"station_count":2,"line_count":1,"population_density":4376.9167,"poi_density":0.0,"poi_diversity":0.0,"gdp_density":27117.2381,"P":4376.9167,"I":0.0,"G":27117.2381},{"stationName":"成都槐树店(地铁站)","station_id":"成都槐树店(地铁站)_30.65218_104.13688","lineId":"成都地铁4号线 / 成都地铁7号线","lat":30.652177445,"lon":104.13687785,"area_km2":2.1905,"D":0.2389,"C":0.4335,"T":0.1316,"U1":0.2503,"U2":0.013,"couplingDegree":0.2389,"level":"中度失调","road_density":18.865,"walk_accessibility":0.4392,"metro_line_density":5.0449,"station_count":2,"line_count":2,"population_density":10278.8738,"poi_density":0.0,"poi_diversity":0.0,"gdp_density":0.0,"P":10278.8738,"I":0.0,"G":0.0},{"stationName":"成都万年场(地铁站)","station_id":"成都万年场(地铁站)_30.64664_104.11665","lineId":"成都地铁4号线","lat":30.64664325,"lon":104.1166529,"area_km2":1.9809,"D":0.4616,"C":0.9745,"T":0.2187,"U1":0.2678,"U2":0.1696,"couplingDegree":0.4616,"level":"勉强协调","road_density":27.126,"walk_accessibility":0.3972,"metro_line_density":5.0171,"station_count":2,"line_count":2,"population_density":15001.4806,"poi_density":3.5337,"poi_diversity":1.7479,"gdp_density":0.0,"P":15001.4806,"I":3.5337,"G":0.0},{"stationName":"成都双桥路(地铁站)","station_id":"成都双桥路(地铁站)_30.64865_104.11104","lineId":"成都地铁4号线 / 成都地铁8号线","lat":30.648653503333335,"lon":104.11104311000001,"area_km2":2.5177,"D":0.5692,"C":0.9551,"T":0.3392,"U1":0.4397,"U2":0.2387,"couplingDegree":0.5692,"level":"勉强协调","road_density":27.6107,"walk_accessibility":0.5048,"metro_line_density":4.267,"station_count":3,"line_count":3,"population_density":25402.8273,"poi_density":5.1634,"poi_diversity":2.3517,"gdp_density":0.0,"P":25402.8273,"I":5.1634,"G":0.0},{"stationName":"成都玉双路(地铁站)","station_id":"成都玉双路(地铁站)_30.65613_104.09642","lineId":"成都地铁4号线 / 成都地铁6号线","lat":30.656125045,"lon":104.09642392500001,"area_km2":2.7555,"D":0.5134,"C":0.9343,"T":0.2822,"U1":0.3827,"U2":0.1816,"couplingDegree":0.5134,"level":"勉强协调","road_density":21.1065,"walk_accessibility":0.5525,"metro_line_density":4.2721,"station_count":2,"line_count":3,"population_density":24939.522,"poi_density":3.9919,"poi_diversity":1.6726,"gdp_density":0.0,"P":24939.522,"I":3.9919,"G":0.0},{"stationName":"成都太升南路(地铁站)","station_id":"成都太升南路(地铁站)_30.66717_104.07405","lineId":"成都地铁4号线","lat":30.66717257,"lon":104.07405275,"area_km2":2.7426,"D":0.7244,"C":0.9896,"T":0.5303,"U1":0.4538,"U2":0.6067,"couplingDegree":0.7244,"level":"良好协调","road_density":20.2363,"walk_accessibility":0.5499,"metro_line_density":2.7374,"station_count":4,"line_count":3,"population_density":54025.9421,"poi_density":16.0431,"poi_diversity":2.2423,"gdp_density":77643.9698,"P":54025.9421,"I":16.0431,"G":77643.9698},{"stationName":"成都宽窄巷子(地铁站)","station_id":"成都宽窄巷子(地铁站)_30.66783_104.04820","lineId":"成都地铁4号线","lat":30.66782543,"lon":104.04820444,"area_km2":3.3737,"D":0.8043,"C":0.9785,"T":0.6612,"U1":0.7974,"U2":0.5249,"couplingDegree":0.8043,"level":"优质协调","road_density":25.1639,"walk_accessibility":0.6764,"metro_line_density":5.5323,"station_count":5,"line_count":5,"population_density":44853.4857,"poi_density":15.4133,"poi_diversity":2.6073,"gdp_density":48267.82,"P":44853.4857,"I":15.4133,"G":48267.82},{"stationName":"成都草堂北路(地铁站)","station_id":"成都草堂北路(地铁站)_30.67159_104.02578","lineId":"成都地铁4号线","lat":30.67159127,"lon":104.02577701,"area_km2":2.3482,"D":0.4695,"C":0.9001,"T":0.2449,"U1":0.3516,"U2":0.1382,"couplingDegree":0.4695,"level":"勉强协调","road_density":22.4179,"walk_accessibility":0.4708,"metro_line_density":5.0201,"station_count":4,"line_count":2,"population_density":22815.0694,"poi_density":2.1293,"poi_diversity":1.3322,"gdp_density":0.0,"P":22815.0694,"I":2.1293,"G":0.0},{"stationName":"成都西南财大(地铁站)","station_id":"成都西南财大(地铁站)_30.67299_104.01774","lineId":"成都地铁4号线","lat":30.67298897,"lon":104.01773865,"area_km2":2.3656,"D":0.6101,"C":0.9966,"T":0.3735,"U1":0.3427,"U2":0.4044,"couplingDegree":0.6101,"level":"良好协调","road_density":25.1243,"walk_accessibility":0.4743,"metro_line_density":3.3614,"station_count":4,"line_count":2,"population_density":25200.1578,"poi_density":1.2682,"poi_diversity":1.0986,"gdp_density":95343.6194,"P":25200.1578,"I":1.2682,"G":95343.6194},{"stationName":"成都文化宫(地铁站)","station_id":"成都文化宫(地铁站)_30.67437_104.00708","lineId":"成都地铁4号线 / 成都地铁7号线","lat":30.67437221,"lon":104.007083225,"area_km2":2.6628,"D":0.6726,"C":0.9899,"T":0.4571,"U1":0.5219,"U2":0.3923,"couplingDegree":0.6726,"level":"良好协调","road_density":24.5464,"walk_accessibility":0.5339,"metro_line_density":4.1158,"station_count":5,"line_count":3,"population_density":9115.5736,"poi_density":2.2533,"poi_diversity":1.5607,"gdp_density":84701.2652,"P":9115.5736,"I":2.2533,"G":84701.2652},{"stationName":"成都清江西路(地铁站)","station_id":"成都清江西路(地铁站)_30.67918_103.99629","lineId":"成都地铁4号线","lat":30.679184735,"lon":103.99628643,"area_km2":2.4313,"D":0.3595,"C":0.8178,"T":0.158,"U1":0.249,"U2":0.0671,"couplingDegree":0.3595,"level":"中度失调","road_density":24.274,"walk_accessibility":0.4875,"metro_line_density":2.973,"station_count":2,"line_count":2,"population_density":10086.0081,"poi_density":1.2339,"poi_diversity":0.6365,"gdp_density":0.0,"P":10086.0081,"I":1.2339,"G":0.0},{"stationName":"成都成都西站(地铁站)","station_id":"成都成都西站(地铁站)_30.68650_103.97376","lineId":"成都地铁4号线 / 成都地铁9号线","lat":30.686503635,"lon":103.973755705,"area_km2":2.129,"D":0.2225,"C":0.4353,"T":0.1138,"U1":0.2162,"U2":0.0113,"couplingDegree":0.2225,"level":"中度失调","road_density":25.5707,"walk_accessibility":0.4269,"metro_line_density":4.4181,"station_count":1,"line_count":2,"population_density":5367.8148,"poi_density":0.4697,"poi_diversity":0.0,"gdp_density":0.0,"P":5367.8148,"I":0.4697,"G":0.0},{"stationName":"成都中坝(地铁站)","station_id":"成都中坝(地铁站)_30.67617_103.96193","lineId":"成都地铁4号线","lat":30.67617114,"lon":103.96192691,"area_km2":1.7046,"D":0.3326,"C":0.787,"T":0.1406,"U1":0.0538,"U2":0.2273,"couplingDegree":0.3326,"level":"中度失调","road_density":21.109,"walk_accessibility":0.3418,"metro_line_density":2.4891,"station_count":1,"line_count":1,"population_density":5482.2563,"poi_density":0.0,"poi_diversity":0.0,"gdp_density":73193.5485,"P":5482.2563,"I":0.0,"G":73193.5485},{"stationName":"成都蔡桥(地铁站)","station_id":"成都蔡桥(地铁站)_30.67220_103.94296","lineId":"成都地铁4号线","lat":30.67219904,"lon":103.94295843,"area_km2":2.0803,"D":0.0965,"C":0.3015,"T":0.0309,"U1":0.0604,"U2":0.0014,"couplingDegree":0.0965,"level":"极度失调","road_density":19.5072,"walk_accessibility":0.4171,"metro_line_density":2.8113,"station_count":1,"line_count":1,"population_density":1136.3556,"poi_density":0.0,"poi_diversity":0.0,"gdp_density":0.0,"P":1136.3556,"I":0.0,"G":0.0},{"stationName":"成都非遗博览园(地铁站)","station_id":"成都非遗博览园(地铁站)_30.67684_103.92039","lineId":"成都地铁4号线","lat":30.67684068,"lon":103.92038963,"area_km2":1.4513,"D":0.3786,"C":0.9377,"T":0.1528,"U1":0.0997,"U2":0.206,"couplingDegree":0.3786,"level":"中度失调","road_density":17.9862,"walk_accessibility":0.291,"metro_line_density":3.9878,"station_count":2,"line_count":1,"population_density":228.7678,"poi_density":0.0,"poi_diversity":0.0,"gdp_density":68313.3809,"P":228.7678,"I":0.0,"G":68313.3809},{"stationName":"成都马厂坝(地铁站)","station_id":"成都马厂坝(地铁站)_30.68018_103.91172","lineId":"成都地铁4号线","lat":30.6801823,"lon":103.91172082,"area_km2":1.5366,"D":0.0705,"C":0.1098,"T":0.0453,"U1":0.0902,"U2":0.0003,"couplingDegree":0.0705,"level":"极度失调","road_density":14.919,"walk_accessibility":0.3081,"metro_line_density":3.6813,"station_count":2,"line_count":1,"population_density":216.0562,"poi_density":0.0,"poi_diversity":0.0,"gdp_density":0.0,"P":216.0562,"I":0.0,"G":0.0},{"stationName":"成都凤凰大街(地铁站)","station_id":"成都凤凰大街(地铁站)_30.67970_103.88744","lineId":"成都地铁4号线","lat":30.67970298,"lon":103.88743571,"area_km2":1.3535,"D":0.1468,"C":0.6241,"T":0.0345,"U1":0.0615,"U2":0.0076,"couplingDegree":0.1468,"level":"极度失调","road_density":20.9101,"walk_accessibility":0.2714,"metro_line_density":4.0327,"station_count":1,"line_count":1,"population_density":5965.9681,"poi_density":0.0,"poi_diversity":0.0,"gdp_density":0.0,"P":5965.9681,"I":0.0,"G":0.0},{"stationName":"成都涌泉(地铁站)","station_id":"成都涌泉(地铁站)_30.68115_103.87098","lineId":"成都地铁4号线","lat":30.6811497,"lon":103.87097941,"area_km2":1.5913,"D":0.1032,"C":0.2963,"T":0.036,"U1":0.0703,"U2":0.0016,"couplingDegree":0.1032,"level":"极度失调","road_density":25.3045,"walk_accessibility":0.3191,"metro_line_density":3.2551,"station_count":1,"line_count":1,"population_density":1275.6534,"poi_density":0.0,"poi_diversity":0.0,"gdp_density":0.0,"P":1275.6534,"I":0.0,"G":0.0},{"stationName":"成都光华公园(地铁站)","station_id":"成都光华公园(地铁站)_30.68704_103.85845","lineId":"成都地铁4号线","lat":30.68704152,"lon":103.85844658,"area_km2":1.7659,"D":0.1191,"C":0.2475,"T":0.0573,"U1":0.1128,"U2":0.0018,"couplingDegree":0.1191,"level":"极度失调","road_density":24.1679,"walk_accessibility":0.3541,"metro_line_density":3.0035,"station_count":2,"line_count":1,"population_density":1408.3555,"poi_density":0.0,"poi_diversity":0.0,"gdp_density":0.0,"P":1408.3555,"I":0.0,"G":0.0},{"stationName":"成都南熏大道(地铁站)","station_id":"成都南熏大道(地铁站)_30.69228_103.84966","lineId":"成都地铁4号线","lat":30.69227966,"lon":103.84965866,"area_km2":1.7384,"D":0.1267,"C":0.2145,"T":0.0748,"U1":0.1479,"U2":0.0017,"couplingDegree":0.1267,"level":"极度失调","road_density":21.1846,"walk_accessibility":0.3486,"metro_line_density":2.9136,"station_count":3,"line_count":1,"population_density":1375.3794,"poi_density":0.0,"poi_diversity":0.0,"gdp_density":0.0,"P":1375.3794,"I":0.0,"G":0.0},{"stationName":"成都凤溪河(地铁站)","station_id":"成都凤溪河(地铁站)_30.68881_103.84091","lineId":"成都地铁4号线","lat":30.68880503,"lon":103.84090562,"area_km2":1.6906,"D":0.217,"C":0.7735,"T":0.0609,"U1":0.0994,"U2":0.0223,"couplingDegree":0.217,"level":"中度失调","road_density":18.7123,"walk_accessibility":0.339,"metro_line_density":3.274,"station_count":2,"line_count":1,"population_density":17602.1881,"poi_density":0.0,"poi_diversity":0.0,"gdp_density":0.0,"P":17602.1881,"I":0.0,"G":0.0},{"stationName":"成都杨柳河(地铁站)","station_id":"成都杨柳河(地铁站)_30.68358_103.82894","lineId":"成都地铁4号线","lat":30.68358179,"lon":103.8289404,"area_km2":2.501,"D":0.2692,"C":0.9847,"T":0.0736,"U1":0.0608,"U2":0.0864,"couplingDegree":0.2692,"level":"中度失调","road_density":19.5139,"walk_accessibility":0.5014,"metro_line_density":1.9926,"station_count":1,"line_count":1,"population_density":1310.683,"poi_density":1.1995,"poi_diversity":1.0986,"gdp_density":0.0,"P":1310.683,"I":1.1995,"G":0.0},{"stationName":"成都万盛(地铁站)","station_id":"成都万盛(地铁站)_30.67801_103.81670","lineId":"成都地铁4号线","lat":30.67801303,"lon":103.81670294,"area_km2":2.0766,"D":0.0788,"C":0.2898,"T":0.0214,"U1":0.042,"U2":0.0009,"couplingDegree":0.0788,"level":"极度失调","road_density":18.4856,"walk_accessibility":0.4164,"metro_line_density":1.2395,"station_count":1,"line_count":1,"population_density":727.138,"poi_density":0.0,"poi_diversity":0.0,"gdp_density":0.0,"P":727.138,"I":0.0,"G":0.0},{"stationName":"成都华桂路(地铁站)","station_id":"成都华桂路(地铁站)_30.82744_104.09576","lineId":"成都地铁5号线","lat":30.82744126,"lon":104.09576454,"area_km2":0.9311,"D":0.1766,"C":0.6546,"T":0.0476,"U1":0.0836,"U2":0.0116,"couplingDegree":0.1766,"level":"极度失调","road_density":19.9325,"walk_accessibility":0.1867,"metro_line_density":2.9053,"station_count":2,"line_count":1,"population_density":966.6219,"poi_density":1.074,"poi_diversity":0.0,"gdp_density":0.0,"P":966.6219,"I":1.074,"G":0.0},{"stationName":"成都柏水场(地铁站)","station_id":"成都柏水场(地铁站)_30.81783_104.09168","lineId":"成都地铁5号线","lat":30.81782722,"lon":104.0916845,"area_km2":1.6952,"D":0.1765,"C":0.4049,"T":0.0769,"U1":0.1472,"U2":0.0066,"couplingDegree":0.1765,"level":"极度失调","road_density":19.7034,"walk_accessibility":0.3399,"metro_line_density":3.3328,"station_count":3,"line_count":1,"population_density":690.7662,"poi_density":0.5899,"poi_diversity":0.0,"gdp_density":0.0,"P":690.7662,"I":0.5899,"G":0.0},{"stationName":"成都廖家湾(地铁站)","station_id":"成都廖家湾(地铁站)_30.81069_104.08841","lineId":"成都地铁5号线","lat":30.81068565,"lon":104.0884137,"area_km2":1.908,"D":0.3533,"C":0.9828,"T":0.127,"U1":0.1036,"U2":0.1505,"couplingDegree":0.3533,"level":"中度失调","road_density":18.9116,"walk_accessibility":0.3826,"metro_line_density":3.1926,"station_count":2,"line_count":1,"population_density":613.7238,"poi_density":3.1446,"poi_diversity":1.7918,"gdp_density":0.0,"P":613.7238,"I":3.1446,"G":0.0},{"stationName":"成都北部商贸城(地铁站)","station_id":"成都北部商贸城(地铁站)_30.79342_104.08642","lineId":"成都地铁5号线","lat":30.79342341,"lon":104.08641729,"area_km2":1.2436,"D":0.0622,"C":0.2011,"T":0.0192,"U1":0.0381,"U2":0.0004,"couplingDegree":0.0622,"level":"极度失调","road_density":17.8773,"walk_accessibility":0.2493,"metro_line_density":2.7114,"station_count":1,"line_count":1,"population_density":310.3807,"poi_density":0.0,"poi_diversity":0.0,"gdp_density":0.0,"P":310.3807,"I":0.0,"G":0.0},{"stationName":"成都幸福桥(地铁站)","station_id":"成都幸福桥(地铁站)_30.77929_104.08572","lineId":"成都地铁5号线","lat":30.77929324,"lon":104.08571958,"area_km2":1.7752,"D":0.0971,"C":0.2033,"T":0.0463,"U1":0.0917,"U2":0.001,"couplingDegree":0.0971,"level":"极度失调","road_density":20.9285,"walk_accessibility":0.3559,"metro_line_density":1.7309,"station_count":2,"line_count":1,"population_density":764.4162,"poi_density":0.0,"poi_diversity":0.0,"gdp_density":0.0,"P":764.4162,"I":0.0,"G":0.0},{"stationName":"成都九道堰(凤凰山体育公园东)(地铁站)","station_id":"成都九道堰(凤凰山体育公园东)(地铁站)_30.77394_104.08036","lineId":"成都地铁5号线","lat":30.77393662,"lon":104.0803578,"area_km2":1.6513,"D":0.1304,"C":0.122,"T":0.1393,"U1":0.2776,"U2":0.001,"couplingDegree":0.1304,"level":"极度失调","road_density":25.6103,"walk_accessibility":0.3311,"metro_line_density":2.6106,"station_count":3,"line_count":2,"population_density":821.787,"poi_density":0.0,"poi_diversity":0.0,"gdp_density":0.0,"P":821.787,"I":0.0,"G":0.0},{"stationName":"成都杜家碾(凤凰山体育公园西)(地铁站)","station_id":"成都杜家碾(凤凰山体育公园西)(地铁站)_30.77377_104.07278","lineId":"成都地铁5号线 / 成都成都S11号线(德阳线)(韦家碾--德阳北站)","lat":30.773771495,"lon":104.072777055,"area_km2":1.2944,"D":0.107,"C":0.07,"T":0.1637,"U1":0.3269,"U2":0.0004,"couplingDegree":0.107,"level":"极度失调","road_density":28.7789,"walk_accessibility":0.2595,"metro_line_density":7.4528,"station_count":3,"line_count":2,"population_density":316.7461,"poi_density":0.0,"poi_diversity":0.0,"gdp_density":0.0,"P":316.7461,"I":0.0,"G":0.0},{"stationName":"成都大丰(地铁站)","station_id":"成都大丰(地铁站)_30.77398_104.06260","lineId":"成都地铁5号线","lat":30.77398217,"lon":104.06259667,"area_km2":1.9866,"D":0.1424,"C":0.1755,"T":0.1155,"U1":0.2292,"U2":0.0018,"couplingDegree":0.1424,"level":"极度失调","road_density":21.4234,"walk_accessibility":0.3983,"metro_line_density":2.6537,"station_count":2,"line_count":2,"population_density":1416.0013,"poi_density":0.0,"poi_diversity":0.0,"gdp_density":0.0,"P":1416.0013,"I":0.0,"G":0.0},{"stationName":"成都石犀公园(地铁站)","station_id":"成都石犀公园(地铁站)_30.76266_104.05727","lineId":"成都地铁5号线","lat":30.76266028,"lon":104.05726891,"area_km2":2.1961,"D":0.2124,"C":0.7228,"T":0.0624,"U1":0.1055,"U2":0.0193,"couplingDegree":0.2124,"level":"中度失调","road_density":23.3173,"walk_accessibility":0.4403,"metro_line_density":1.6225,"station_count":2,"line_count":1,"population_density":11746.3063,"poi_density":0.4554,"poi_diversity":0.0,"gdp_density":0.0,"P":11746.3063,"I":0.4554,"G":0.0},{"stationName":"成都皇花园(地铁站)","station_id":"成都皇花园(地铁站)_30.75472_104.05722","lineId":"成都地铁5号线","lat":30.75471737,"lon":104.05722109,"area_km2":1.7232,"D":0.2368,"C":0.679,"T":0.0826,"U1":0.1433,"U2":0.022,"couplingDegree":0.2368,"level":"中度失调","road_density":21.4375,"walk_accessibility":0.3455,"metro_line_density":2.4114,"station_count":3,"line_count":1,"population_density":12913.0204,"poi_density":0.5803,"poi_diversity":0.0,"gdp_density":0.0,"P":12913.0204,"I":0.5803,"G":0.0},{"stationName":"成都陆家桥(地铁站)","station_id":"成都陆家桥(地铁站)_30.74441_104.05657","lineId":"成都地铁5号线","lat":30.744414135,"lon":104.056574765,"area_km2":1.1586,"D":0.2138,"C":0.9021,"T":0.0507,"U1":0.0726,"U2":0.0288,"couplingDegree":0.2138,"level":"中度失调","road_density":18.6468,"walk_accessibility":0.2323,"metro_line_density":1.6712,"station_count":2,"line_count":1,"population_density":16158.4831,"poi_density":0.8631,"poi_diversity":0.0,"gdp_density":0.0,"P":16158.4831,"I":0.8631,"G":0.0},{"stationName":"成都泉水路(地铁站)","station_id":"成都泉水路(地铁站)_30.73277_104.05588","lineId":"成都地铁5号线","lat":30.73276842,"lon":104.05587875,"area_km2":1.5393,"D":0.2651,"C":0.5592,"T":0.1257,"U1":0.2299,"U2":0.0215,"couplingDegree":0.2651,"level":"中度失调","road_density":22.3681,"walk_accessibility":0.3086,"metro_line_density":3.3865,"station_count":2,"line_count":2,"population_density":16978.6716,"poi_density":0.0,"poi_diversity":0.0,"gdp_density":0.0,"P":16978.6716,"I":0.0,"G":0.0},{"stationName":"成都洞子口(地铁站)","station_id":"成都洞子口(地铁站)_30.72422_104.05656","lineId":"成都地铁27号线 / 成都地铁5号线","lat":30.724219356666666,"lon":104.05656139333333,"area_km2":2.2725,"D":0.3811,"C":0.7541,"T":0.1926,"U1":0.3191,"U2":0.0661,"couplingDegree":0.3811,"level":"中度失调","road_density":27.0444,"walk_accessibility":0.4556,"metro_line_density":5.1389,"station_count":3,"line_count":2,"population_density":9039.297,"poi_density":0.8801,"poi_diversity":0.6931,"gdp_density":0.0,"P":9039.297,"I":0.8801,"G":0.0},{"stationName":"成都福宁路(地铁站)","station_id":"成都福宁路(地铁站)_30.71694_104.05733","lineId":"成都地铁5号线","lat":30.71694134,"lon":104.05732857,"area_km2":1.7132,"D":0.3923,"C":0.82,"T":0.1877,"U1":0.2951,"U2":0.0802,"couplingDegree":0.3923,"level":"中度失调","road_density":24.1347,"walk_accessibility":0.3435,"metro_line_density":4.6363,"station_count":3,"line_count":2,"population_density":18009.076,"poi_density":1.1674,"poi_diversity":0.6931,"gdp_density":0.0,"P":18009.076,"I":1.1674,"G":0.0},{"stationName":"成都五块石(地铁站)","station_id":"成都五块石(地铁站)_30.70978_104.06205","lineId":"成都地铁5号线","lat":30.70977973,"lon":104.06204724,"area_km2":1.8942,"D":0.3282,"C":0.9465,"T":0.1138,"U1":0.1505,"U2":0.0771,"couplingDegree":0.3282,"level":"中度失调","road_density":20.5044,"walk_accessibility":0.3798,"metro_line_density":3.0446,"station_count":3,"line_count":1,"population_density":16350.3251,"poi_density":1.0559,"poi_diversity":0.6931,"gdp_density":0.0,"P":16350.3251,"I":1.0559,"G":0.0},{"stationName":"成都赛云台(地铁站)","station_id":"成都赛云台(地铁站)_30.70300_104.06399","lineId":"成都地铁5号线","lat":30.7030014,"lon":104.0639932,"area_km2":1.7468,"D":0.527,"C":0.7427,"T":0.374,"U1":0.6245,"U2":0.1235,"couplingDegree":0.527,"level":"勉强协调","road_density":22.1003,"walk_accessibility":0.3502,"metro_line_density":4.6142,"station_count":5,"line_count":4,"population_density":25405.7797,"poi_density":2.2898,"poi_diversity":1.0397,"gdp_density":0.0,"P":25405.7797,"I":2.2898,"G":0.0},{"stationName":"成都北站西二路(地铁站)","station_id":"成都北站西二路(地铁站)_30.69659_104.06371","lineId":"成都地铁5号线 / 成都地铁7号线","lat":30.696590954999998,"lon":104.06370926,"area_km2":2.3794,"D":0.6422,"C":0.8071,"T":0.5111,"U1":0.8128,"U2":0.2093,"couplingDegree":0.6422,"level":"良好协调","road_density":21.3179,"walk_accessibility":0.4771,"metro_line_density":5.6638,"station_count":6,"line_count":5,"population_density":40135.1727,"poi_density":3.7825,"poi_diversity":1.831,"gdp_density":0.0,"P":40135.1727,"I":3.7825,"G":0.0},{"stationName":"成都西北桥(地铁站)","station_id":"成都西北桥(地铁站)_30.68805_104.05566","lineId":"成都地铁5号线","lat":30.68805366,"lon":104.05565981,"area_km2":2.4388,"D":0.4983,"C":0.9324,"T":0.2663,"U1":0.3625,"U2":0.17,"couplingDegree":0.4983,"level":"勉强协调","road_density":20.4635,"walk_accessibility":0.489,"metro_line_density":6.4537,"station_count":4,"line_count":2,"population_density":11034.7435,"poi_density":4.1005,"poi_diversity":1.7481,"gdp_density":0.0,"P":11034.7435,"I":4.1005,"G":0.0},{"stationName":"成都花牌坊(地铁站)","station_id":"成都花牌坊(地铁站)_30.68592_104.04537","lineId":"成都地铁5号线","lat":30.68592103,"lon":104.04537314,"area_km2":2.2722,"D":0.5126,"C":0.8615,"T":0.305,"U1":0.4599,"U2":0.1501,"couplingDegree":0.5126,"level":"勉强协调","road_density":20.952,"walk_accessibility":0.4556,"metro_line_density":4.1105,"station_count":4,"line_count":3,"population_density":17105.2074,"poi_density":2.2005,"poi_diversity":1.6094,"gdp_density":0.0,"P":17105.2074,"I":2.2005,"G":0.0},{"stationName":"成都抚琴(地铁站)","station_id":"成都抚琴(地铁站)_30.67977_104.03965","lineId":"成都地铁5号线","lat":30.67977185,"lon":104.0396536,"area_km2":2.9238,"D":0.6665,"C":0.9997,"T":0.4443,"U1":0.4546,"U2":0.434,"couplingDegree":0.6665,"level":"良好协调","road_density":21.5543,"walk_accessibility":0.5862,"metro_line_density":2.0942,"station_count":4,"line_count":3,"population_density":40188.7978,"poi_density":4.7882,"poi_diversity":2.54,"gdp_density":55694.3834,"P":40188.7978,"I":4.7882,"G":55694.3834},{"stationName":"成都青羊宫(地铁站)","station_id":"成都青羊宫(地铁站)_30.66173_104.03845","lineId":"成都地铁13号线 / 成都地铁5号线","lat":30.661733796666667,"lon":104.03844585,"area_km2":2.9317,"D":0.698,"C":0.8858,"T":0.5501,"U1":0.8053,"U2":0.2948,"couplingDegree":0.698,"level":"良好协调","road_density":24.5785,"walk_accessibility":0.5878,"metro_line_density":7.383,"station_count":5,"line_count":5,"population_density":36153.6578,"poi_density":8.8687,"poi_diversity":2.4513,"gdp_density":0.0,"P":36153.6578,"I":8.8687,"G":0.0},{"stationName":"成都省骨科医院(地铁站)","station_id":"成都省骨科医院(地铁站)_30.65424_104.03862","lineId":"成都地铁17号线 / 成都地铁5号线","lat":30.654238409999998,"lon":104.038624865,"area_km2":2.779,"D":0.692,"C":0.9054,"T":0.5289,"U1":0.7535,"U2":0.3043,"couplingDegree":0.692,"level":"良好协调","road_density":20.8156,"walk_accessibility":0.5572,"metro_line_density":7.97,"station_count":4,"line_count":5,"population_density":38226.0378,"poi_density":10.7951,"poi_diversity":2.2747,"gdp_density":0.0,"P":38226.0378,"I":10.7951,"G":0.0},{"stationName":"成都科园(地铁站)","station_id":"成都科园(地铁站)_30.63053_104.03539","lineId":"成都地铁5号线","lat":30.63053267,"lon":104.03539309,"area_km2":2.5777,"D":0.5421,"C":0.7011,"T":0.4192,"U1":0.7181,"U2":0.1203,"couplingDegree":0.5421,"level":"勉强协调","road_density":23.564,"walk_accessibility":0.5168,"metro_line_density":4.0747,"station_count":4,"line_count":5,"population_density":28340.3166,"poi_density":1.1638,"poi_diversity":1.0986,"gdp_density":0.0,"P":28340.3166,"I":1.1638,"G":0.0},{"stationName":"成都九兴大道(地铁站)","station_id":"成都九兴大道(地铁站)_30.62383_104.03642","lineId":"成都地铁5号线 / 成都地铁8号线","lat":30.623833564999998,"lon":104.03641721,"area_km2":2.1357,"D":0.3416,"C":0.4912,"T":0.2376,"U1":0.4446,"U2":0.0306,"couplingDegree":0.3416,"level":"中度失调","road_density":27.3977,"walk_accessibility":0.4282,"metro_line_density":5.5954,"station_count":3,"line_count":3,"population_density":20617.1045,"poi_density":0.4682,"poi_diversity":0.0,"gdp_density":0.0,"P":20617.1045,"I":0.4682,"G":0.0},{"stationName":"成都神仙树(地铁站)","station_id":"成都神仙树(地铁站)_30.61215_104.04514","lineId":"成都地铁5号线 / 成都地铁7号线","lat":30.612149925,"lon":104.0451391,"area_km2":1.8548,"D":0.617,"C":0.8613,"T":0.4419,"U1":0.2174,"U2":0.6665,"couplingDegree":0.617,"level":"良好协调","road_density":26.6095,"walk_accessibility":0.3719,"metro_line_density":4.8197,"station_count":1,"line_count":2,"population_density":9495.8566,"poi_density":8.6262,"poi_diversity":2.3933,"gdp_density":136722.4358,"P":9495.8566,"I":8.6262,"G":136722.4358},{"stationName":"成都石羊立交(地铁站)","station_id":"成都石羊立交(地铁站)_30.59766_104.04837","lineId":"成都地铁5号线","lat":30.59765532,"lon":104.04837103,"area_km2":1.9843,"D":0.4142,"C":0.6869,"T":0.2497,"U1":0.4312,"U2":0.0682,"couplingDegree":0.4142,"level":"勉强协调","road_density":30.7502,"walk_accessibility":0.3978,"metro_line_density":3.6634,"station_count":3,"line_count":3,"population_density":8875.7484,"poi_density":1.5119,"poi_diversity":0.6365,"gdp_density":0.0,"P":8875.7484,"I":1.5119,"G":0.0},{"stationName":"成都市一医院(地铁站)","station_id":"成都市一医院(地铁站)_30.59136_104.04870","lineId":"成都地铁30号线 / 成都地铁5号线","lat":30.591362655,"lon":104.04869672000001,"area_km2":1.9615,"D":0.634,"C":0.9653,"T":0.4164,"U1":0.3076,"U2":0.5252,"couplingDegree":0.634,"level":"良好协调","road_density":24.4628,"walk_accessibility":0.3933,"metro_line_density":5.3029,"station_count":3,"line_count":2,"population_density":8978.9037,"poi_density":3.0589,"poi_diversity":1.0114,"gdp_density":138460.2828,"P":8978.9037,"I":3.0589,"G":138460.2828},{"stationName":"成都交子大道(地铁站)","station_id":"成都交子大道(地铁站)_30.58433_104.04774","lineId":"成都地铁5号线","lat":30.58433217,"lon":104.04774073,"area_km2":2.1267,"D":0.6735,"C":0.9978,"T":0.4546,"U1":0.4242,"U2":0.485,"couplingDegree":0.6735,"level":"良好协调","road_density":23.7849,"walk_accessibility":0.4264,"metro_line_density":4.5338,"station_count":3,"line_count":3,"population_density":10324.5173,"poi_density":1.8809,"poi_diversity":1.0397,"gdp_density":127704.8318,"P":10324.5173,"I":1.8809,"G":127704.8318},{"stationName":"成都锦城大道(地铁站)","station_id":"成都锦城大道(地铁站)_30.57721_104.04786","lineId":"成都地铁5号线 / 成都地铁9号线","lat":30.577205445,"lon":104.04786006500001,"area_km2":2.5142,"D":0.5508,"C":0.9938,"T":0.3053,"U1":0.2714,"U2":0.3392,"couplingDegree":0.5508,"level":"勉强协调","road_density":27.5987,"walk_accessibility":0.5041,"metro_line_density":4.1666,"station_count":2,"line_count":2,"population_density":7972.8728,"poi_density":0.3977,"poi_diversity":0.0,"gdp_density":108023.776,"P":7972.8728,"I":0.3977,"G":108023.776},{"stationName":"成都锦城湖(地铁站)","station_id":"成都锦城湖(地铁站)_30.56625_104.04368","lineId":"成都地铁5号线","lat":30.56625285,"lon":104.04367672,"area_km2":2.6615,"D":0.1661,"C":0.6237,"T":0.0443,"U1":0.0788,"U2":0.0097,"couplingDegree":0.1661,"level":"极度失调","road_density":25.5097,"walk_accessibility":0.5336,"metro_line_density":1.8732,"station_count":1,"line_count":1,"population_density":4757.7823,"poi_density":0.3757,"poi_diversity":0.0,"gdp_density":0.0,"P":4757.7823,"I":0.3757,"G":0.0},{"stationName":"成都大源(地铁站)","station_id":"成都大源(地铁站)_30.55232_104.04377","lineId":"成都地铁5号线","lat":30.55232448,"lon":104.04376832,"area_km2":2.0374,"D":0.4701,"C":0.8085,"T":0.2733,"U1":0.1125,"U2":0.4342,"couplingDegree":0.4701,"level":"勉强协调","road_density":23.6906,"walk_accessibility":0.4085,"metro_line_density":2.5425,"station_count":2,"line_count":1,"population_density":593.8947,"poi_density":1.4725,"poi_diversity":1.0986,"gdp_density":114946.1174,"P":593.8947,"I":1.4725,"G":114946.1174},{"stationName":"成都民乐(地铁站)","station_id":"成都民乐(地铁站)_30.54285_104.04406","lineId":"成都地铁5号线","lat":30.54285006,"lon":104.04406351,"area_km2":2.3823,"D":0.1503,"C":0.3815,"T":0.0592,"U1":0.114,"U2":0.0045,"couplingDegree":0.1503,"level":"极度失调","road_density":22.044,"walk_accessibility":0.4776,"metro_line_density":2.4358,"station_count":2,"line_count":1,"population_density":3538.1697,"poi_density":0.0,"poi_diversity":0.0,"gdp_density":0.0,"P":3538.1697,"I":0.0,"G":0.0},{"stationName":"成都骑龙(地铁站)","station_id":"成都骑龙(地铁站)_30.52808_104.04190","lineId":"成都地铁5号线","lat":30.52807542,"lon":104.04189533,"area_km2":2.1286,"D":0.2198,"C":0.9632,"T":0.0502,"U1":0.0637,"U2":0.0367,"couplingDegree":0.2198,"level":"中度失调","road_density":20.7202,"walk_accessibility":0.4268,"metro_line_density":2.7187,"station_count":1,"line_count":1,"population_density":684.95,"poi_density":0.0,"poi_diversity":0.0,"gdp_density":11895.9568,"P":684.95,"I":0.0,"G":11895.9568},{"stationName":"成都警官学院(地铁站)","station_id":"成都警官学院(地铁站)_30.51483_104.03725","lineId":"成都地铁5号线","lat":30.51482975,"lon":104.03725331,"area_km2":2.3023,"D":0.1038,"C":0.3132,"T":0.0344,"U1":0.0671,"U2":0.0017,"couplingDegree":0.1038,"level":"极度失调","road_density":21.6249,"walk_accessibility":0.4616,"metro_line_density":2.4625,"station_count":1,"line_count":1,"population_density":1366.8924,"poi_density":0.0,"poi_diversity":0.0,"gdp_density":0.0,"P":1366.8924,"I":0.0,"G":0.0},{"stationName":"成都二江寺(地铁站)","station_id":"成都二江寺(地铁站)_30.50215_104.03330","lineId":"成都地铁5号线","lat":30.5021541,"lon":104.03330269,"area_km2":1.4704,"D":0.0937,"C":0.2631,"T":0.0334,"U1":0.0655,"U2":0.0012,"couplingDegree":0.0937,"level":"极度失调","road_density":22.1664,"walk_accessibility":0.2948,"metro_line_density":3.8614,"station_count":1,"line_count":1,"population_density":928.2963,"poi_density":0.0,"poi_diversity":0.0,"gdp_density":0.0,"P":928.2963,"I":0.0,"G":0.0},{"stationName":"成都南湖立交(地铁站)","station_id":"成都南湖立交(地铁站)_30.49102_104.03069","lineId":"成都地铁5号线","lat":30.49101985,"lon":104.03069021,"area_km2":1.5911,"D":0.1042,"C":0.3087,"T":0.0351,"U1":0.0686,"U2":0.0017,"couplingDegree":0.1042,"level":"极度失调","road_density":23.8865,"walk_accessibility":0.319,"metro_line_density":3.4596,"station_count":1,"line_count":1,"population_density":1355.6542,"poi_density":0.0,"poi_diversity":0.0,"gdp_density":0.0,"P":1355.6542,"I":0.0,"G":0.0},{"stationName":"成都怡心湖(地铁站)","station_id":"成都怡心湖(地铁站)_30.47376_104.02439","lineId":"成都地铁5号线","lat":30.47375577,"lon":104.02439132,"area_km2":1.5513,"D":0.1171,"C":0.4279,"T":0.0321,"U1":0.061,"U2":0.0031,"couplingDegree":0.1171,"level":"极度失调","road_density":21.4471,"walk_accessibility":0.311,"metro_line_density":3.4341,"station_count":1,"line_count":1,"population_density":2434.6749,"poi_density":0.0,"poi_diversity":0.0,"gdp_density":0.0,"P":2434.6749,"I":0.0,"G":0.0},{"stationName":"成都龙马路(地铁站)","station_id":"成都龙马路(地铁站)_30.46024_104.01717","lineId":"成都地铁5号线","lat":30.46024398,"lon":104.01716514,"area_km2":1.3551,"D":0.2315,"C":0.9896,"T":0.0542,"U1":0.062,"U2":0.0464,"couplingDegree":0.2315,"level":"中度失调","road_density":22.3193,"walk_accessibility":0.2717,"metro_line_density":3.6956,"station_count":1,"line_count":1,"population_density":12596.1349,"poi_density":0.0,"poi_diversity":0.0,"gdp_density":10102.5887,"P":12596.1349,"I":0.0,"G":10102.5887},{"stationName":"成都回龙(地铁站)","station_id":"成都回龙(地铁站)_30.44694_104.00983","lineId":"成都地铁5号线 / 成都地铁6号线","lat":30.446944759999997,"lon":104.00982760666666,"area_km2":0.6882,"D":0.0,"C":0.0,"T":0.1114,"U1":0.2228,"U2":0.0,"couplingDegree":0.0,"level":"极度失调","road_density":33.9535,"walk_accessibility":0.138,"metro_line_density":5.7698,"station_count":1,"line_count":2,"population_density":0.0,"poi_density":0.0,"poi_diversity":0.0,"gdp_density":0.0,"P":0.0,"I":0.0,"G":0.0},{"stationName":"成都琉璃场(地铁站)","station_id":"成都琉璃场(地铁站)_30.61000_104.09724","lineId":"成都地铁6号线 / 成都地铁7号线","lat":30.610002585,"lon":104.0972442,"area_km2":2.035,"D":0.5386,"C":0.9268,"T":0.313,"U1":0.1954,"U2":0.4306,"couplingDegree":0.5386,"level":"勉强协调","road_density":16.4097,"walk_accessibility":0.408,"metro_line_density":4.9776,"station_count":1,"line_count":2,"population_density":6601.071,"poi_density":1.4742,"poi_diversity":1.0986,"gdp_density":111209.3476,"P":6601.071,"I":1.4742,"G":111209.3476},{"stationName":"成都西南交大(地铁站)","station_id":"成都西南交大(地铁站)_30.69716_104.04672","lineId":"成都地铁6号线 / 成都地铁7号线","lat":30.697160330000003,"lon":104.04671795,"area_km2":2.8368,"D":0.6132,"C":0.9769,"T":0.385,"U1":0.4673,"U2":0.3027,"couplingDegree":0.6132,"level":"良好协调","road_density":20.8592,"walk_accessibility":0.5688,"metro_line_density":3.7281,"station_count":4,"line_count":3,"population_density":17812.3535,"poi_density":2.4676,"poi_diversity":1.5498,"gdp_density":50844.6987,"P":17812.3535,"I":2.4676,"G":50844.6987},{"stationName":"成都府青路(地铁站)","station_id":"成都府青路(地铁站)_30.69686_104.10468","lineId":"成都地铁7号线","lat":30.69685602,"lon":104.10468293,"area_km2":2.083,"D":0.2987,"C":0.9533,"T":0.0936,"U1":0.0654,"U2":0.1219,"couplingDegree":0.2987,"level":"中度失调","road_density":22.2605,"walk_accessibility":0.4176,"metro_line_density":2.5674,"station_count":1,"line_count":1,"population_density":8690.4739,"poi_density":1.9203,"poi_diversity":1.3863,"gdp_density":0.0,"P":8690.4739,"I":1.9203,"G":0.0},{"stationName":"成都八里庄(地铁站)","station_id":"成都八里庄(地铁站)_30.68952_104.11552","lineId":"成都地铁7号线","lat":30.68952189,"lon":104.1155171,"area_km2":2.0259,"D":0.4478,"C":0.984,"T":0.2038,"U1":0.2401,"U2":0.1675,"couplingDegree":0.4478,"level":"勉强协调","road_density":19.8852,"walk_accessibility":0.4062,"metro_line_density":4.0826,"station_count":2,"line_count":2,"population_density":18250.5687,"poi_density":4.4426,"poi_diversity":1.523,"gdp_density":0.0,"P":18250.5687,"I":4.4426,"G":0.0},{"stationName":"成都二仙桥(地铁站)","station_id":"成都二仙桥(地铁站)_30.68329_104.12414","lineId":"成都地铁17号线 / 成都地铁7号线","lat":30.68329185,"lon":104.12413731000001,"area_km2":2.225,"D":0.4961,"C":0.8446,"T":0.2914,"U1":0.4475,"U2":0.1354,"couplingDegree":0.4961,"level":"勉强协调","road_density":19.9296,"walk_accessibility":0.4461,"metro_line_density":7.7111,"station_count":3,"line_count":3,"population_density":19722.8523,"poi_density":2.2472,"poi_diversity":1.3322,"gdp_density":0.0,"P":19722.8523,"I":2.2472,"G":0.0},{"stationName":"成都理工大学(地铁站)","station_id":"成都理工大学(地铁站)_30.67620_104.13403","lineId":"成都地铁7号线 / 成都地铁8号线","lat":30.676198499999998,"lon":104.134031185,"area_km2":3.0444,"D":0.5391,"C":0.9187,"T":0.3164,"U1":0.4413,"U2":0.1914,"couplingDegree":0.5391,"level":"勉强协调","road_density":25.6393,"walk_accessibility":0.6104,"metro_line_density":3.8879,"station_count":3,"line_count":3,"population_density":19961.3649,"poi_density":0.9854,"poi_diversity":0.6365,"gdp_density":37950.276,"P":19961.3649,"I":0.9854,"G":37950.276},{"stationName":"成都崔家店(地铁站)","station_id":"成都崔家店(地铁站)_30.66784_104.13391","lineId":"成都地铁7号线","lat":30.66784267,"lon":104.13391003,"area_km2":2.3463,"D":0.4789,"C":0.97,"T":0.2365,"U1":0.294,"U2":0.1789,"couplingDegree":0.4789,"level":"勉强协调","road_density":22.3537,"walk_accessibility":0.4704,"metro_line_density":3.7132,"station_count":3,"line_count":2,"population_density":20982.8063,"poi_density":0.4262,"poi_diversity":0.0,"gdp_density":49243.1697,"P":20982.8063,"I":0.4262,"G":49243.1697},{"stationName":"成都双店路(地铁站)","station_id":"成都双店路(地铁站)_30.66001_104.13444","lineId":"成都地铁7号线","lat":30.66000874,"lon":104.13443971,"area_km2":2.1455,"D":0.2507,"C":0.4371,"T":0.1438,"U1":0.2731,"U2":0.0145,"couplingDegree":0.2507,"level":"中度失调","road_density":17.9604,"walk_accessibility":0.4302,"metro_line_density":3.1981,"station_count":3,"line_count":2,"population_density":11423.6545,"poi_density":0.0,"poi_diversity":0.0,"gdp_density":0.0,"P":11423.6545,"I":0.0,"G":0.0},{"stationName":"成都迎晖路(地铁站)","station_id":"成都迎晖路(地铁站)_30.64073_104.13714","lineId":"成都地铁7号线","lat":30.64072801,"lon":104.13713607,"area_km2":2.2439,"D":0.4578,"C":0.9847,"T":0.2128,"U1":0.2499,"U2":0.1758,"couplingDegree":0.4578,"level":"勉强协调","road_density":27.0872,"walk_accessibility":0.4499,"metro_line_density":2.6927,"station_count":2,"line_count":2,"population_density":13006.6804,"poi_density":0.4456,"poi_diversity":0.0,"gdp_density":51478.129,"P":13006.6804,"I":0.4456,"G":51478.129},{"stationName":"成都大观(地铁站)","station_id":"成都大观(地铁站)_30.62392_104.13041","lineId":"成都地铁7号线","lat":30.6239168,"lon":104.13041167,"area_km2":2.5275,"D":0.2225,"C":0.3252,"T":0.1522,"U1":0.2961,"U2":0.0083,"couplingDegree":0.2225,"level":"中度失调","road_density":24.8061,"walk_accessibility":0.5068,"metro_line_density":2.9005,"station_count":3,"line_count":2,"population_density":6535.3054,"poi_density":0.0,"poi_diversity":0.0,"gdp_density":0.0,"P":6535.3054,"I":0.0,"G":0.0},{"stationName":"成都狮子山(地铁站)","station_id":"成都狮子山(地铁站)_30.61837_104.12178","lineId":"成都地铁7号线","lat":30.61837128,"lon":104.1217807,"area_km2":2.6152,"D":0.4845,"C":0.9813,"T":0.2392,"U1":0.2853,"U2":0.1931,"couplingDegree":0.4845,"level":"勉强协调","road_density":23.5238,"walk_accessibility":0.5243,"metro_line_density":1.9735,"station_count":3,"line_count":2,"population_density":14422.5457,"poi_density":8.4123,"poi_diversity":1.4034,"gdp_density":0.0,"P":14422.5457,"I":8.4123,"G":0.0},{"stationName":"成都四川师大(地铁站)","station_id":"成都四川师大(地铁站)_30.61153_104.11334","lineId":"成都地铁13号线 / 成都地铁7号线","lat":30.61152723,"lon":104.113340085,"area_km2":1.8767,"D":0.4826,"C":0.9984,"T":0.2333,"U1":0.2463,"U2":0.2202,"couplingDegree":0.4826,"level":"勉强协调","road_density":22.8781,"walk_accessibility":0.3763,"metro_line_density":4.2122,"station_count":2,"line_count":2,"population_density":6818.8721,"poi_density":12.2555,"poi_diversity":1.3964,"gdp_density":0.0,"P":6818.8721,"I":12.2555,"G":0.0},{"stationName":"成都三瓦窑(地铁站)","station_id":"成都三瓦窑(地铁站)_30.60654_104.07494","lineId":"成都地铁7号线","lat":30.60653771,"lon":104.07493618,"area_km2":2.2189,"D":0.6402,"C":0.9953,"T":0.4118,"U1":0.3719,"U2":0.4518,"couplingDegree":0.6402,"level":"良好协调","road_density":27.1036,"walk_accessibility":0.4449,"metro_line_density":2.6648,"station_count":2,"line_count":3,"population_density":11386.6206,"poi_density":3.6054,"poi_diversity":1.4942,"gdp_density":100647.1622,"P":11386.6206,"I":3.6054,"G":100647.1622},{"stationName":"成都高朋大道(地铁站)","station_id":"成都高朋大道(地铁站)_30.61992_104.03136","lineId":"成都地铁7号线 / 成都地铁8号线","lat":30.619924545,"lon":104.0313559,"area_km2":1.6719,"D":0.2764,"C":0.3387,"T":0.2256,"U1":0.4378,"U2":0.0133,"couplingDegree":0.2764,"level":"中度失调","road_density":24.1608,"walk_accessibility":0.3352,"metro_line_density":6.735,"station_count":3,"line_count":3,"population_density":10534.21,"poi_density":0.0,"poi_diversity":0.0,"gdp_density":0.0,"P":10534.21,"I":0.0,"G":0.0},{"stationName":"成都武侯大道(地铁站)","station_id":"成都武侯大道(地铁站)_30.63957_104.01057","lineId":"成都地铁7号线","lat":30.63956507,"lon":104.0105746,"area_km2":2.3373,"D":0.3823,"C":0.7457,"T":0.196,"U1":0.0654,"U2":0.3265,"couplingDegree":0.3823,"level":"中度失调","road_density":21.2517,"walk_accessibility":0.4686,"metro_line_density":2.3236,"station_count":1,"line_count":1,"population_density":11257.9871,"poi_density":0.0,"poi_diversity":0.0,"gdp_density":103723.8272,"P":11257.9871,"I":0.0,"G":103723.8272},{"stationName":"成都龙爪堰(地铁站)","station_id":"成都龙爪堰(地铁站)_30.65426_104.00612","lineId":"成都地铁17号线 / 成都地铁7号线","lat":30.654256144999998,"lon":104.006123695,"area_km2":2.6588,"D":0.4933,"C":0.8848,"T":0.2751,"U1":0.4032,"U2":0.1469,"couplingDegree":0.4933,"level":"勉强协调","road_density":20.9245,"walk_accessibility":0.5331,"metro_line_density":6.5839,"station_count":2,"line_count":3,"population_density":10039.8168,"poi_density":3.385,"poi_diversity":1.523,"gdp_density":0.0,"P":10039.8168,"I":3.385,"G":0.0},{"stationName":"成都东坡路(地铁站)","station_id":"成都东坡路(地铁站)_30.66347_104.00568","lineId":"成都地铁13号线 / 成都地铁7号线","lat":30.663471035,"lon":104.005678675,"area_km2":2.4521,"D":0.4412,"C":0.624,"T":0.3119,"U1":0.5556,"U2":0.0682,"couplingDegree":0.4412,"level":"勉强协调","road_density":21.2588,"walk_accessibility":0.4916,"metro_line_density":5.4224,"station_count":3,"line_count":4,"population_density":11168.6011,"poi_density":0.8156,"poi_diversity":0.6931,"gdp_density":0.0,"P":11168.6011,"I":0.8156,"G":0.0},{"stationName":"成都金沙博物馆(地铁站)","station_id":"成都金沙博物馆(地铁站)_30.67997_104.01017","lineId":"成都地铁7号线","lat":30.67997448,"lon":104.010167,"area_km2":2.7063,"D":0.5903,"C":0.9867,"T":0.3531,"U1":0.2957,"U2":0.4106,"couplingDegree":0.5903,"level":"勉强协调","road_density":21.9978,"walk_accessibility":0.5426,"metro_line_density":3.2494,"station_count":3,"line_count":2,"population_density":3266.4451,"poi_density":2.9561,"poi_diversity":1.9062,"gdp_density":83339.7983,"P":3266.4451,"I":2.9561,"G":83339.7983},{"stationName":"成都茶店子(地铁站)","station_id":"成都茶店子(地铁站)_30.69871_104.02842","lineId":"成都地铁7号线","lat":30.69870586,"lon":104.02841713,"area_km2":2.3268,"D":0.1949,"C":0.5776,"T":0.0658,"U1":0.1195,"U2":0.0121,"couplingDegree":0.1949,"level":"极度失调","road_density":24.8298,"walk_accessibility":0.4665,"metro_line_density":2.3554,"station_count":2,"line_count":1,"population_density":9545.4129,"poi_density":0.0,"poi_diversity":0.0,"gdp_density":0.0,"P":9545.4129,"I":0.0,"G":0.0},{"stationName":"成都花照壁(地铁站)","station_id":"成都花照壁(地铁站)_30.69908_104.03838","lineId":"成都地铁7号线","lat":30.69907724,"lon":104.0383817,"area_km2":2.7031,"D":0.5133,"C":0.9923,"T":0.2656,"U1":0.2984,"U2":0.2327,"couplingDegree":0.5133,"level":"勉强协调","road_density":23.1246,"walk_accessibility":0.542,"metro_line_density":3.2292,"station_count":3,"line_count":2,"population_density":14945.6171,"poi_density":1.1099,"poi_diversity":0.6365,"gdp_density":53360.1335,"P":14945.6171,"I":1.1099,"G":53360.1335},{"stationName":"成都九里堤(地铁站)","station_id":"成都九里堤(地铁站)_30.69706_104.05463","lineId":"成都地铁7号线","lat":30.69705974,"lon":104.05462712,"area_km2":2.5996,"D":0.5254,"C":0.8337,"T":0.3311,"U1":0.5139,"U2":0.1483,"couplingDegree":0.5254,"level":"勉强协调","road_density":20.7206,"walk_accessibility":0.5212,"metro_line_density":4.4693,"station_count":5,"line_count":3,"population_density":17385.9357,"poi_density":2.3081,"poi_diversity":1.5607,"gdp_density":0.0,"P":17385.9357,"I":2.3081,"G":0.0},{"stationName":"成都华兴(地铁站)","station_id":"成都华兴(地铁站)_30.60109_103.99963","lineId":"成都地铁10号线 / 成都地铁9号线","lat":30.601086435,"lon":103.99963489,"area_km2":1.7939,"D":0.2465,"C":0.5607,"T":0.1084,"U1":0.1981,"U2":0.0186,"couplingDegree":0.2465,"level":"中度失调","road_density":18.9567,"walk_accessibility":0.3597,"metro_line_density":5.0588,"station_count":1,"line_count":2,"population_density":14727.3901,"poi_density":0.0,"poi_diversity":0.0,"gdp_density":0.0,"P":14727.3901,"I":0.0,"G":0.0},{"stationName":"成都簇锦(地铁站)","station_id":"成都簇锦(地铁站)_30.61376_104.00591","lineId":"成都地铁10号线","lat":30.61376056,"lon":104.00590956,"area_km2":2.267,"D":0.2006,"C":0.923,"T":0.0436,"U1":0.0604,"U2":0.0268,"couplingDegree":0.2006,"level":"中度失调","road_density":19.4663,"walk_accessibility":0.4545,"metro_line_density":2.44,"station_count":1,"line_count":1,"population_density":21177.9647,"poi_density":0.0,"poi_diversity":0.0,"gdp_density":0.0,"P":21177.9647,"I":0.0,"G":0.0},{"stationName":"成都金花(地铁站)","station_id":"成都金花(地铁站)_30.59428_103.96787","lineId":"成都地铁10号线","lat":30.59427627,"lon":103.96786642,"area_km2":1.199,"D":0.0869,"C":0.4768,"T":0.0158,"U1":0.0298,"U2":0.0019,"couplingDegree":0.0869,"level":"极度失调","road_density":16.5759,"walk_accessibility":0.2404,"metro_line_density":2.3138,"station_count":1,"line_count":1,"population_density":1513.7375,"poi_density":0.0,"poi_diversity":0.0,"gdp_density":0.0,"P":1513.7375,"I":0.0,"G":0.0},{"stationName":"成都双流机场1航站楼(地铁站)","station_id":"成都双流机场1航站楼(地铁站)_30.58127_103.95709","lineId":"成都地铁10号线","lat":30.58127283,"lon":103.95709338,"area_km2":1.0402,"D":0.122,"C":0.2481,"T":0.06,"U1":0.1181,"U2":0.0019,"couplingDegree":0.122,"level":"极度失调","road_density":31.6476,"walk_accessibility":0.2085,"metro_line_density":3.0051,"station_count":2,"line_count":1,"population_density":1481.5048,"poi_density":0.0,"poi_diversity":0.0,"gdp_density":0.0,"P":1481.5048,"I":0.0,"G":0.0},{"stationName":"成都双流机场2航站楼(地铁站)","station_id":"成都双流机场2航站楼(地铁站)_30.57263_103.95345","lineId":"成都地铁10号线","lat":30.57263485,"lon":103.95345451,"area_km2":1.2297,"D":0.286,"C":0.991,"T":0.0825,"U1":0.0936,"U2":0.0715,"couplingDegree":0.286,"level":"中度失调","road_density":26.0188,"walk_accessibility":0.2465,"metro_line_density":1.6675,"station_count":2,"line_count":1,"population_density":4327.9744,"poi_density":2.4397,"poi_diversity":0.6365,"gdp_density":0.0,"P":4327.9744,"I":2.4397,"G":0.0},{"stationName":"成都应天寺(地铁站)","station_id":"成都应天寺(地铁站)_30.53854_103.90261","lineId":"成都地铁10号线","lat":30.53853978,"lon":103.90260964,"area_km2":1.0887,"D":0.0926,"C":0.3242,"T":0.0265,"U1":0.0515,"U2":0.0014,"couplingDegree":0.0926,"level":"极度失调","road_density":23.5493,"walk_accessibility":0.2183,"metro_line_density":2.8527,"station_count":1,"line_count":1,"population_density":1128.8371,"poi_density":0.0,"poi_diversity":0.0,"gdp_density":0.0,"P":1128.8371,"I":0.0,"G":0.0},{"stationName":"成都黄水(地铁站)","station_id":"成都黄水(地铁站)_30.52180_103.88927","lineId":"成都地铁10号线","lat":30.52180029,"lon":103.88926933,"area_km2":0.6852,"D":0.112,"C":0.2706,"T":0.0464,"U1":0.091,"U2":0.0017,"couplingDegree":0.112,"level":"极度失调","road_density":22.5486,"walk_accessibility":0.1374,"metro_line_density":7.9218,"station_count":1,"line_count":1,"population_density":1365.9647,"poi_density":0.0,"poi_diversity":0.0,"gdp_density":0.0,"P":1365.9647,"I":0.0,"G":0.0},{"stationName":"成都花源(地铁站)","station_id":"成都花源(地铁站)_30.48817_103.87884","lineId":"成都地铁10号线","lat":30.48816746,"lon":103.87883754,"area_km2":1.343,"D":0.1056,"C":0.3654,"T":0.0305,"U1":0.059,"U2":0.0021,"couplingDegree":0.1056,"level":"极度失调","road_density":19.7231,"walk_accessibility":0.2693,"metro_line_density":4.1162,"station_count":1,"line_count":1,"population_density":1668.597,"poi_density":0.0,"poi_diversity":0.0,"gdp_density":0.0,"P":1668.597,"I":0.0,"G":0.0},{"stationName":"成都新津站(地铁站)","station_id":"成都新津站(地铁站)_30.46578_103.87116","lineId":"成都地铁10号线","lat":30.46578055,"lon":103.87116348,"area_km2":1.4544,"D":0.1048,"C":0.3356,"T":0.0327,"U1":0.0635,"U2":0.0019,"couplingDegree":0.1048,"level":"极度失调","road_density":21.7782,"walk_accessibility":0.2916,"metro_line_density":3.7957,"station_count":1,"line_count":1,"population_density":1498.8812,"poi_density":0.0,"poi_diversity":0.0,"gdp_density":0.0,"P":1498.8812,"I":0.0,"G":0.0},{"stationName":"成都花桥(地铁站)","station_id":"成都花桥(地铁站)_30.44448_103.85516","lineId":"成都地铁10号线","lat":30.4444811,"lon":103.85516356,"area_km2":1.0611,"D":0.1453,"C":0.5869,"T":0.036,"U1":0.0651,"U2":0.0068,"couplingDegree":0.1453,"level":"极度失调","road_density":19.4646,"walk_accessibility":0.2127,"metro_line_density":5.3739,"station_count":1,"line_count":1,"population_density":5405.9192,"poi_density":0.0,"poi_diversity":0.0,"gdp_density":0.0,"P":5405.9192,"I":0.0,"G":0.0},{"stationName":"成都五津(地铁站)","station_id":"成都五津(地铁站)_30.42639_103.81116","lineId":"成都地铁10号线","lat":30.42639114,"lon":103.81115761,"area_km2":2.1234,"D":0.1274,"C":0.5401,"T":0.03,"U1":0.0553,"U2":0.0048,"couplingDegree":0.1274,"level":"极度失调","road_density":18.5293,"walk_accessibility":0.4257,"metro_line_density":2.4755,"station_count":1,"line_count":1,"population_density":3757.595,"poi_density":0.0,"poi_diversity":0.0,"gdp_density":0.0,"P":3757.595,"I":0.0,"G":0.0},{"stationName":"成都儒林路(地铁站)","station_id":"成都儒林路(地铁站)_30.41904_103.80089","lineId":"成都地铁10号线","lat":30.41903874,"lon":103.80089094,"area_km2":2.1859,"D":0.1326,"C":0.3201,"T":0.0549,"U1":0.1069,"U2":0.0029,"couplingDegree":0.1326,"level":"极度失调","road_density":20.0118,"walk_accessibility":0.4383,"metro_line_density":2.6716,"station_count":2,"line_count":1,"population_density":2282.7693,"poi_density":0.0,"poi_diversity":0.0,"gdp_density":0.0,"P":2282.7693,"I":0.0,"G":0.0},{"stationName":"成都刘家碾(地铁站)","station_id":"成都刘家碾(地铁站)_30.41792_103.78915","lineId":"成都地铁10号线","lat":30.41791626,"lon":103.78914943,"area_km2":1.6001,"D":0.127,"C":0.2285,"T":0.0706,"U1":0.1393,"U2":0.0019,"couplingDegree":0.127,"level":"极度失调","road_density":18.2351,"walk_accessibility":0.3208,"metro_line_density":3.1221,"station_count":3,"line_count":1,"population_density":1474.3168,"poi_density":0.0,"poi_diversity":0.0,"gdp_density":0.0,"P":1474.3168,"I":0.0,"G":0.0},{"stationName":"成都新平(宝墩)(地铁站)","station_id":"成都新平(宝墩)(地铁站)_30.41102_103.77929","lineId":"成都地铁10号线","lat":30.41101639,"lon":103.77928939,"area_km2":1.0237,"D":0.2239,"C":0.9274,"T":0.0541,"U1":0.0743,"U2":0.0338,"couplingDegree":0.2239,"level":"中度失调","road_density":15.9252,"walk_accessibility":0.2052,"metro_line_density":2.8512,"station_count":2,"line_count":1,"population_density":1601.0655,"poi_density":0.0,"poi_diversity":0.0,"gdp_density":10567.6186,"P":1601.0655,"I":0.0,"G":10567.6186},{"stationName":"成都武侯祠(地铁站)","station_id":"成都武侯祠(地铁站)_30.64718_104.04794","lineId":"成都地铁10号线","lat":30.6471779,"lon":104.04793561,"area_km2":2.3553,"D":0.8618,"C":0.9995,"T":0.7431,"U1":0.7655,"U2":0.7207,"couplingDegree":0.8618,"level":"优质协调","road_density":23.211,"walk_accessibility":0.4722,"metro_line_density":4.9213,"station_count":5,"line_count":5,"population_density":19341.6202,"poi_density":23.3518,"poi_diversity":2.5794,"gdp_density":99105.6893,"P":19341.6202,"I":23.3518,"G":99105.6893},{"stationName":"成都文翁石室(地铁站)","station_id":"成都文翁石室(地铁站)_30.65158_104.05487","lineId":"成都地铁10号线 / 成都地铁13号线","lat":30.651577725000003,"lon":104.05486696,"area_km2":2.9795,"D":0.8403,"C":0.9989,"T":0.7069,"U1":0.7402,"U2":0.6735,"couplingDegree":0.8403,"level":"优质协调","road_density":25.107,"walk_accessibility":0.5974,"metro_line_density":8.4675,"station_count":6,"line_count":4,"population_density":33407.4716,"poi_density":21.8159,"poi_diversity":2.7665,"gdp_density":78343.117,"P":33407.4716,"I":21.8159,"G":78343.117}]}