{"cityCode":"440300","year":2020,"stations":[{"stationName":"深圳机场东(地铁站)","station_id":"深圳机场东(地铁站)_22.65001_113.81745","lineId":"深圳地铁12号线 / 深圳地铁1号线 / 深圳地铁20号线","lat":22.65000622333333,"lon":113.81745417333333,"area_km2":1.8094,"D":0.3868,"C":0.87,"T":0.172,"U1":0.2568,"U2":0.0872,"couplingDegree":0.3868,"level":"中度失调","road_density":23.3038,"walk_accessibility":0.3628,"metro_line_density":6.5442,"station_count":1,"line_count":3,"population_density":10907.4204,"poi_density":1.1053,"poi_diversity":0.0,"gdp_density":293424.3092,"P":10907.4204,"I":1.1053,"G":293424.3092},{"stationName":"深圳后瑞(地铁站)","station_id":"深圳后瑞(地铁站)_22.63180_113.83045","lineId":"深圳地铁1号线","lat":22.6318011,"lon":113.83045122,"area_km2":2.1041,"D":0.3512,"C":0.9981,"T":0.1236,"U1":0.116,"U2":0.1312,"couplingDegree":0.3512,"level":"中度失调","road_density":27.7809,"walk_accessibility":0.4219,"metro_line_density":5.241,"station_count":1,"line_count":1,"population_density":15641.8291,"poi_density":0.9505,"poi_diversity":0.6931,"gdp_density":166846.494,"P":15641.8291,"I":0.9505,"G":166846.494},{"stationName":"深圳固戍(地铁站)","station_id":"深圳固戍(地铁站)_22.60435_113.84182","lineId":"深圳地铁1号线","lat":22.60435465,"lon":113.84182451,"area_km2":2.5354,"D":0.3297,"C":0.9158,"T":0.1187,"U1":0.071,"U2":0.1664,"couplingDegree":0.3297,"level":"中度失调","road_density":26.6834,"walk_accessibility":0.5083,"metro_line_density":2.1077,"station_count":1,"line_count":1,"population_density":14006.6996,"poi_density":1.1832,"poi_diversity":1.0986,"gdp_density":183494.3509,"P":14006.6996,"I":1.1832,"G":183494.3509},{"stationName":"深圳西乡(地铁站)","station_id":"深圳西乡(地铁站)_22.57817_113.85812","lineId":"深圳地铁1号线","lat":22.57817025,"lon":113.85812138,"area_km2":2.6809,"D":0.4994,"C":0.9828,"T":0.2538,"U1":0.3006,"U2":0.207,"couplingDegree":0.4994,"level":"勉强协调","road_density":28.7036,"walk_accessibility":0.5375,"metro_line_density":3.7063,"station_count":3,"line_count":3,"population_density":10865.2908,"poi_density":1.865,"poi_diversity":1.6094,"gdp_density":174888.6968,"P":10865.2908,"I":1.865,"G":174888.6968},{"stationName":"深圳坪洲(地铁站)","station_id":"深圳坪洲(地铁站)_22.57195_113.86578","lineId":"深圳地铁15号线 / 深圳地铁1号线","lat":22.571946635,"lon":113.865775895,"area_km2":2.9608,"D":0.4747,"C":0.9998,"T":0.2254,"U1":0.2206,"U2":0.2302,"couplingDegree":0.4747,"level":"勉强协调","road_density":30.6237,"walk_accessibility":0.5936,"metro_line_density":4.5866,"station_count":2,"line_count":2,"population_density":16920.2895,"poi_density":3.7153,"poi_diversity":1.7678,"gdp_density":55035.4395,"P":16920.2895,"I":3.7153,"G":55035.4395},{"stationName":"深圳宝体(地铁站)","station_id":"深圳宝体(地铁站)_22.56378_113.87575","lineId":"深圳地铁1号线","lat":22.5637833,"lon":113.87574882,"area_km2":3.1156,"D":0.5596,"C":1.0,"T":0.3131,"U1":0.3138,"U2":0.3125,"couplingDegree":0.5596,"level":"勉强协调","road_density":41.7022,"walk_accessibility":0.6247,"metro_line_density":2.8603,"station_count":3,"line_count":3,"population_density":25793.5924,"poi_density":7.3823,"poi_diversity":2.0999,"gdp_density":51516.2511,"P":25793.5924,"I":7.3823,"G":51516.2511},{"stationName":"深圳宝安中心(地铁站)","station_id":"深圳宝安中心(地铁站)_22.55762_113.88236","lineId":"深圳地铁1号线 / 深圳地铁5号线","lat":22.55761773,"lon":113.882356145,"area_km2":3.4136,"D":0.6479,"C":0.9948,"T":0.422,"U1":0.465,"U2":0.3789,"couplingDegree":0.6479,"level":"良好协调","road_density":41.0074,"walk_accessibility":0.6844,"metro_line_density":3.6275,"station_count":7,"line_count":3,"population_density":14231.7743,"poi_density":12.5966,"poi_diversity":2.4102,"gdp_density":137946.1493,"P":14231.7743,"I":12.5966,"G":137946.1493},{"stationName":"深圳新安(地铁站)","station_id":"深圳新安(地铁站)_22.55052_113.88975","lineId":"深圳地铁1号线","lat":22.5505208,"lon":113.88975332,"area_km2":3.0257,"D":0.5138,"C":0.976,"T":0.2705,"U1":0.3293,"U2":0.2116,"couplingDegree":0.5138,"level":"勉强协调","road_density":40.2879,"walk_accessibility":0.6066,"metro_line_density":3.9059,"station_count":5,"line_count":2,"population_density":7777.4763,"poi_density":5.2881,"poi_diversity":1.7214,"gdp_density":0.0,"P":7777.4763,"I":5.2881,"G":0.0},{"stationName":"深圳前海湾(地铁站)","station_id":"深圳前海湾(地铁站)_22.54039_113.89306","lineId":"深圳地铁1号线","lat":22.5403881,"lon":113.89306479999999,"area_km2":2.3465,"D":0.2276,"C":0.2904,"T":0.1783,"U1":0.349,"U2":0.0077,"couplingDegree":0.2276,"level":"中度失调","road_density":43.4533,"walk_accessibility":0.4705,"metro_line_density":5.366,"station_count":5,"line_count":2,"population_density":1595.9726,"poi_density":0.4262,"poi_diversity":0.0,"gdp_density":0.0,"P":1595.9726,"I":0.4262,"G":0.0},{"stationName":"深圳鲤鱼门(地铁站)","station_id":"深圳鲤鱼门(地铁站)_22.53506_113.89822","lineId":"深圳地铁1号线","lat":22.53505852,"lon":113.89821563,"area_km2":2.5907,"D":0.4538,"C":0.9328,"T":0.2208,"U1":0.3003,"U2":0.1412,"couplingDegree":0.4538,"level":"勉强协调","road_density":40.3698,"walk_accessibility":0.5194,"metro_line_density":4.5708,"station_count":4,"line_count":2,"population_density":5015.666,"poi_density":1.544,"poi_diversity":1.3863,"gdp_density":0.0,"P":5015.666,"I":1.544,"G":0.0},{"stationName":"深圳大新(地铁站)","station_id":"深圳大新(地铁站)_22.53528_113.91021","lineId":"深圳地铁1号线","lat":22.53528155,"lon":113.91021352,"area_km2":2.7798,"D":0.6067,"C":0.992,"T":0.371,"U1":0.3243,"U2":0.4177,"couplingDegree":0.6067,"level":"良好协调","road_density":30.3518,"walk_accessibility":0.5574,"metro_line_density":2.7702,"station_count":4,"line_count":3,"population_density":35853.8056,"poi_density":11.1517,"poi_diversity":2.1143,"gdp_density":304344.015,"P":35853.8056,"I":11.1517,"G":304344.015},{"stationName":"深圳桃园(地铁站)","station_id":"深圳桃园(地铁站)_22.53497_113.91996","lineId":"深圳地铁12号线 / 深圳地铁1号线","lat":22.534973825,"lon":113.91995836000001,"area_km2":2.9509,"D":0.6696,"C":0.9541,"T":0.47,"U1":0.3292,"U2":0.6108,"couplingDegree":0.6696,"level":"良好协调","road_density":35.1938,"walk_accessibility":0.5916,"metro_line_density":4.6739,"station_count":3,"line_count":3,"population_density":32296.9609,"poi_density":22.3661,"poi_diversity":2.6784,"gdp_density":555846.2693,"P":32296.9609,"I":22.3661,"G":555846.2693},{"stationName":"深圳深大(地铁站)","station_id":"深圳深大(地铁站)_22.54225_113.93968","lineId":"深圳地铁1号线 / 深圳地铁20号线","lat":22.542249435000002,"lon":113.93968090499999,"area_km2":3.0953,"D":0.6309,"C":0.9982,"T":0.3988,"U1":0.3748,"U2":0.4228,"couplingDegree":0.6309,"level":"良好协调","road_density":38.5053,"walk_accessibility":0.6206,"metro_line_density":4.9497,"station_count":4,"line_count":3,"population_density":14781.592,"poi_density":13.5691,"poi_diversity":1.9789,"gdp_density":525570.516,"P":14781.592,"I":13.5691,"G":525570.516},{"stationName":"深圳高新园(地铁站)","station_id":"深圳高新园(地铁站)_22.54323_113.94895","lineId":"深圳地铁1号线","lat":22.54323071,"lon":113.94894998,"area_km2":3.0293,"D":0.612,"C":0.9996,"T":0.3747,"U1":0.3639,"U2":0.3856,"couplingDegree":0.612,"level":"良好协调","road_density":40.1298,"walk_accessibility":0.6074,"metro_line_density":4.1185,"station_count":4,"line_count":3,"population_density":13408.9207,"poi_density":12.2142,"poi_diversity":2.0106,"gdp_density":392811.8228,"P":13408.9207,"I":12.2142,"G":392811.8228},{"stationName":"深圳白石洲(地铁站)","station_id":"深圳白石洲(地铁站)_22.54236_113.96268","lineId":"深圳地铁1号线 / 深圳地铁29号线","lat":22.54235794,"lon":113.9626828,"area_km2":2.3067,"D":0.6366,"C":0.858,"T":0.4723,"U1":0.2297,"U2":0.7148,"couplingDegree":0.6366,"level":"良好协调","road_density":30.435,"walk_accessibility":0.4625,"metro_line_density":5.6996,"station_count":2,"line_count":2,"population_density":20793.7692,"poi_density":29.4793,"poi_diversity":2.788,"gdp_density":842529.3686,"P":20793.7692,"I":29.4793,"G":842529.3686},{"stationName":"深圳世界之窗(地铁站)","station_id":"深圳世界之窗(地铁站)_22.53984_113.96928","lineId":"深圳地铁1号线","lat":22.539844119999998,"lon":113.96928457,"area_km2":2.2183,"D":0.66,"C":0.8788,"T":0.4957,"U1":0.2592,"U2":0.7322,"couplingDegree":0.66,"level":"良好协调","road_density":27.1948,"walk_accessibility":0.4448,"metro_line_density":5.7958,"station_count":3,"line_count":2,"population_density":10589.652,"poi_density":30.2033,"poi_diversity":2.7381,"gdp_density":1050599.3266,"P":10589.652,"I":30.2033,"G":1050599.3266},{"stationName":"深圳华侨城(地铁站)","station_id":"深圳华侨城(地铁站)_22.53640_113.98041","lineId":"深圳地铁1号线","lat":22.53640038,"lon":113.98041078,"area_km2":1.9388,"D":0.5946,"C":0.9363,"T":0.3776,"U1":0.245,"U2":0.5103,"couplingDegree":0.5946,"level":"勉强协调","road_density":27.7476,"walk_accessibility":0.3887,"metro_line_density":2.8013,"station_count":4,"line_count":2,"population_density":7686.5647,"poi_density":14.9574,"poi_diversity":2.5186,"gdp_density":777087.2949,"P":7686.5647,"I":14.9574,"G":777087.2949},{"stationName":"深圳侨城东(地铁站)","station_id":"深圳侨城东(地铁站)_22.53528_113.99167","lineId":"深圳地铁1号线","lat":22.53528443,"lon":113.991665165,"area_km2":2.6443,"D":0.6035,"C":0.928,"T":0.3924,"U1":0.2463,"U2":0.5386,"couplingDegree":0.6035,"level":"良好协调","road_density":32.6023,"walk_accessibility":0.5302,"metro_line_density":4.0618,"station_count":3,"line_count":2,"population_density":9587.9083,"poi_density":21.1779,"poi_diversity":2.5442,"gdp_density":560328.5858,"P":9587.9083,"I":21.1779,"G":560328.5858},{"stationName":"深圳竹子林(地铁站)","station_id":"深圳竹子林(地铁站)_22.53618_114.00889","lineId":"深圳地铁1号线","lat":22.53618372,"lon":114.00888869,"area_km2":2.636,"D":0.527,"C":0.9778,"T":0.2841,"U1":0.3436,"U2":0.2245,"couplingDegree":0.527,"level":"勉强协调","road_density":36.8073,"walk_accessibility":0.5285,"metro_line_density":5.6801,"station_count":3,"line_count":3,"population_density":19059.8975,"poi_density":1.8968,"poi_diversity":1.3322,"gdp_density":298866.5679,"P":19059.8975,"I":1.8968,"G":298866.5679},{"stationName":"深圳车公庙(地铁站)","station_id":"深圳车公庙(地铁站)_22.53872_114.02221","lineId":"深圳地铁1号线 / 深圳地铁7号线","lat":22.53871917,"lon":114.02220625,"area_km2":2.4824,"D":0.6685,"C":0.9993,"T":0.4472,"U1":0.4304,"U2":0.464,"couplingDegree":0.6685,"level":"良好协调","road_density":40.5783,"walk_accessibility":0.4977,"metro_line_density":8.8111,"station_count":4,"line_count":3,"population_density":21710.4543,"poi_density":12.0849,"poi_diversity":1.5935,"gdp_density":931385.9417,"P":21710.4543,"I":12.0849,"G":931385.9417},{"stationName":"深圳香蜜湖(地铁站)","station_id":"深圳香蜜湖(地铁站)_22.54164_114.03355","lineId":"深圳地铁1号线","lat":22.54164462,"lon":114.03355214,"area_km2":1.6897,"D":0.6034,"C":0.9999,"T":0.3641,"U1":0.3691,"U2":0.3591,"couplingDegree":0.6034,"level":"良好协调","road_density":32.3984,"walk_accessibility":0.3388,"metro_line_density":8.5232,"station_count":3,"line_count":3,"population_density":14709.5028,"poi_density":5.9181,"poi_diversity":1.2799,"gdp_density":912794.6333,"P":14709.5028,"I":5.9181,"G":912794.6333},{"stationName":"深圳购物公园(地铁站)","station_id":"深圳购物公园(地铁站)_22.53683_114.04872","lineId":"深圳地铁1号线 / 深圳地铁3号线","lat":22.536828185,"lon":114.04872448500001,"area_km2":2.9494,"D":0.7603,"C":0.9984,"T":0.579,"U1":0.612,"U2":0.546,"couplingDegree":0.7603,"level":"良好协调","road_density":39.2579,"walk_accessibility":0.5913,"metro_line_density":5.3532,"station_count":5,"line_count":6,"population_density":26287.6146,"poi_density":16.2744,"poi_diversity":1.9416,"gdp_density":943476.9404,"P":26287.6146,"I":16.2744,"G":943476.9404},{"stationName":"深圳会展中心(地铁站)","station_id":"深圳会展中心(地铁站)_22.53748_114.05598","lineId":"深圳地铁1号线","lat":22.537482,"lon":114.05598438,"area_km2":2.8183,"D":0.7877,"C":0.998,"T":0.6217,"U1":0.6613,"U2":0.5822,"couplingDegree":0.7877,"level":"良好协调","road_density":39.9326,"walk_accessibility":0.5651,"metro_line_density":6.3594,"station_count":6,"line_count":6,"population_density":31439.5346,"poi_density":19.1603,"poi_diversity":1.867,"gdp_density":959675.5861,"P":31439.5346,"I":19.1603,"G":959675.5861},{"stationName":"深圳岗厦(地铁站)","station_id":"深圳岗厦(地铁站)_22.53720_114.06300","lineId":"深圳地铁10号线 / 深圳地铁1号线","lat":22.53719936,"lon":114.06300142,"area_km2":3.0179,"D":0.7392,"C":0.9891,"T":0.5525,"U1":0.634,"U2":0.471,"couplingDegree":0.7392,"level":"良好协调","road_density":39.3513,"walk_accessibility":0.6051,"metro_line_density":6.7213,"station_count":5,"line_count":6,"population_density":41967.2166,"poi_density":12.5915,"poi_diversity":1.7887,"gdp_density":600420.5047,"P":41967.2166,"I":12.5915,"G":600420.5047},{"stationName":"深圳华强路(地铁站)","station_id":"深圳华强路(地铁站)_22.54314_114.08000","lineId":"深圳地铁1号线","lat":22.54314425,"lon":114.08000402,"area_km2":3.0295,"D":0.8544,"C":0.9999,"T":0.7301,"U1":0.7408,"U2":0.7194,"couplingDegree":0.8544,"level":"优质协调","road_density":29.8098,"walk_accessibility":0.6074,"metro_line_density":7.9828,"station_count":8,"line_count":6,"population_density":55799.1615,"poi_density":29.7083,"poi_diversity":2.527,"gdp_density":542838.7199,"P":55799.1615,"I":29.7083,"G":542838.7199},{"stationName":"深圳科学馆(地铁站)","station_id":"深圳科学馆(地铁站)_22.54281_114.09065","lineId":"深圳地铁1号线 / 深圳地铁6号线","lat":22.542808015,"lon":114.09064715,"area_km2":2.5726,"D":0.851,"C":0.9983,"T":0.7254,"U1":0.7678,"U2":0.683,"couplingDegree":0.851,"level":"优质协调","road_density":32.2578,"walk_accessibility":0.5158,"metro_line_density":7.7812,"station_count":7,"line_count":7,"population_density":59859.9086,"poi_density":22.1564,"poi_diversity":2.6042,"gdp_density":664609.1368,"P":59859.9086,"I":22.1564,"G":664609.1368},{"stationName":"深圳大剧院(地铁站)","station_id":"深圳大剧院(地铁站)_22.54405_114.10295","lineId":"深圳地铁1号线 / 深圳地铁2号线 / 深圳地铁5号线","lat":22.54404932,"lon":114.1029459975,"area_km2":2.8679,"D":0.8514,"C":0.9891,"T":0.7328,"U1":0.8407,"U2":0.625,"couplingDegree":0.8514,"level":"优质协调","road_density":37.1631,"walk_accessibility":0.575,"metro_line_density":9.55,"station_count":8,"line_count":7,"population_density":50877.691,"poi_density":19.8752,"poi_diversity":2.7077,"gdp_density":527301.6312,"P":50877.691,"I":19.8752,"G":527301.6312},{"stationName":"深圳老街(地铁站)","station_id":"深圳老街(地铁站)_22.54744_114.11095","lineId":"深圳地铁17号线 / 深圳地铁1号线 / 深圳地铁3号线","lat":22.547437164999998,"lon":114.1109457625,"area_km2":3.0672,"D":0.9009,"C":0.9985,"T":0.8129,"U1":0.8576,"U2":0.7683,"couplingDegree":0.9009,"level":"优质协调","road_density":34.5057,"walk_accessibility":0.615,"metro_line_density":8.5457,"station_count":9,"line_count":7,"population_density":70570.3434,"poi_density":27.0603,"poi_diversity":2.8994,"gdp_density":604672.3152,"P":70570.3434,"I":27.0603,"G":604672.3152},{"stationName":"深圳国贸(地铁站)","station_id":"深圳国贸(地铁站)_22.54236_114.11373","lineId":"深圳地铁1号线","lat":22.54236105,"lon":114.11372756,"area_km2":2.898,"D":0.8703,"C":0.9958,"T":0.7605,"U1":0.8301,"U2":0.691,"couplingDegree":0.8703,"level":"优质协调","road_density":34.7328,"walk_accessibility":0.581,"metro_line_density":8.9086,"station_count":10,"line_count":6,"population_density":45538.9719,"poi_density":27.605,"poi_diversity":2.909,"gdp_density":447893.5749,"P":45538.9719,"I":27.605,"G":447893.5749},{"stationName":"深圳罗湖(地铁站)","station_id":"深圳罗湖(地铁站)_22.53455_114.11352","lineId":"深圳地铁1号线","lat":22.53455081,"lon":114.11352383,"area_km2":1.9686,"D":0.6899,"C":0.9954,"T":0.4782,"U1":0.4323,"U2":0.5241,"couplingDegree":0.6899,"level":"良好协调","road_density":36.1087,"walk_accessibility":0.3947,"metro_line_density":5.3452,"station_count":6,"line_count":3,"population_density":27145.0325,"poi_density":20.3193,"poi_diversity":2.5159,"gdp_density":320817.0289,"P":27145.0325,"I":20.3193,"G":320817.0289},{"stationName":"深圳湾厦(地铁站)","station_id":"深圳湾厦(地铁站)_22.49638_113.93374","lineId":"深圳地铁2号线","lat":22.496378425,"lon":113.93373575,"area_km2":2.5806,"D":0.4966,"C":0.9934,"T":0.2483,"U1":0.2198,"U2":0.2767,"couplingDegree":0.4966,"level":"勉强协调","road_density":37.4045,"walk_accessibility":0.5174,"metro_line_density":1.8848,"station_count":3,"line_count":2,"population_density":7302.2179,"poi_density":12.0128,"poi_diversity":1.7293,"gdp_density":0.0,"P":7302.2179,"I":12.0128,"G":0.0},{"stationName":"深圳后海(地铁站)","station_id":"深圳后海(地铁站)_22.52078_113.93700","lineId":"深圳地铁11号线 / 深圳地铁2号线","lat":22.52077919,"lon":113.93700366,"area_km2":3.2515,"D":0.6157,"C":0.9928,"T":0.3818,"U1":0.4274,"U2":0.3362,"couplingDegree":0.6157,"level":"良好协调","road_density":43.4973,"walk_accessibility":0.6519,"metro_line_density":3.4545,"station_count":4,"line_count":4,"population_density":7514.1086,"poi_density":11.3794,"poi_diversity":2.5144,"gdp_density":0.0,"P":7514.1086,"I":11.3794,"G":0.0},{"stationName":"深圳景田(地铁站)","station_id":"深圳景田(地铁站)_22.55616_114.03825","lineId":"深圳地铁2号线","lat":22.55616499,"lon":114.038249175,"area_km2":2.589,"D":0.598,"C":0.9897,"T":0.3614,"U1":0.3097,"U2":0.4131,"couplingDegree":0.598,"level":"勉强协调","road_density":25.6758,"walk_accessibility":0.5191,"metro_line_density":4.5008,"station_count":5,"line_count":2,"population_density":11969.0372,"poi_density":11.2012,"poi_diversity":2.103,"gdp_density":577477.8468,"P":11969.0372,"I":11.2012,"G":577477.8468},{"stationName":"深圳福田(地铁站)","station_id":"深圳福田(地铁站)_22.54272_114.04896","lineId":"深圳地铁11号线 / 深圳地铁2号线 / 深圳地铁3号线","lat":22.542715333333334,"lon":114.04896284666667,"area_km2":3.1711,"D":0.7422,"C":0.9957,"T":0.5533,"U1":0.6047,"U2":0.5018,"couplingDegree":0.7422,"level":"良好协调","road_density":38.949,"walk_accessibility":0.6358,"metro_line_density":6.7918,"station_count":6,"line_count":5,"population_density":20251.3091,"poi_density":13.2446,"poi_diversity":2.0902,"gdp_density":866933.5063,"P":20251.3091,"I":13.2446,"G":866933.5063},{"stationName":"深圳岗厦北(地铁站)","station_id":"深圳岗厦北(地铁站)_22.54251_114.06310","lineId":"深圳地铁10号线 / 深圳地铁11号线 / 深圳地铁2号线","lat":22.54250847333333,"lon":114.06310459666668,"area_km2":3.0388,"D":0.7665,"C":0.9882,"T":0.5945,"U1":0.6856,"U2":0.5034,"couplingDegree":0.7665,"level":"良好协调","road_density":36.2552,"walk_accessibility":0.6093,"metro_line_density":8.1579,"station_count":6,"line_count":6,"population_density":22247.8115,"poi_density":13.8214,"poi_diversity":2.0318,"gdp_density":846448.8335,"P":22247.8115,"I":13.8214,"G":846448.8335},{"stationName":"深圳黄贝岭(地铁站)","station_id":"深圳黄贝岭(地铁站)_22.54881_114.13127","lineId":"深圳地铁2号线","lat":22.54880508,"lon":114.13126658499999,"area_km2":2.2937,"D":0.6066,"C":0.9895,"T":0.3718,"U1":0.3181,"U2":0.4256,"couplingDegree":0.6066,"level":"良好协调","road_density":30.6119,"walk_accessibility":0.4599,"metro_line_density":4.9341,"station_count":3,"line_count":3,"population_density":45513.9287,"poi_density":11.3354,"poi_diversity":1.9563,"gdp_density":292010.6872,"P":45513.9287,"I":11.3354,"G":292010.6872},{"stationName":"深圳莲塘(地铁站)","station_id":"深圳莲塘(地铁站)_22.56689_114.16932","lineId":"深圳地铁2号线","lat":22.56689319,"lon":114.16932174,"area_km2":1.6003,"D":0.3676,"C":0.999,"T":0.1353,"U1":0.1293,"U2":0.1412,"couplingDegree":0.3676,"level":"中度失调","road_density":25.0486,"walk_accessibility":0.3208,"metro_line_density":2.3281,"station_count":3,"line_count":1,"population_density":5350.3752,"poi_density":2.4996,"poi_diversity":1.0397,"gdp_density":105030.3272,"P":5350.3752,"I":2.4996,"G":105030.3272},{"stationName":"深圳海山(地铁站)","station_id":"深圳海山(地铁站)_22.55840_114.23288","lineId":"深圳地铁2号线","lat":22.55839839,"lon":114.23287589,"area_km2":2.4557,"D":0.3916,"C":0.9182,"T":0.167,"U1":0.1008,"U2":0.2331,"couplingDegree":0.3916,"level":"中度失调","road_density":24.8881,"walk_accessibility":0.4924,"metro_line_density":2.0681,"station_count":2,"line_count":1,"population_density":11689.3432,"poi_density":4.8865,"poi_diversity":1.5833,"gdp_density":158159.9978,"P":11689.3432,"I":4.8865,"G":158159.9978},{"stationName":"深圳大梅沙(地铁站)","station_id":"深圳大梅沙(地铁站)_22.59690_114.30297","lineId":"深圳地铁2号线","lat":22.59689826,"lon":114.30297058,"area_km2":1.0853,"D":0.3885,"C":0.9255,"T":0.1631,"U1":0.1013,"U2":0.2248,"couplingDegree":0.3885,"level":"中度失调","road_density":30.5991,"walk_accessibility":0.2176,"metro_line_density":4.7695,"station_count":1,"line_count":1,"population_density":0.0,"poi_density":8.2924,"poi_diversity":1.7351,"gdp_density":0.0,"P":0.0,"I":8.2924,"G":0.0},{"stationName":"深圳赤湾(地铁站)","station_id":"深圳赤湾(地铁站)_22.48228_113.89266","lineId":"深圳地铁2号线","lat":22.48228075,"lon":113.8926602,"area_km2":1.6622,"D":0.1521,"C":0.8568,"T":0.027,"U1":0.0409,"U2":0.0131,"couplingDegree":0.1521,"level":"极度失调","road_density":24.4097,"walk_accessibility":0.3333,"metro_line_density":1.0588,"station_count":1,"line_count":1,"population_density":3263.799,"poi_density":0.6016,"poi_diversity":0.0,"gdp_density":0.0,"P":3263.799,"I":0.6016,"G":0.0},{"stationName":"深圳蛇口港(地铁站)","station_id":"深圳蛇口港(地铁站)_22.47968_113.90747","lineId":"深圳地铁2号线","lat":22.47967754,"lon":113.90747461,"area_km2":2.1905,"D":0.5725,"C":0.8572,"T":0.3823,"U1":0.1854,"U2":0.5793,"couplingDegree":0.5725,"level":"勉强协调","road_density":27.7748,"walk_accessibility":0.4392,"metro_line_density":3.1902,"station_count":2,"line_count":2,"population_density":10521.6657,"poi_density":32.4123,"poi_diversity":2.6255,"gdp_density":124896.847,"P":10521.6657,"I":32.4123,"G":124896.847},{"stationName":"深圳海上世界(地铁站)","station_id":"深圳海上世界(地铁站)_22.48836_113.90973","lineId":"深圳地铁12号线 / 深圳地铁2号线","lat":22.488362535,"lon":113.90973415,"area_km2":2.6632,"D":0.6271,"C":0.8433,"T":0.4664,"U1":0.2157,"U2":0.7171,"couplingDegree":0.6271,"level":"良好协调","road_density":25.9258,"walk_accessibility":0.534,"metro_line_density":2.7669,"station_count":3,"line_count":2,"population_density":20153.3782,"poi_density":32.6678,"poi_diversity":2.798,"gdp_density":684308.7972,"P":20153.3782,"I":32.6678,"G":684308.7972},{"stationName":"深圳水湾(地铁站)","station_id":"深圳水湾(地铁站)_22.49144_113.91483","lineId":"深圳地铁2号线","lat":22.49143653,"lon":113.91482918,"area_km2":2.9719,"D":0.6703,"C":0.8953,"T":0.5019,"U1":0.2783,"U2":0.7254,"couplingDegree":0.6703,"level":"良好协调","road_density":26.5,"walk_accessibility":0.5959,"metro_line_density":2.2666,"station_count":3,"line_count":3,"population_density":35889.2418,"poi_density":31.2932,"poi_diversity":2.9907,"gdp_density":521164.39,"P":35889.2418,"I":31.2932,"G":521164.39},{"stationName":"深圳东角头(地铁站)","station_id":"深圳东角头(地铁站)_22.48908_113.92671","lineId":"深圳地铁13号线 / 深圳地铁2号线","lat":22.489081140000003,"lon":113.92670812,"area_km2":2.7311,"D":0.5482,"C":0.9399,"T":0.3198,"U1":0.2106,"U2":0.429,"couplingDegree":0.5482,"level":"勉强协调","road_density":30.3926,"walk_accessibility":0.5476,"metro_line_density":1.9106,"station_count":3,"line_count":2,"population_density":23482.1242,"poi_density":9.52,"poi_diversity":2.8446,"gdp_density":269978.1548,"P":23482.1242,"I":9.52,"G":269978.1548},{"stationName":"深圳海月(地铁站)","station_id":"深圳海月(地铁站)_22.50343_113.93285","lineId":"深圳地铁2号线","lat":22.50343499,"lon":113.9328472,"area_km2":3.0329,"D":0.4801,"C":0.9581,"T":0.2406,"U1":0.1717,"U2":0.3095,"couplingDegree":0.4801,"level":"勉强协调","road_density":39.746,"walk_accessibility":0.6081,"metro_line_density":2.4359,"station_count":3,"line_count":1,"population_density":5970.1883,"poi_density":12.5293,"poi_diversity":2.0987,"gdp_density":0.0,"P":5970.1883,"I":12.5293,"G":0.0},{"stationName":"深圳登良(地铁站)","station_id":"深圳登良(地铁站)_22.51217_113.93273","lineId":"深圳地铁2号线","lat":22.51217143,"lon":113.93273309,"area_km2":3.0466,"D":0.5697,"C":0.9976,"T":0.3254,"U1":0.3479,"U2":0.3028,"couplingDegree":0.5697,"level":"勉强协调","road_density":39.3234,"walk_accessibility":0.6108,"metro_line_density":3.1542,"station_count":4,"line_count":3,"population_density":4507.2553,"poi_density":9.5187,"poi_diversity":2.4103,"gdp_density":0.0,"P":4507.2553,"I":9.5187,"G":0.0},{"stationName":"深圳科苑(地铁站)","station_id":"深圳科苑(地铁站)_22.53003_113.94132","lineId":"深圳地铁2号线","lat":22.53002996,"lon":113.94131533,"area_km2":3.1318,"D":0.6232,"C":0.9892,"T":0.3926,"U1":0.4502,"U2":0.335,"couplingDegree":0.6232,"level":"良好协调","road_density":38.2572,"walk_accessibility":0.6279,"metro_line_density":3.3521,"station_count":5,"line_count":4,"population_density":6207.37,"poi_density":5.7476,"poi_diversity":1.9796,"gdp_density":566382.6019,"P":6207.37,"I":5.7476,"G":566382.6019},{"stationName":"深圳红树湾(地铁站)","station_id":"深圳红树湾(地铁站)_22.52810_113.96351","lineId":"深圳地铁2号线","lat":22.52810144,"lon":113.96351323,"area_km2":1.7324,"D":0.5772,"C":0.9994,"T":0.3333,"U1":0.3449,"U2":0.3218,"couplingDegree":0.5772,"level":"勉强协调","road_density":30.1136,"walk_accessibility":0.3473,"metro_line_density":7.1564,"station_count":3,"line_count":3,"population_density":16254.1745,"poi_density":5.1952,"poi_diversity":1.8892,"gdp_density":439921.3871,"P":16254.1745,"I":5.1952,"G":439921.3871},{"stationName":"深圳侨城北(地铁站)","station_id":"深圳侨城北(地铁站)_22.54689_113.98418","lineId":"深圳地铁2号线","lat":22.54689151,"lon":113.98418133,"area_km2":1.5372,"D":0.5341,"C":0.8916,"T":0.32,"U1":0.1751,"U2":0.4649,"couplingDegree":0.5341,"level":"勉强协调","road_density":25.163,"walk_accessibility":0.3082,"metro_line_density":1.0672,"station_count":3,"line_count":2,"population_density":1745.3398,"poi_density":24.7197,"poi_diversity":2.1597,"gdp_density":229532.028,"P":1745.3398,"I":24.7197,"G":229532.028},{"stationName":"深圳深康(地铁站)","station_id":"深圳深康(地铁站)_22.54933_113.99385","lineId":"深圳地铁2号线","lat":22.54932677,"lon":113.99385475,"area_km2":1.2395,"D":0.4294,"C":0.9556,"T":0.1929,"U1":0.2498,"U2":0.1361,"couplingDegree":0.4294,"level":"勉强协调","road_density":25.2256,"walk_accessibility":0.2485,"metro_line_density":3.9161,"station_count":4,"line_count":2,"population_density":5048.7406,"poi_density":0.8068,"poi_diversity":0.0,"gdp_density":656717.8811,"P":5048.7406,"I":0.8068,"G":656717.8811},{"stationName":"深圳安托山(地铁站)","station_id":"深圳安托山(地铁站)_22.55163_114.00123","lineId":"深圳地铁2号线 / 深圳地铁7号线","lat":22.55163211,"lon":114.00122526999999,"area_km2":1.5554,"D":0.3451,"C":0.8424,"T":0.1414,"U1":0.2176,"U2":0.0652,"couplingDegree":0.3451,"level":"中度失调","road_density":23.9415,"walk_accessibility":0.3119,"metro_line_density":3.9431,"station_count":3,"line_count":2,"population_density":9540.2711,"poi_density":0.6429,"poi_diversity":0.0,"gdp_density":212284.6929,"P":9540.2711,"I":0.6429,"G":212284.6929},{"stationName":"深圳侨香(地铁站)","station_id":"深圳侨香(地铁站)_22.55261_114.00935","lineId":"深圳地铁2号线","lat":22.55260751,"lon":114.00934651,"area_km2":2.5758,"D":0.5272,"C":0.9958,"T":0.2791,"U1":0.2535,"U2":0.3047,"couplingDegree":0.5272,"level":"勉强协调","road_density":28.2515,"walk_accessibility":0.5164,"metro_line_density":2.8202,"station_count":4,"line_count":2,"population_density":13529.2829,"poi_density":2.3294,"poi_diversity":1.2425,"gdp_density":835563.7622,"P":13529.2829,"I":2.3294,"G":835563.7622},{"stationName":"深圳香蜜(地铁站)","station_id":"深圳香蜜(地铁站)_22.55557_114.01880","lineId":"深圳地铁2号线","lat":22.55556774,"lon":114.01879815,"area_km2":2.0413,"D":0.3641,"C":0.9897,"T":0.1339,"U1":0.1531,"U2":0.1148,"couplingDegree":0.3641,"level":"中度失调","road_density":31.6247,"walk_accessibility":0.4093,"metro_line_density":2.8435,"station_count":3,"line_count":1,"population_density":9192.2372,"poi_density":1.4697,"poi_diversity":0.6365,"gdp_density":153104.3436,"P":9192.2372,"I":1.4697,"G":153104.3436},{"stationName":"深圳香梅北(地铁站)","station_id":"深圳香梅北(地铁站)_22.55663_114.02764","lineId":"深圳地铁2号线","lat":22.5566329,"lon":114.02764343,"area_km2":2.0293,"D":0.5835,"C":0.9949,"T":0.3422,"U1":0.3077,"U2":0.3768,"couplingDegree":0.5835,"level":"勉强协调","road_density":26.5372,"walk_accessibility":0.4069,"metro_line_density":4.7073,"station_count":5,"line_count":2,"population_density":14810.1238,"poi_density":11.8268,"poi_diversity":1.965,"gdp_density":368788.541,"P":14810.1238,"I":11.8268,"G":368788.541},{"stationName":"深圳莲花西(地铁站)","station_id":"深圳莲花西(地铁站)_22.54940_114.04493","lineId":"深圳地铁2号线","lat":22.54939978,"lon":114.04492966,"area_km2":2.8644,"D":0.6346,"C":0.9645,"T":0.4176,"U1":0.5279,"U2":0.3073,"couplingDegree":0.6346,"level":"良好协调","road_density":31.2196,"walk_accessibility":0.5743,"metro_line_density":5.0734,"station_count":5,"line_count":5,"population_density":13918.2275,"poi_density":4.8876,"poi_diversity":1.5367,"gdp_density":568482.1062,"P":13918.2275,"I":4.8876,"G":568482.1062},{"stationName":"深圳市民中心(地铁站)","station_id":"深圳市民中心(地铁站)_22.54396_114.05625","lineId":"深圳地铁2号线 / 深圳地铁4号线","lat":22.54396157,"lon":114.05624833499999,"area_km2":2.9712,"D":0.7454,"C":0.9538,"T":0.5825,"U1":0.7574,"U2":0.4076,"couplingDegree":0.7454,"level":"良好协调","road_density":39.3949,"walk_accessibility":0.5957,"metro_line_density":8.0965,"station_count":8,"line_count":6,"population_density":13673.7694,"poi_density":11.1068,"poi_diversity":2.0233,"gdp_density":567586.1283,"P":13673.7694,"I":11.1068,"G":567586.1283},{"stationName":"深圳华强北(地铁站)","station_id":"深圳华强北(地铁站)_22.54662_114.08091","lineId":"深圳地铁2号线 / 深圳地铁7号线","lat":22.54661839,"lon":114.080908915,"area_km2":3.0984,"D":0.8716,"C":0.9995,"T":0.76,"U1":0.7362,"U2":0.7838,"couplingDegree":0.8716,"level":"优质协调","road_density":28.9543,"walk_accessibility":0.6212,"metro_line_density":7.7189,"station_count":8,"line_count":6,"population_density":55016.8953,"poi_density":35.1789,"poi_diversity":2.7073,"gdp_density":530751.1686,"P":55016.8953,"I":35.1789,"G":530751.1686},{"stationName":"深圳燕南(地铁站)","station_id":"深圳燕南(地铁站)_22.54722_114.08743","lineId":"深圳地铁2号线","lat":22.54722282,"lon":114.08743455,"area_km2":2.7574,"D":0.8957,"C":0.9939,"T":0.8072,"U1":0.718,"U2":0.8963,"couplingDegree":0.8957,"level":"优质协调","road_density":27.3696,"walk_accessibility":0.5529,"metro_line_density":6.9653,"station_count":8,"line_count":6,"population_density":83594.835,"poi_density":38.8042,"poi_diversity":2.6839,"gdp_density":620065.8955,"P":83594.835,"I":38.8042,"G":620065.8955},{"stationName":"深圳湖贝(地铁站)","station_id":"深圳湖贝(地铁站)_22.54674_114.11873","lineId":"深圳地铁2号线 / 深圳地铁5号线","lat":22.546738225,"lon":114.11872700500001,"area_km2":2.9587,"D":0.8593,"C":0.9999,"T":0.7385,"U1":0.7472,"U2":0.7297,"couplingDegree":0.8593,"level":"优质协调","road_density":30.0435,"walk_accessibility":0.5932,"metro_line_density":8.4269,"station_count":8,"line_count":6,"population_density":58316.5501,"poi_density":27.0392,"poi_diversity":2.7,"gdp_density":634623.547,"P":58316.5501,"I":27.0392,"G":634623.547},{"stationName":"深圳新秀(地铁站)","station_id":"深圳新秀(地铁站)_22.55046_114.14411","lineId":"深圳地铁2号线","lat":22.55045888,"lon":114.14411389,"area_km2":1.9422,"D":0.4476,"C":0.8848,"T":0.2264,"U1":0.1209,"U2":0.3319,"couplingDegree":0.4476,"level":"勉强协调","road_density":30.7061,"walk_accessibility":0.3894,"metro_line_density":3.1497,"station_count":2,"line_count":1,"population_density":16842.0566,"poi_density":11.3272,"poi_diversity":1.8946,"gdp_density":151346.301,"P":16842.0566,"I":11.3272,"G":151346.301},{"stationName":"深圳莲塘口岸(地铁站)","station_id":"深圳莲塘口岸(地铁站)_22.55609_114.15032","lineId":"深圳地铁2号线","lat":22.55608627,"lon":114.15032224,"area_km2":2.0784,"D":0.4375,"C":0.857,"T":0.2234,"U1":0.1082,"U2":0.3385,"couplingDegree":0.4375,"level":"勉强协调","road_density":33.0081,"walk_accessibility":0.4167,"metro_line_density":1.9813,"station_count":2,"line_count":1,"population_density":4028.1083,"poi_density":9.1417,"poi_diversity":2.3057,"gdp_density":275548.2062,"P":4028.1083,"I":9.1417,"G":275548.2062},{"stationName":"深圳仙湖路(地铁站)","station_id":"深圳仙湖路(地铁站)_22.56667_114.16124","lineId":"深圳地铁2号线","lat":22.56666831,"lon":114.16123801,"area_km2":1.9267,"D":0.3447,"C":0.9798,"T":0.1212,"U1":0.097,"U2":0.1455,"couplingDegree":0.3447,"level":"中度失调","road_density":27.1013,"walk_accessibility":0.3863,"metro_line_density":1.9887,"station_count":2,"line_count":1,"population_density":4639.9926,"poi_density":2.0761,"poi_diversity":1.0397,"gdp_density":161000.4782,"P":4639.9926,"I":2.0761,"G":161000.4782},{"stationName":"深圳梧桐山南(地铁站)","station_id":"深圳梧桐山南(地铁站)_22.56064_114.17826","lineId":"深圳地铁2号线","lat":22.56064201,"lon":114.17826102,"area_km2":1.3061,"D":0.3098,"C":0.9941,"T":0.0966,"U1":0.0861,"U2":0.107,"couplingDegree":0.3098,"level":"中度失调","road_density":23.2101,"walk_accessibility":0.2619,"metro_line_density":2.1647,"station_count":2,"line_count":1,"population_density":5473.5606,"poi_density":2.2969,"poi_diversity":0.6365,"gdp_density":110564.5463,"P":5473.5606,"I":2.2969,"G":110564.5463},{"stationName":"深圳沙头角(地铁站)","station_id":"深圳沙头角(地铁站)_22.55720_114.21831","lineId":"深圳地铁2号线","lat":22.55719981,"lon":114.21830687,"area_km2":1.5197,"D":0.3507,"C":0.8676,"T":0.1417,"U1":0.0713,"U2":0.2122,"couplingDegree":0.3507,"level":"中度失调","road_density":24.8487,"walk_accessibility":0.3047,"metro_line_density":3.0911,"station_count":1,"line_count":1,"population_density":0.0,"poi_density":5.9222,"poi_diversity":1.677,"gdp_density":85783.3439,"P":0.0,"I":5.9222,"G":85783.3439},{"stationName":"深圳盐田港西(地铁站)","station_id":"深圳盐田港西(地铁站)_22.56540_114.24207","lineId":"深圳地铁2号线","lat":22.56539901,"lon":114.24207222,"area_km2":1.4895,"D":0.2917,"C":0.9973,"T":0.0853,"U1":0.0916,"U2":0.0791,"couplingDegree":0.2917,"level":"中度失调","road_density":22.3874,"walk_accessibility":0.2986,"metro_line_density":2.4665,"station_count":2,"line_count":1,"population_density":12717.3727,"poi_density":1.3428,"poi_diversity":0.0,"gdp_density":212260.3489,"P":12717.3727,"I":1.3428,"G":212260.3489},{"stationName":"深圳深外高中(地铁站)","station_id":"深圳深外高中(地铁站)_22.58664_114.23968","lineId":"深圳地铁2号线","lat":22.58664442,"lon":114.23968018,"area_km2":1.6115,"D":0.2251,"C":1.0,"T":0.0507,"U1":0.0511,"U2":0.0503,"couplingDegree":0.2251,"level":"中度失调","road_density":23.7764,"walk_accessibility":0.3231,"metro_line_density":1.8225,"station_count":1,"line_count":1,"population_density":2422.5939,"poi_density":0.0,"poi_diversity":0.0,"gdp_density":252086.9098,"P":2422.5939,"I":0.0,"G":252086.9098},{"stationName":"深圳盐田路(地铁站)","station_id":"深圳盐田路(地铁站)_22.59182_114.25083","lineId":"深圳地铁2号线","lat":22.59181889,"lon":114.25082746,"area_km2":1.7512,"D":0.3155,"C":0.9617,"T":0.1035,"U1":0.1319,"U2":0.0751,"couplingDegree":0.3155,"level":"中度失调","road_density":30.7785,"walk_accessibility":0.3511,"metro_line_density":3.9998,"station_count":2,"line_count":1,"population_density":16205.9306,"poi_density":0.0,"poi_diversity":0.0,"gdp_density":220369.2497,"P":16205.9306,"I":0.0,"G":220369.2497},{"stationName":"深圳鸿安围(地铁站)","station_id":"深圳鸿安围(地铁站)_22.59340_114.25940","lineId":"深圳地铁2号线","lat":22.59340146,"lon":114.25940312,"area_km2":1.7925,"D":0.3352,"C":0.7325,"T":0.1534,"U1":0.2579,"U2":0.049,"couplingDegree":0.3352,"level":"中度失调","road_density":30.6346,"walk_accessibility":0.3594,"metro_line_density":5.6757,"station_count":3,"line_count":2,"population_density":17310.9056,"poi_density":0.0,"poi_diversity":0.0,"gdp_density":59851.2147,"P":17310.9056,"I":0.0,"G":59851.2147},{"stationName":"深圳盐田墟(地铁站)","station_id":"深圳盐田墟(地铁站)_22.59019_114.27115","lineId":"深圳地铁2号线 / 深圳地铁8号线","lat":22.590188695000002,"lon":114.271147555,"area_km2":1.5697,"D":0.199,"C":0.3606,"T":0.1098,"U1":0.2123,"U2":0.0074,"couplingDegree":0.199,"level":"极度失调","road_density":33.1172,"walk_accessibility":0.3147,"metro_line_density":4.8488,"station_count":2,"line_count":2,"population_density":3338.9231,"poi_density":0.0,"poi_diversity":0.0,"gdp_density":0.0,"P":3338.9231,"I":0.0,"G":0.0},{"stationName":"深圳小梅沙(地铁站)","station_id":"深圳小梅沙(地铁站)_22.60485_114.32147","lineId":"深圳地铁2号线 / 深圳地铁8号线","lat":22.60484711,"lon":114.321470845,"area_km2":0.7163,"D":0.2038,"C":0.5914,"T":0.0702,"U1":0.1269,"U2":0.0136,"couplingDegree":0.2038,"level":"中度失调","road_density":24.9031,"walk_accessibility":0.1436,"metro_line_density":3.0414,"station_count":1,"line_count":2,"population_density":0.0,"poi_density":1.396,"poi_diversity":0.0,"gdp_density":0.0,"P":0.0,"I":1.396,"G":0.0},{"stationName":"深圳坪地六联(地铁站)","station_id":"深圳坪地六联(地铁站)_22.79039_114.31806","lineId":"深圳地铁3号线","lat":22.79038748,"lon":114.31806171,"area_km2":0.734,"D":0.1882,"C":0.9942,"T":0.0356,"U1":0.0394,"U2":0.0318,"couplingDegree":0.1882,"level":"极度失调","road_density":19.3747,"walk_accessibility":0.1472,"metro_line_density":2.2012,"station_count":1,"line_count":1,"population_density":7830.1183,"poi_density":0.0,"poi_diversity":0.0,"gdp_density":81215.5079,"P":7830.1183,"I":0.0,"G":81215.5079},{"stationName":"深圳富坪(地铁站)","station_id":"深圳富坪(地铁站)_22.78290_114.30596","lineId":"深圳地铁3号线","lat":22.782900105000003,"lon":114.30595590499999,"area_km2":1.4727,"D":0.2396,"C":0.7236,"T":0.0794,"U1":0.1341,"U2":0.0246,"couplingDegree":0.2396,"level":"中度失调","road_density":23.9181,"walk_accessibility":0.2953,"metro_line_density":5.083,"station_count":2,"line_count":1,"population_density":8038.3977,"poi_density":0.0,"poi_diversity":0.0,"gdp_density":38108.7139,"P":8038.3977,"I":0.0,"G":38108.7139},{"stationName":"深圳白石塘(地铁站)","station_id":"深圳白石塘(地铁站)_22.77785_114.29792","lineId":"深圳地铁3号线","lat":22.77784767,"lon":114.29792279333333,"area_km2":1.6992,"D":0.2795,"C":0.8199,"T":0.0953,"U1":0.1499,"U2":0.0407,"couplingDegree":0.2795,"level":"中度失调","road_density":23.8375,"walk_accessibility":0.3407,"metro_line_density":5.9405,"station_count":2,"line_count":1,"population_density":11395.728,"poi_density":0.0,"poi_diversity":0.0,"gdp_density":87035.7263,"P":11395.728,"I":0.0,"G":87035.7263},{"stationName":"深圳低碳城(地铁站)","station_id":"深圳低碳城(地铁站)_22.77389_114.28468","lineId":"深圳地铁3号线","lat":22.77388873,"lon":114.2846803,"area_km2":1.7811,"D":0.2348,"C":0.7282,"T":0.0757,"U1":0.1276,"U2":0.0238,"couplingDegree":0.2348,"level":"中度失调","road_density":22.9181,"walk_accessibility":0.3571,"metro_line_density":4.528,"station_count":2,"line_count":1,"population_density":4425.4778,"poi_density":0.0,"poi_diversity":0.0,"gdp_density":78718.1445,"P":4425.4778,"I":0.0,"G":78718.1445},{"stationName":"深圳坪西(地铁站)","station_id":"深圳坪西(地铁站)_22.76626_114.27741","lineId":"深圳地铁3号线","lat":22.766256365,"lon":114.27741460499999,"area_km2":1.2226,"D":0.2405,"C":0.7973,"T":0.0726,"U1":0.1164,"U2":0.0288,"couplingDegree":0.2405,"level":"中度失调","road_density":18.3338,"walk_accessibility":0.2451,"metro_line_density":4.709,"station_count":2,"line_count":1,"population_density":0.0,"poi_density":0.0,"poi_diversity":0.0,"gdp_density":161470.2524,"P":0.0,"I":0.0,"G":161470.2524},{"stationName":"深圳新生(地铁站)","station_id":"深圳新生(地铁站)_22.75071_114.27817","lineId":"深圳地铁3号线","lat":22.750714175,"lon":114.278172775,"area_km2":1.3959,"D":0.2825,"C":0.9613,"T":0.083,"U1":0.1059,"U2":0.0601,"couplingDegree":0.2825,"level":"中度失调","road_density":23.8796,"walk_accessibility":0.2799,"metro_line_density":5.5367,"station_count":1,"line_count":1,"population_density":9731.4299,"poi_density":0.0,"poi_diversity":0.0,"gdp_density":216655.4144,"P":9731.4299,"I":0.0,"G":216655.4144},{"stationName":"深圳梨园(地铁站)","station_id":"深圳梨园(地铁站)_22.65492_114.19240","lineId":"深圳地铁17号线 / 深圳地铁3号线","lat":22.654922714999998,"lon":114.1924031,"area_km2":2.0538,"D":0.3578,"C":0.9997,"T":0.1281,"U1":0.1251,"U2":0.131,"couplingDegree":0.3578,"level":"中度失调","road_density":21.1827,"walk_accessibility":0.4118,"metro_line_density":2.2973,"station_count":1,"line_count":2,"population_density":7453.3399,"poi_density":1.4607,"poi_diversity":1.0986,"gdp_density":51152.8538,"P":7453.3399,"I":1.4607,"G":51152.8538},{"stationName":"深圳双龙(地铁站)","station_id":"深圳双龙(地铁站)_22.73192_114.27249","lineId":"深圳地铁16号线 / 深圳地铁3号线","lat":22.73191529,"lon":114.272485405,"area_km2":2.1043,"D":0.2996,"C":0.7771,"T":0.1155,"U1":0.1882,"U2":0.0428,"couplingDegree":0.2996,"level":"中度失调","road_density":22.4427,"walk_accessibility":0.4219,"metro_line_density":6.2243,"station_count":1,"line_count":2,"population_density":11280.4545,"poi_density":0.4752,"poi_diversity":0.0,"gdp_density":74151.0365,"P":11280.4545,"I":0.4752,"G":74151.0365},{"stationName":"深圳南联(地铁站)","station_id":"深圳南联(地铁站)_22.72480_114.26070","lineId":"深圳地铁3号线","lat":22.72479575,"lon":114.26070042,"area_km2":2.1993,"D":0.2887,"C":0.9806,"T":0.085,"U1":0.1016,"U2":0.0683,"couplingDegree":0.2887,"level":"中度失调","road_density":21.0282,"walk_accessibility":0.4409,"metro_line_density":2.7219,"station_count":2,"line_count":1,"population_density":16491.7878,"poi_density":0.4547,"poi_diversity":0.0,"gdp_density":153869.2438,"P":16491.7878,"I":0.4547,"G":153869.2438},{"stationName":"深圳龙城广场(地铁站)","station_id":"深圳龙城广场(地铁站)_22.71975_114.24976","lineId":"深圳地铁3号线","lat":22.7197484,"lon":114.24976034,"area_km2":2.2351,"D":0.2986,"C":0.9917,"T":0.0899,"U1":0.1015,"U2":0.0783,"couplingDegree":0.2986,"level":"中度失调","road_density":24.5304,"walk_accessibility":0.4481,"metro_line_density":2.3146,"station_count":2,"line_count":1,"population_density":11658.7407,"poi_density":0.0,"poi_diversity":0.0,"gdp_density":294789.5522,"P":11658.7407,"I":0.0,"G":294789.5522},{"stationName":"深圳吉祥(地铁站)","station_id":"深圳吉祥(地铁站)_22.71232_114.23948","lineId":"深圳地铁3号线","lat":22.71232354,"lon":114.23948092,"area_km2":2.015,"D":0.3236,"C":0.9235,"T":0.1134,"U1":0.0699,"U2":0.1569,"couplingDegree":0.3236,"level":"中度失调","road_density":26.334,"walk_accessibility":0.404,"metro_line_density":2.4682,"station_count":1,"line_count":1,"population_density":9652.971,"poi_density":1.9851,"poi_diversity":1.0397,"gdp_density":167814.6002,"P":9652.971,"I":1.9851,"G":167814.6002},{"stationName":"深圳爱联(地铁站)","station_id":"深圳爱联(地铁站)_22.70033_114.22958","lineId":"深圳地铁3号线","lat":22.70033127,"lon":114.2295755,"area_km2":1.8601,"D":0.2467,"C":0.8554,"T":0.0711,"U1":0.108,"U2":0.0343,"couplingDegree":0.2467,"level":"中度失调","road_density":23.7465,"walk_accessibility":0.3729,"metro_line_density":5.3324,"station_count":1,"line_count":1,"population_density":3694.5058,"poi_density":0.5376,"poi_diversity":0.0,"gdp_density":117107.017,"P":3694.5058,"I":0.5376,"G":117107.017},{"stationName":"深圳大运(地铁站)","station_id":"深圳大运(地铁站)_22.68859_114.22306","lineId":"深圳地铁14号线 / 深圳地铁3号线","lat":22.688593384999997,"lon":114.22305596999999,"area_km2":1.5147,"D":0.42,"C":0.9449,"T":0.1867,"U1":0.2479,"U2":0.1256,"couplingDegree":0.42,"level":"勉强协调","road_density":30.3263,"walk_accessibility":0.3037,"metro_line_density":9.7205,"station_count":1,"line_count":2,"population_density":15567.9799,"poi_density":1.3204,"poi_diversity":0.6931,"gdp_density":116342.2778,"P":15567.9799,"I":1.3204,"G":116342.2778},{"stationName":"深圳荷坳(地铁站)","station_id":"深圳荷坳(地铁站)_22.67591_114.21945","lineId":"深圳地铁3号线","lat":22.67591343,"lon":114.21944916,"area_km2":1.5078,"D":0.2614,"C":0.8221,"T":0.0831,"U1":0.1304,"U2":0.0358,"couplingDegree":0.2614,"level":"中度失调","road_density":24.7443,"walk_accessibility":0.3023,"metro_line_density":6.9536,"station_count":1,"line_count":1,"population_density":8601.4234,"poi_density":0.0,"poi_diversity":0.0,"gdp_density":94014.772,"P":8601.4234,"I":0.0,"G":94014.772},{"stationName":"深圳永湖(地铁站)","station_id":"深圳永湖(地铁站)_22.66183_114.21317","lineId":"深圳地铁3号线","lat":22.66182586,"lon":114.21317149,"area_km2":1.4526,"D":0.1926,"C":0.7333,"T":0.0506,"U1":0.085,"U2":0.0162,"couplingDegree":0.1926,"level":"极度失调","road_density":26.052,"walk_accessibility":0.2912,"metro_line_density":3.9098,"station_count":1,"line_count":1,"population_density":3837.2124,"poi_density":0.0,"poi_diversity":0.0,"gdp_density":43242.6439,"P":3837.2124,"I":0.0,"G":43242.6439},{"stationName":"深圳横岗(地铁站)","station_id":"深圳横岗(地铁站)_22.65126_114.20411","lineId":"深圳地铁3号线","lat":22.65126376,"lon":114.20410601,"area_km2":2.2599,"D":0.2651,"C":0.9994,"T":0.0703,"U1":0.0729,"U2":0.0678,"couplingDegree":0.2651,"level":"中度失调","road_density":20.7119,"walk_accessibility":0.4531,"metro_line_density":3.0656,"station_count":1,"line_count":1,"population_density":11956.0047,"poi_density":0.4425,"poi_diversity":0.0,"gdp_density":207850.5766,"P":11956.0047,"I":0.4425,"G":207850.5766},{"stationName":"深圳塘坑(地铁站)","station_id":"深圳塘坑(地铁站)_22.64198_114.18780","lineId":"深圳地铁3号线","lat":22.64197596,"lon":114.18779985,"area_km2":2.2249,"D":0.2966,"C":0.9803,"T":0.0897,"U1":0.072,"U2":0.1075,"couplingDegree":0.2966,"level":"中度失调","road_density":21.8885,"walk_accessibility":0.4461,"metro_line_density":2.9138,"station_count":1,"line_count":1,"population_density":12809.2251,"poi_density":0.8989,"poi_diversity":0.6931,"gdp_density":71899.5796,"P":12809.2251,"I":0.8989,"G":71899.5796},{"stationName":"深圳六约(地铁站)","station_id":"深圳六约(地铁站)_22.63710_114.17569","lineId":"深圳地铁3号线","lat":22.63709901,"lon":114.17568946,"area_km2":1.9292,"D":0.2438,"C":0.9796,"T":0.0607,"U1":0.0729,"U2":0.0485,"couplingDegree":0.2438,"level":"中度失调","road_density":23.2487,"walk_accessibility":0.3868,"metro_line_density":3.053,"station_count":1,"line_count":1,"population_density":9712.8663,"poi_density":0.0,"poi_diversity":0.0,"gdp_density":151401.079,"P":9712.8663,"I":0.0,"G":151401.079},{"stationName":"深圳丹竹头(地铁站)","station_id":"深圳丹竹头(地铁站)_22.62247_114.14301","lineId":"深圳地铁3号线","lat":22.62247144,"lon":114.14301137,"area_km2":2.3224,"D":0.2697,"C":0.8457,"T":0.086,"U1":0.1319,"U2":0.0401,"couplingDegree":0.2697,"level":"中度失调","road_density":30.9122,"walk_accessibility":0.4656,"metro_line_density":3.5516,"station_count":2,"line_count":1,"population_density":12823.5483,"poi_density":0.0,"poi_diversity":0.0,"gdp_density":65801.311,"P":12823.5483,"I":0.0,"G":65801.311},{"stationName":"深圳大芬(地铁站)","station_id":"深圳大芬(地铁站)_22.61690_114.13330","lineId":"深圳地铁3号线","lat":22.61689564,"lon":114.13329828,"area_km2":1.9548,"D":0.4068,"C":0.9989,"T":0.1657,"U1":0.1581,"U2":0.1733,"couplingDegree":0.4068,"level":"勉强协调","road_density":30.0466,"walk_accessibility":0.3919,"metro_line_density":3.3976,"station_count":3,"line_count":1,"population_density":15544.3066,"poi_density":2.5578,"poi_diversity":1.0549,"gdp_density":148440.8127,"P":15544.3066,"I":2.5578,"G":148440.8127},{"stationName":"深圳木棉湾(地铁站)","station_id":"深圳木棉湾(地铁站)_22.60969_114.12521","lineId":"深圳地铁3号线","lat":22.60969171,"lon":114.12521029,"area_km2":1.8114,"D":0.532,"C":0.994,"T":0.2847,"U1":0.3158,"U2":0.2537,"couplingDegree":0.532,"level":"勉强协调","road_density":31.6358,"walk_accessibility":0.3632,"metro_line_density":5.0504,"station_count":3,"line_count":3,"population_density":17346.1048,"poi_density":4.4164,"poi_diversity":1.9062,"gdp_density":78526.442,"P":17346.1048,"I":4.4164,"G":78526.442},{"stationName":"深圳布吉(地铁站)","station_id":"深圳布吉(地铁站)_22.60443_114.11627","lineId":"深圳地铁14号线 / 深圳地铁3号线 / 深圳地铁5号线","lat":22.604433413333336,"lon":114.11627254666666,"area_km2":2.1646,"D":0.5387,"C":0.9705,"T":0.299,"U1":0.3711,"U2":0.2269,"couplingDegree":0.5387,"level":"勉强协调","road_density":27.5048,"walk_accessibility":0.434,"metro_line_density":6.5785,"station_count":4,"line_count":3,"population_density":15512.8752,"poi_density":3.6959,"poi_diversity":1.7329,"gdp_density":71308.2229,"P":15512.8752,"I":3.6959,"G":71308.2229},{"stationName":"深圳草埔(地铁站)","station_id":"深圳草埔(地铁站)_22.58713_114.11139","lineId":"深圳地铁3号线","lat":22.58713168,"lon":114.11139401,"area_km2":1.9327,"D":0.3447,"C":0.9988,"T":0.1189,"U1":0.1131,"U2":0.1248,"couplingDegree":0.3447,"level":"中度失调","road_density":31.143,"walk_accessibility":0.3875,"metro_line_density":4.8328,"station_count":1,"line_count":1,"population_density":5255.7749,"poi_density":1.0348,"poi_diversity":0.6931,"gdp_density":255314.3481,"P":5255.7749,"I":1.0348,"G":255314.3481},{"stationName":"深圳水贝(地铁站)","station_id":"深圳水贝(地铁站)_22.57668_114.11988","lineId":"深圳地铁3号线","lat":22.57668093,"lon":114.11988341,"area_km2":2.3085,"D":0.5498,"C":0.9958,"T":0.3035,"U1":0.3314,"U2":0.2757,"couplingDegree":0.5498,"level":"勉强协调","road_density":34.516,"walk_accessibility":0.4629,"metro_line_density":3.1542,"station_count":4,"line_count":3,"population_density":26228.5282,"poi_density":3.4654,"poi_diversity":1.213,"gdp_density":466613.8729,"P":26228.5282,"I":3.4654,"G":466613.8729},{"stationName":"深圳田贝(地铁站)","station_id":"深圳田贝(地铁站)_22.56986_114.12444","lineId":"深圳地铁3号线 / 深圳地铁7号线","lat":22.56985871,"lon":114.124444625,"area_km2":2.2001,"D":0.6055,"C":1.0,"T":0.3666,"U1":0.3685,"U2":0.3648,"couplingDegree":0.6055,"level":"良好协调","road_density":28.3478,"walk_accessibility":0.4411,"metro_line_density":4.0711,"station_count":5,"line_count":3,"population_density":19060.1273,"poi_density":6.8177,"poi_diversity":2.0792,"gdp_density":468890.0403,"P":19060.1273,"I":6.8177,"G":468890.0403},{"stationName":"深圳翠竹(地铁站)","station_id":"深圳翠竹(地铁站)_22.55889_114.12480","lineId":"深圳地铁3号线","lat":22.55888926,"lon":114.12480382,"area_km2":2.4596,"D":0.6085,"C":0.9806,"T":0.3775,"U1":0.3035,"U2":0.4516,"couplingDegree":0.6085,"level":"良好协调","road_density":25.7217,"walk_accessibility":0.4931,"metro_line_density":2.1518,"station_count":4,"line_count":3,"population_density":47587.9319,"poi_density":8.5381,"poi_diversity":2.2274,"gdp_density":438585.1308,"P":47587.9319,"I":8.5381,"G":438585.1308},{"stationName":"深圳晒布(地铁站)","station_id":"深圳晒布(地铁站)_22.55193_114.11757","lineId":"深圳地铁3号线","lat":22.55193148,"lon":114.11757001,"area_km2":2.7143,"D":0.8411,"C":0.9999,"T":0.7075,"U1":0.716,"U2":0.699,"couplingDegree":0.8411,"level":"优质协调","road_density":30.9417,"walk_accessibility":0.5442,"metro_line_density":6.49,"station_count":8,"line_count":6,"population_density":64681.7982,"poi_density":25.0529,"poi_diversity":2.8,"gdp_density":445003.6092,"P":64681.7982,"I":25.0529,"G":445003.6092},{"stationName":"深圳红岭(地铁站)","station_id":"深圳红岭(地铁站)_22.55134_114.09895","lineId":"深圳地铁3号线 / 深圳地铁9号线","lat":22.551336980000002,"lon":114.09895414666666,"area_km2":3.0553,"D":0.79,"C":0.9909,"T":0.6298,"U1":0.7145,"U2":0.5452,"couplingDegree":0.79,"level":"良好协调","road_density":40.4905,"walk_accessibility":0.6126,"metro_line_density":5.3079,"station_count":6,"line_count":7,"population_density":57923.5127,"poi_density":9.1643,"poi_diversity":2.3814,"gdp_density":729582.7365,"P":57923.5127,"I":9.1643,"G":729582.7365},{"stationName":"深圳通新岭(地铁站)","station_id":"深圳通新岭(地铁站)_22.55137_114.09113","lineId":"深圳地铁3号线 / 深圳地铁6号线","lat":22.551367845,"lon":114.09112792,"area_km2":3.195,"D":0.8259,"C":0.9992,"T":0.6826,"U1":0.7097,"U2":0.6554,"couplingDegree":0.8259,"level":"优质协调","road_density":35.4673,"walk_accessibility":0.6406,"metro_line_density":5.2389,"station_count":8,"line_count":6,"population_density":66740.742,"poi_density":15.6495,"poi_diversity":2.5835,"gdp_density":790069.4645,"P":66740.742,"I":15.6495,"G":790069.4645},{"stationName":"深圳华新(地铁站)","station_id":"深圳华新(地铁站)_22.55166_114.08152","lineId":"深圳地铁3号线 / 深圳地铁7号线","lat":22.551664825000003,"lon":114.0815246,"area_km2":3.0496,"D":0.861,"C":0.9997,"T":0.7416,"U1":0.7234,"U2":0.7599,"couplingDegree":0.861,"level":"优质协调","road_density":29.8785,"walk_accessibility":0.6114,"metro_line_density":6.8278,"station_count":8,"line_count":6,"population_density":55036.7797,"poi_density":31.8073,"poi_diversity":2.7592,"gdp_density":556253.1298,"P":55036.7797,"I":31.8073,"G":556253.1298},{"stationName":"深圳莲花村(地铁站)","station_id":"深圳莲花村(地铁站)_22.55135_114.06273","lineId":"深圳地铁3号线","lat":22.5513476,"lon":114.0627285,"area_km2":3.032,"D":0.7022,"C":0.9995,"T":0.4933,"U1":0.5085,"U2":0.4781,"couplingDegree":0.7022,"level":"良好协调","road_density":33.6509,"walk_accessibility":0.6079,"metro_line_density":5.655,"station_count":4,"line_count":5,"population_density":15434.0221,"poi_density":15.1715,"poi_diversity":2.4338,"gdp_density":528066.7762,"P":15434.0221,"I":15.1715,"G":528066.7762},{"stationName":"深圳少年宫(地铁站)","station_id":"深圳少年宫(地铁站)_22.55074_114.05541","lineId":"深圳地铁3号线 / 深圳地铁4号线","lat":22.550741715,"lon":114.05541320500001,"area_km2":2.5826,"D":0.7205,"C":0.9949,"T":0.5217,"U1":0.5743,"U2":0.4692,"couplingDegree":0.7205,"level":"良好协调","road_density":32.3047,"walk_accessibility":0.5178,"metro_line_density":5.965,"station_count":6,"line_count":5,"population_density":11168.1402,"poi_density":10.4545,"poi_diversity":2.7217,"gdp_density":654680.3813,"P":11168.1402,"I":10.4545,"G":654680.3813},{"stationName":"深圳石厦(地铁站)","station_id":"深圳石厦(地铁站)_22.52609_114.04857","lineId":"深圳地铁3号线 / 深圳地铁7号线","lat":22.5260948475,"lon":114.0485720225,"area_km2":2.7348,"D":0.6269,"C":0.9983,"T":0.3936,"U1":0.371,"U2":0.4162,"couplingDegree":0.6269,"level":"良好协调","road_density":30.9849,"walk_accessibility":0.5483,"metro_line_density":3.5451,"station_count":5,"line_count":3,"population_density":38526.584,"poi_density":6.9475,"poi_diversity":1.8403,"gdp_density":620029.6461,"P":38526.584,"I":6.9475,"G":620029.6461},{"stationName":"深圳益田(地铁站)","station_id":"深圳益田(地铁站)_22.51902_114.04588","lineId":"深圳地铁3号线","lat":22.51901809,"lon":114.04588314,"area_km2":2.8509,"D":0.5917,"C":0.9869,"T":0.3548,"U1":0.2976,"U2":0.412,"couplingDegree":0.5917,"level":"勉强协调","road_density":29.4533,"walk_accessibility":0.5716,"metro_line_density":3.1199,"station_count":5,"line_count":2,"population_density":25362.1467,"poi_density":9.1198,"poi_diversity":2.0085,"gdp_density":562758.6274,"P":25362.1467,"I":9.1198,"G":562758.6274},{"stationName":"深圳福保(地铁站)","station_id":"深圳福保(地铁站)_22.51089_114.05147","lineId":"深圳地铁3号线","lat":22.5108939,"lon":114.05147292,"area_km2":2.3897,"D":0.4185,"C":0.8314,"T":0.2107,"U1":0.0936,"U2":0.3278,"couplingDegree":0.4185,"level":"勉强协调","road_density":27.7272,"walk_accessibility":0.4791,"metro_line_density":1.3498,"station_count":2,"line_count":1,"population_density":9121.4143,"poi_density":5.8586,"poi_diversity":1.6308,"gdp_density":646275.4474,"P":9121.4143,"I":5.8586,"G":646275.4474},{"stationName":"深圳牛湖(地铁站)","station_id":"深圳牛湖(地铁站)_22.72726_114.08411","lineId":"深圳地铁4号线","lat":22.72725802,"lon":114.08411467,"area_km2":1.56,"D":0.2791,"C":0.7833,"T":0.0995,"U1":0.0376,"U2":0.1613,"couplingDegree":0.2791,"level":"中度失调","road_density":17.1147,"walk_accessibility":0.3128,"metro_line_density":1.6907,"station_count":1,"line_count":1,"population_density":14975.4724,"poi_density":1.9231,"poi_diversity":1.0986,"gdp_density":102083.9894,"P":14975.4724,"I":1.9231,"G":102083.9894},{"stationName":"深圳观澜湖(地铁站)","station_id":"深圳观澜湖(地铁站)_22.72428_114.07113","lineId":"深圳地铁4号线","lat":22.72427559,"lon":114.07113091,"area_km2":1.2936,"D":0.3805,"C":0.987,"T":0.1467,"U1":0.1703,"U2":0.1231,"couplingDegree":0.3805,"level":"中度失调","road_density":20.3123,"walk_accessibility":0.2594,"metro_line_density":3.6799,"station_count":2,"line_count":2,"population_density":0.0,"poi_density":2.3192,"poi_diversity":1.0986,"gdp_density":51984.9398,"P":0.0,"I":2.3192,"G":51984.9398},{"stationName":"深圳松元厦(地铁站)","station_id":"深圳松元厦(地铁站)_22.72377_114.05923","lineId":"深圳地铁22号线 / 深圳地铁4号线","lat":22.723765653333334,"lon":114.05923284333333,"area_km2":1.3535,"D":0.3503,"C":0.8082,"T":0.1518,"U1":0.2412,"U2":0.0624,"couplingDegree":0.3503,"level":"中度失调","road_density":20.3143,"walk_accessibility":0.2714,"metro_line_density":6.0172,"station_count":3,"line_count":2,"population_density":10455.3061,"poi_density":0.7388,"poi_diversity":0.0,"gdp_density":179998.0953,"P":10455.3061,"I":0.7388,"G":179998.0953},{"stationName":"深圳观澜(地铁站)","station_id":"深圳观澜(地铁站)_22.71786_114.04965","lineId":"深圳地铁4号线","lat":22.71786435,"lon":114.04964981,"area_km2":1.3761,"D":0.3164,"C":0.7611,"T":0.1315,"U1":0.2168,"U2":0.0462,"couplingDegree":0.3164,"level":"中度失调","road_density":21.9361,"walk_accessibility":0.2759,"metro_line_density":4.2415,"station_count":3,"line_count":2,"population_density":7356.1766,"poi_density":0.7267,"poi_diversity":0.0,"gdp_density":128169.5512,"P":7356.1766,"I":0.7267,"G":128169.5512},{"stationName":"深圳长湖(地铁站)","station_id":"深圳长湖(地铁站)_22.71348_114.03969","lineId":"深圳地铁4号线","lat":22.71347934,"lon":114.039689,"area_km2":1.6049,"D":0.2991,"C":0.9819,"T":0.0911,"U1":0.1084,"U2":0.0739,"couplingDegree":0.2991,"level":"中度失调","road_density":23.6311,"walk_accessibility":0.3218,"metro_line_density":3.3393,"station_count":2,"line_count":1,"population_density":16232.0934,"poi_density":0.0,"poi_diversity":0.0,"gdp_density":212882.7429,"P":16232.0934,"I":0.0,"G":212882.7429},{"stationName":"深圳茜坑(地铁站)","station_id":"深圳茜坑(地铁站)_22.69998_114.03599","lineId":"深圳地铁4号线","lat":22.69998229,"lon":114.03598751,"area_km2":1.3555,"D":0.2991,"C":0.9518,"T":0.094,"U1":0.1228,"U2":0.0652,"couplingDegree":0.2991,"level":"中度失调","road_density":28.1287,"walk_accessibility":0.2718,"metro_line_density":3.9953,"station_count":2,"line_count":1,"population_density":8758.8799,"poi_density":0.0,"poi_diversity":0.0,"gdp_density":256893.4557,"P":8758.8799,"I":0.0,"G":256893.4557},{"stationName":"深圳竹村(地铁站)","station_id":"深圳竹村(地铁站)_22.68946_114.03521","lineId":"深圳地铁4号线","lat":22.68945995,"lon":114.03521228,"area_km2":1.8471,"D":0.2713,"C":0.9463,"T":0.0778,"U1":0.103,"U2":0.0527,"couplingDegree":0.2713,"level":"中度失调","road_density":29.4765,"walk_accessibility":0.3703,"metro_line_density":2.187,"station_count":2,"line_count":1,"population_density":9039.6285,"poi_density":0.0,"poi_diversity":0.0,"gdp_density":183216.9251,"P":9039.6285,"I":0.0,"G":183216.9251},{"stationName":"深圳清湖北(地铁站)","station_id":"深圳清湖北(地铁站)_22.67482_114.03532","lineId":"深圳地铁4号线","lat":22.67482194,"lon":114.03532095,"area_km2":1.4442,"D":0.2928,"C":0.9945,"T":0.0862,"U1":0.0952,"U2":0.0772,"couplingDegree":0.2928,"level":"中度失调","road_density":29.6778,"walk_accessibility":0.2896,"metro_line_density":1.972,"station_count":2,"line_count":1,"population_density":15094.7955,"poi_density":0.0,"poi_diversity":0.0,"gdp_density":245577.0896,"P":15094.7955,"I":0.0,"G":245577.0896},{"stationName":"深圳清湖(地铁站)","station_id":"深圳清湖(地铁站)_22.66683_114.03145","lineId":"深圳地铁4号线","lat":22.66683012,"lon":114.03144992,"area_km2":1.6315,"D":0.4032,"C":0.9264,"T":0.1755,"U1":0.1094,"U2":0.2416,"couplingDegree":0.4032,"level":"勉强协调","road_density":26.2105,"walk_accessibility":0.3271,"metro_line_density":3.1148,"station_count":2,"line_count":1,"population_density":7945.0651,"poi_density":3.0648,"poi_diversity":1.6094,"gdp_density":339865.7579,"P":7945.0651,"I":3.0648,"G":339865.7579},{"stationName":"深圳龙华(地铁站)","station_id":"深圳龙华(地铁站)_22.65486_114.01800","lineId":"深圳地铁25号线 / 深圳地铁4号线","lat":22.6548649375,"lon":114.01800384500001,"area_km2":2.2203,"D":0.4272,"C":0.9986,"T":0.1828,"U1":0.173,"U2":0.1925,"couplingDegree":0.4272,"level":"勉强协调","road_density":27.6286,"walk_accessibility":0.4452,"metro_line_density":4.6058,"station_count":1,"line_count":2,"population_density":13512.8401,"poi_density":1.8015,"poi_diversity":1.3863,"gdp_density":167923.0369,"P":13512.8401,"I":1.8015,"G":167923.0369},{"stationName":"深圳龙胜(地铁站)","station_id":"深圳龙胜(地铁站)_22.64756_114.00698","lineId":"深圳地铁4号线","lat":22.64755658,"lon":114.00697831,"area_km2":1.8676,"D":0.3673,"C":0.8536,"T":0.1581,"U1":0.2404,"U2":0.0757,"couplingDegree":0.3673,"level":"中度失调","road_density":36.3661,"walk_accessibility":0.3744,"metro_line_density":3.8783,"station_count":3,"line_count":2,"population_density":16201.0819,"poi_density":0.5354,"poi_diversity":0.0,"gdp_density":194530.2458,"P":16201.0819,"I":0.5354,"G":194530.2458},{"stationName":"深圳上塘(地铁站)","station_id":"深圳上塘(地铁站)_22.63987_114.00781","lineId":"深圳地铁4号线","lat":22.63987266,"lon":114.00780504,"area_km2":2.0275,"D":0.351,"C":0.8085,"T":0.1524,"U1":0.242,"U2":0.0627,"couplingDegree":0.351,"level":"中度失调","road_density":37.1397,"walk_accessibility":0.4065,"metro_line_density":3.7796,"station_count":3,"line_count":2,"population_density":13361.2508,"poi_density":0.0,"poi_diversity":0.0,"gdp_density":185913.2481,"P":13361.2508,"I":0.0,"G":185913.2481},{"stationName":"深圳红山(地铁站)","station_id":"深圳红山(地铁站)_22.62453_114.01841","lineId":"深圳地铁4号线 / 深圳地铁6号线","lat":22.624534505,"lon":114.01840748000001,"area_km2":2.3317,"D":0.3724,"C":0.9595,"T":0.1446,"U1":0.1852,"U2":0.1039,"couplingDegree":0.3724,"level":"中度失调","road_density":41.1422,"walk_accessibility":0.4675,"metro_line_density":3.8896,"station_count":1,"line_count":2,"population_density":4266.8448,"poi_density":0.8577,"poi_diversity":0.6931,"gdp_density":159996.1727,"P":4266.8448,"I":0.8577,"G":159996.1727},{"stationName":"深圳深圳北站(地铁站)","station_id":"深圳深圳北站(地铁站)_22.61326_114.02550","lineId":"深圳地铁4号线 / 深圳地铁5号线 / 深圳地铁6号线","lat":22.61325544,"lon":114.02550389333332,"area_km2":2.298,"D":0.4533,"C":0.9626,"T":0.2135,"U1":0.2714,"U2":0.1556,"couplingDegree":0.4533,"level":"勉强协调","road_density":36.038,"walk_accessibility":0.4607,"metro_line_density":5.7792,"station_count":1,"line_count":3,"population_density":2458.6563,"poi_density":3.0461,"poi_diversity":1.277,"gdp_density":81370.2092,"P":2458.6563,"I":3.0461,"G":81370.2092},{"stationName":"深圳白石龙(地铁站)","station_id":"深圳白石龙(地铁站)_22.60450_114.03695","lineId":"深圳地铁27号线 / 深圳地铁4号线","lat":22.604503125,"lon":114.03694687999999,"area_km2":2.332,"D":0.5967,"C":0.9907,"T":0.3594,"U1":0.3105,"U2":0.4082,"couplingDegree":0.5967,"level":"勉强协调","road_density":34.2758,"walk_accessibility":0.4676,"metro_line_density":6.2547,"station_count":2,"line_count":3,"population_density":19916.2434,"poi_density":19.2966,"poi_diversity":1.9525,"gdp_density":79004.1721,"P":19916.2434,"I":19.2966,"G":79004.1721},{"stationName":"深圳民乐(地铁站)","station_id":"深圳民乐(地铁站)_22.59706_114.04402","lineId":"深圳地铁22号线 / 深圳地铁4号线","lat":22.597057956666664,"lon":114.04402448,"area_km2":2.339,"D":0.6072,"C":0.9961,"T":0.3702,"U1":0.403,"U2":0.3373,"couplingDegree":0.6072,"level":"良好协调","road_density":39.3544,"walk_accessibility":0.469,"metro_line_density":5.2272,"station_count":3,"line_count":4,"population_density":13982.9142,"poi_density":14.9637,"poi_diversity":1.7682,"gdp_density":77527.2345,"P":13982.9142,"I":14.9637,"G":77527.2345},{"stationName":"深圳上梅林(地铁站)","station_id":"深圳上梅林(地铁站)_22.57216_114.05480","lineId":"深圳地铁4号线 / 深圳地铁9号线","lat":22.57216071,"lon":114.05480460999999,"area_km2":2.56,"D":0.6188,"C":0.9733,"T":0.3934,"U1":0.4838,"U2":0.303,"couplingDegree":0.6188,"level":"良好协调","road_density":33.5153,"walk_accessibility":0.5133,"metro_line_density":6.4707,"station_count":5,"line_count":4,"population_density":17237.8321,"poi_density":3.125,"poi_diversity":1.9062,"gdp_density":427607.9232,"P":17237.8321,"I":3.125,"G":427607.9232},{"stationName":"深圳莲花北(地铁站)","station_id":"深圳莲花北(地铁站)_22.56325_114.05429","lineId":"深圳地铁4号线","lat":22.56325145,"lon":114.0542851,"area_km2":2.4581,"D":0.6067,"C":0.9973,"T":0.3691,"U1":0.3961,"U2":0.3421,"couplingDegree":0.6067,"level":"良好协调","road_density":35.1172,"walk_accessibility":0.4929,"metro_line_density":4.9534,"station_count":5,"line_count":3,"population_density":23842.7341,"poi_density":2.8477,"poi_diversity":1.7479,"gdp_density":653939.5328,"P":23842.7341,"I":2.8477,"G":653939.5328},{"stationName":"深圳福民(地铁站)","station_id":"深圳福民(地铁站)_22.52669_114.06120","lineId":"深圳地铁10号线 / 深圳地铁4号线 / 深圳地铁7号线","lat":22.526694579999997,"lon":114.06120384333333,"area_km2":2.5736,"D":0.6467,"C":0.9962,"T":0.4198,"U1":0.4566,"U2":0.383,"couplingDegree":0.6467,"level":"良好协调","road_density":34.2155,"walk_accessibility":0.516,"metro_line_density":4.6172,"station_count":5,"line_count":4,"population_density":24619.7821,"poi_density":7.3827,"poi_diversity":1.6305,"gdp_density":680461.6207,"P":24619.7821,"I":7.3827,"G":680461.6207},{"stationName":"深圳福田口岸(地铁站)","station_id":"深圳福田口岸(地铁站)_22.51815_114.06337","lineId":"深圳地铁10号线 / 深圳地铁4号线","lat":22.518145609999998,"lon":114.06336773000001,"area_km2":2.0825,"D":0.5724,"C":1.0,"T":0.3276,"U1":0.3269,"U2":0.3283,"couplingDegree":0.5724,"level":"勉强协调","road_density":31.4197,"walk_accessibility":0.4175,"metro_line_density":3.3594,"station_count":4,"line_count":3,"population_density":5412.6085,"poi_density":4.8018,"poi_diversity":1.5048,"gdp_density":811785.1516,"P":5412.6085,"I":4.8018,"G":811785.1516},{"stationName":"深圳荔湾(地铁站)","station_id":"深圳荔湾(地铁站)_22.50087_113.88862","lineId":"深圳地铁5号线","lat":22.50087432,"lon":113.8886154,"area_km2":2.1051,"D":0.3646,"C":0.9733,"T":0.1366,"U1":0.168,"U2":0.1053,"couplingDegree":0.3646,"level":"中度失调","road_density":26.9837,"walk_accessibility":0.4221,"metro_line_density":2.2056,"station_count":2,"line_count":2,"population_density":4050.6234,"poi_density":0.475,"poi_diversity":0.0,"gdp_density":514421.1001,"P":4050.6234,"I":0.475,"G":514421.1001},{"stationName":"深圳铁路公园(地铁站)","station_id":"深圳铁路公园(地铁站)_22.50535_113.88544","lineId":"深圳地铁15号线 / 深圳地铁5号线","lat":22.505354285,"lon":113.88543924,"area_km2":1.8439,"D":0.2193,"C":0.4316,"T":0.1114,"U1":0.212,"U2":0.0109,"couplingDegree":0.2193,"level":"中度失调","road_density":28.9422,"walk_accessibility":0.3697,"metro_line_density":2.8306,"station_count":3,"line_count":2,"population_density":2544.6579,"poi_density":0.5423,"poi_diversity":0.0,"gdp_density":0.0,"P":2544.6579,"I":0.5423,"G":0.0},{"stationName":"深圳妈湾(地铁站)","station_id":"深圳妈湾(地铁站)_22.51095_113.88105","lineId":"深圳地铁5号线","lat":22.51095254,"lon":113.88104853,"area_km2":1.7315,"D":0.2121,"C":0.4232,"T":0.1063,"U1":0.2027,"U2":0.01,"couplingDegree":0.2121,"level":"中度失调","road_density":27.4907,"walk_accessibility":0.3472,"metro_line_density":2.4655,"station_count":3,"line_count":2,"population_density":4514.583,"poi_density":0.0,"poi_diversity":0.0,"gdp_density":0.0,"P":4514.583,"I":0.0,"G":0.0},{"stationName":"深圳前湾公园(地铁站)","station_id":"深圳前湾公园(地铁站)_22.51916_113.88468","lineId":"深圳地铁5号线","lat":22.51915966,"lon":113.88467716,"area_km2":1.9336,"D":0.1724,"C":0.2544,"T":0.1169,"U1":0.2299,"U2":0.0038,"couplingDegree":0.1724,"level":"极度失调","road_density":32.9354,"walk_accessibility":0.3877,"metro_line_density":1.2787,"station_count":4,"line_count":2,"population_density":1736.6689,"poi_density":0.0,"poi_diversity":0.0,"gdp_density":0.0,"P":1736.6689,"I":0.0,"G":0.0},{"stationName":"深圳前湾(地铁站)","station_id":"深圳前湾(地铁站)_22.52487_113.89059","lineId":"深圳地铁5号线","lat":22.52487404,"lon":113.89058584,"area_km2":3.0149,"D":0.3821,"C":0.7632,"T":0.1913,"U1":0.315,"U2":0.0677,"couplingDegree":0.3821,"level":"中度失调","road_density":43.9446,"walk_accessibility":0.6045,"metro_line_density":2.5963,"station_count":5,"line_count":2,"population_density":1666.04,"poi_density":0.6634,"poi_diversity":0.6931,"gdp_density":0.0,"P":1666.04,"I":0.6634,"G":0.0},{"stationName":"深圳桂湾(地铁站)","station_id":"深圳桂湾(地铁站)_22.53541_113.89308","lineId":"深圳地铁5号线","lat":22.5354111,"lon":113.89307671,"area_km2":2.6405,"D":0.3811,"C":0.7631,"T":0.1903,"U1":0.3133,"U2":0.0673,"couplingDegree":0.3811,"level":"中度失调","road_density":46.0641,"walk_accessibility":0.5294,"metro_line_density":4.7773,"station_count":4,"line_count":2,"population_density":1089.1912,"poi_density":0.7574,"poi_diversity":0.6931,"gdp_density":0.0,"P":1089.1912,"I":0.7574,"G":0.0},{"stationName":"深圳临海(地铁站)","station_id":"深圳临海(地铁站)_22.54721_113.88445","lineId":"深圳地铁5号线","lat":22.54720951,"lon":113.88444593,"area_km2":2.3458,"D":0.4783,"C":0.9466,"T":0.2417,"U1":0.3196,"U2":0.1638,"couplingDegree":0.4783,"level":"勉强协调","road_density":39.5923,"walk_accessibility":0.4703,"metro_line_density":3.8634,"station_count":5,"line_count":2,"population_density":6810.7842,"poi_density":4.6892,"poi_diversity":1.2407,"gdp_density":0.0,"P":6810.7842,"I":4.6892,"G":0.0},{"stationName":"深圳宝华(地铁站)","station_id":"深圳宝华(地铁站)_22.55268_113.88021","lineId":"深圳地铁5号线","lat":22.55268148,"lon":113.88020597,"area_km2":3.4113,"D":0.5865,"C":0.9911,"T":0.347,"U1":0.3933,"U2":0.3007,"couplingDegree":0.5865,"level":"勉强协调","road_density":41.3346,"walk_accessibility":0.684,"metro_line_density":3.3889,"station_count":5,"line_count":3,"population_density":6124.0384,"poi_density":10.26,"poi_diversity":2.1578,"gdp_density":45348.547,"P":6124.0384,"I":10.26,"G":45348.547},{"stationName":"深圳翻身(地铁站)","station_id":"深圳翻身(地铁站)_22.56274_113.88836","lineId":"深圳地铁5号线","lat":22.56274124,"lon":113.88835791,"area_km2":3.2137,"D":0.4886,"C":0.9787,"T":0.2439,"U1":0.1939,"U2":0.294,"couplingDegree":0.4886,"level":"勉强协调","road_density":33.8603,"walk_accessibility":0.6443,"metro_line_density":2.3188,"station_count":2,"line_count":2,"population_density":8645.2869,"poi_density":6.5346,"poi_diversity":2.3345,"gdp_density":97648.2085,"P":8645.2869,"I":6.5346,"G":97648.2085},{"stationName":"深圳灵芝(地铁站)","station_id":"深圳灵芝(地铁站)_22.57202_113.89929","lineId":"深圳地铁12号线 / 深圳地铁5号线","lat":22.572015229999998,"lon":113.899293,"area_km2":2.8468,"D":0.5394,"C":0.9968,"T":0.2919,"U1":0.2685,"U2":0.3153,"couplingDegree":0.5394,"level":"勉强协调","road_density":25.4146,"walk_accessibility":0.5708,"metro_line_density":4.0645,"station_count":2,"line_count":3,"population_density":27540.708,"poi_density":3.864,"poi_diversity":2.1458,"gdp_density":216628.1847,"P":27540.708,"I":3.864,"G":216628.1847},{"stationName":"深圳洪浪北(地铁站)","station_id":"深圳洪浪北(地铁站)_22.57758_113.90572","lineId":"深圳地铁15号线 / 深圳地铁5号线","lat":22.577579849999996,"lon":113.90571729666665,"area_km2":2.586,"D":0.3677,"C":0.6721,"T":0.2011,"U1":0.35,"U2":0.0522,"couplingDegree":0.3677,"level":"中度失调","road_density":22.7012,"walk_accessibility":0.5185,"metro_line_density":3.351,"station_count":3,"line_count":4,"population_density":15494.6782,"poi_density":0.3867,"poi_diversity":0.0,"gdp_density":79382.094,"P":15494.6782,"I":0.3867,"G":79382.094},{"stationName":"深圳兴东(地铁站)","station_id":"深圳兴东(地铁站)_22.58487_113.91415","lineId":"深圳地铁29号线 / 深圳地铁5号线","lat":22.58486544,"lon":113.91415042,"area_km2":2.1816,"D":0.2251,"C":0.4231,"T":0.1198,"U1":0.2284,"U2":0.0113,"couplingDegree":0.2251,"level":"中度失调","road_density":24.2991,"walk_accessibility":0.4374,"metro_line_density":2.083,"station_count":2,"line_count":3,"population_density":3333.7367,"poi_density":0.0,"poi_diversity":0.0,"gdp_density":21732.3147,"P":3333.7367,"I":0.0,"G":21732.3147},{"stationName":"深圳留仙洞(地铁站)","station_id":"深圳留仙洞(地铁站)_22.58351_113.93894","lineId":"深圳地铁13号线 / 深圳地铁5号线","lat":22.58351149666667,"lon":113.93894454999999,"area_km2":2.6291,"D":0.5041,"C":0.9898,"T":0.2567,"U1":0.2932,"U2":0.2202,"couplingDegree":0.5041,"level":"勉强协调","road_density":25.9073,"walk_accessibility":0.5271,"metro_line_density":5.7878,"station_count":2,"line_count":3,"population_density":7612.0617,"poi_density":2.2821,"poi_diversity":1.5607,"gdp_density":289406.685,"P":7612.0617,"I":2.2821,"G":289406.685},{"stationName":"深圳西丽(地铁站)","station_id":"深圳西丽(地铁站)_22.58367_113.94924","lineId":"深圳地铁5号线 / 深圳地铁7号线","lat":22.58366981,"lon":113.94923578000001,"area_km2":2.5219,"D":0.5586,"C":0.9934,"T":0.3141,"U1":0.3503,"U2":0.278,"couplingDegree":0.5586,"level":"勉强协调","road_density":27.6049,"walk_accessibility":0.5056,"metro_line_density":4.9431,"station_count":4,"line_count":3,"population_density":10996.4326,"poi_density":2.7757,"poi_diversity":1.9459,"gdp_density":364983.86,"P":10996.4326,"I":2.7757,"G":364983.86},{"stationName":"深圳大学城(地铁站)","station_id":"深圳大学城(地铁站)_22.58491_113.96039","lineId":"深圳地铁5号线","lat":22.58490972,"lon":113.96039249,"area_km2":2.0083,"D":0.4448,"C":0.9926,"T":0.1993,"U1":0.1751,"U2":0.2236,"couplingDegree":0.4448,"level":"勉强协调","road_density":28.0431,"walk_accessibility":0.4027,"metro_line_density":2.6284,"station_count":2,"line_count":2,"population_density":6560.8559,"poi_density":1.9918,"poi_diversity":1.3863,"gdp_density":418361.6175,"P":6560.8559,"I":1.9918,"G":418361.6175},{"stationName":"深圳塘朗(地铁站)","station_id":"深圳塘朗(地铁站)_22.59296_113.99467","lineId":"深圳地铁5号线","lat":22.59296016,"lon":113.99466908,"area_km2":2.2127,"D":0.3812,"C":0.8569,"T":0.1696,"U1":0.257,"U2":0.0822,"couplingDegree":0.3812,"level":"中度失调","road_density":30.0582,"walk_accessibility":0.4436,"metro_line_density":3.3151,"station_count":2,"line_count":3,"population_density":5905.3961,"poi_density":1.3558,"poi_diversity":0.0,"gdp_density":313766.9295,"P":5905.3961,"I":1.3558,"G":313766.9295},{"stationName":"深圳长岭陂(地铁站)","station_id":"深圳长岭陂(地铁站)_22.60223_114.00525","lineId":"深圳地铁27号线 / 深圳地铁5号线","lat":22.60222537,"lon":114.00525025499999,"area_km2":1.6558,"D":0.2807,"C":0.8038,"T":0.098,"U1":0.1563,"U2":0.0397,"couplingDegree":0.2807,"level":"中度失调","road_density":26.0351,"walk_accessibility":0.332,"metro_line_density":4.1172,"station_count":1,"line_count":2,"population_density":445.7192,"poi_density":1.2079,"poi_diversity":0.0,"gdp_density":151185.767,"P":445.7192,"I":1.2079,"G":151185.767},{"stationName":"深圳民治(地铁站)","station_id":"深圳民治(地铁站)_22.62024_114.03581","lineId":"深圳地铁22号线 / 深圳地铁5号线","lat":22.620237545000002,"lon":114.035811585,"area_km2":2.4135,"D":0.4792,"C":0.9741,"T":0.2358,"U1":0.1825,"U2":0.2891,"couplingDegree":0.4792,"level":"勉强协调","road_density":32.4725,"walk_accessibility":0.4839,"metro_line_density":4.5603,"station_count":1,"line_count":2,"population_density":17726.8568,"poi_density":4.1433,"poi_diversity":2.0253,"gdp_density":232089.0714,"P":17726.8568,"I":4.1433,"G":232089.0714},{"stationName":"深圳五和(地铁站)","station_id":"深圳五和(地铁站)_22.62954_114.05556","lineId":"深圳地铁5号线","lat":22.62953587,"lon":114.05555872,"area_km2":2.3872,"D":0.4567,"C":0.9849,"T":0.2118,"U1":0.2485,"U2":0.1751,"couplingDegree":0.4567,"level":"勉强协调","road_density":23.3648,"walk_accessibility":0.4786,"metro_line_density":3.149,"station_count":4,"line_count":2,"population_density":11609.9892,"poi_density":2.9323,"poi_diversity":1.1537,"gdp_density":140362.1091,"P":11609.9892,"I":2.9323,"G":140362.1091},{"stationName":"深圳坂田(地铁站)","station_id":"深圳坂田(地铁站)_22.63017_114.06572","lineId":"深圳地铁5号线","lat":22.63017094,"lon":114.06572017,"area_km2":2.065,"D":0.421,"C":0.9769,"T":0.1815,"U1":0.2202,"U2":0.1427,"couplingDegree":0.421,"level":"勉强协调","road_density":22.1767,"walk_accessibility":0.414,"metro_line_density":1.685,"station_count":4,"line_count":2,"population_density":5844.5596,"poi_density":2.4213,"poi_diversity":0.9503,"gdp_density":153049.5933,"P":5844.5596,"I":2.4213,"G":153049.5933},{"stationName":"深圳杨美(地铁站)","station_id":"深圳杨美(地铁站)_22.62946_114.07484","lineId":"深圳地铁5号线","lat":22.62945627,"lon":114.07484093,"area_km2":1.9323,"D":0.2479,"C":0.9572,"T":0.0642,"U1":0.0827,"U2":0.0456,"couplingDegree":0.2479,"level":"中度失调","road_density":24.4274,"walk_accessibility":0.3874,"metro_line_density":1.3405,"station_count":2,"line_count":1,"population_density":3072.017,"poi_density":1.035,"poi_diversity":0.0,"gdp_density":161225.518,"P":3072.017,"I":1.035,"G":161225.518},{"stationName":"深圳上水径(地铁站)","station_id":"深圳上水径(地铁站)_22.62472_114.10022","lineId":"深圳地铁5号线","lat":22.62471851,"lon":114.10021536,"area_km2":1.6323,"D":0.2481,"C":0.977,"T":0.063,"U1":0.0765,"U2":0.0496,"couplingDegree":0.2481,"level":"中度失调","road_density":24.4753,"walk_accessibility":0.3273,"metro_line_density":1.1573,"station_count":2,"line_count":1,"population_density":12239.4979,"poi_density":0.0,"poi_diversity":0.0,"gdp_density":126216.07,"P":12239.4979,"I":0.0,"G":126216.07},{"stationName":"深圳下水径(地铁站)","station_id":"深圳下水径(地铁站)_22.61751_114.10555","lineId":"深圳地铁5号线","lat":22.6175091,"lon":114.10554695,"area_km2":1.5499,"D":0.2687,"C":0.9177,"T":0.0787,"U1":0.1099,"U2":0.0474,"couplingDegree":0.2687,"level":"中度失调","road_density":20.0096,"walk_accessibility":0.3107,"metro_line_density":1.6374,"station_count":3,"line_count":1,"population_density":13235.7788,"poi_density":0.0,"poi_diversity":0.0,"gdp_density":101725.9348,"P":13235.7788,"I":0.0,"G":101725.9348},{"stationName":"深圳长龙(地铁站)","station_id":"深圳长龙(地铁站)_22.61073_114.10871","lineId":"深圳地铁5号线","lat":22.61073227,"lon":114.10871485,"area_km2":1.9698,"D":0.3448,"C":0.7862,"T":0.1512,"U1":0.2446,"U2":0.0578,"couplingDegree":0.3448,"level":"中度失调","road_density":22.8146,"walk_accessibility":0.3949,"metro_line_density":1.2315,"station_count":3,"line_count":3,"population_density":13343.6996,"poi_density":0.0,"poi_diversity":0.0,"gdp_density":158396.8468,"P":13343.6996,"I":0.0,"G":158396.8468},{"stationName":"深圳百鸽笼(地铁站)","station_id":"深圳百鸽笼(地铁站)_22.59814_114.12530","lineId":"深圳地铁5号线","lat":22.59813914,"lon":114.12529767,"area_km2":1.792,"D":0.4648,"C":0.9901,"T":0.2182,"U1":0.2488,"U2":0.1876,"couplingDegree":0.4648,"level":"勉强协调","road_density":23.3869,"walk_accessibility":0.3593,"metro_line_density":3.8049,"station_count":2,"line_count":3,"population_density":16056.5492,"poi_density":2.7902,"poi_diversity":1.3322,"gdp_density":80301.7196,"P":16056.5492,"I":2.7902,"G":80301.7196},{"stationName":"深圳布心(地铁站)","station_id":"深圳布心(地铁站)_22.58370_114.13298","lineId":"深圳地铁5号线","lat":22.58369589,"lon":114.13298186,"area_km2":1.6432,"D":0.376,"C":0.9946,"T":0.1421,"U1":0.1569,"U2":0.1273,"couplingDegree":0.376,"level":"中度失调","road_density":31.1737,"walk_accessibility":0.3295,"metro_line_density":1.3986,"station_count":2,"line_count":2,"population_density":21185.1423,"poi_density":1.2171,"poi_diversity":0.0,"gdp_density":384794.6509,"P":21185.1423,"I":1.2171,"G":384794.6509},{"stationName":"深圳太安(地铁站)","station_id":"深圳太安(地铁站)_22.57617_114.13205","lineId":"深圳地铁5号线 / 深圳地铁7号线","lat":22.576174695,"lon":114.13205325999999,"area_km2":2.1771,"D":0.4785,"C":0.9484,"T":0.2414,"U1":0.318,"U2":0.1649,"couplingDegree":0.4785,"level":"勉强协调","road_density":33.7748,"walk_accessibility":0.4365,"metro_line_density":2.4586,"station_count":4,"line_count":3,"population_density":19179.2448,"poi_density":1.378,"poi_diversity":0.6365,"gdp_density":315381.3597,"P":19179.2448,"I":1.378,"G":315381.3597},{"stationName":"深圳怡景(地铁站)","station_id":"深圳怡景(地铁站)_22.55857_114.13506","lineId":"深圳地铁5号线","lat":22.55857157,"lon":114.13505675,"area_km2":2.3197,"D":0.568,"C":0.9777,"T":0.3299,"U1":0.2607,"U2":0.3992,"couplingDegree":0.568,"level":"勉强协调","road_density":29.088,"walk_accessibility":0.4651,"metro_line_density":1.3465,"station_count":3,"line_count":3,"population_density":46304.7027,"poi_density":6.0353,"poi_diversity":2.144,"gdp_density":336310.9026,"P":46304.7027,"I":6.0353,"G":336310.9026},{"stationName":"深圳东门(地铁站)","station_id":"深圳东门(地铁站)_22.54568_114.11230","lineId":"深圳地铁5号线","lat":22.54568342,"lon":114.112295115,"area_km2":3.0922,"D":0.8904,"C":0.9981,"T":0.7943,"U1":0.8427,"U2":0.746,"couplingDegree":0.8904,"level":"优质协调","road_density":34.1867,"walk_accessibility":0.62,"metro_line_density":9.6369,"station_count":10,"line_count":6,"population_density":70000.4087,"poi_density":28.4587,"poi_diversity":2.8682,"gdp_density":424702.995,"P":70000.4087,"I":28.4587,"G":424702.995},{"stationName":"深圳体育中心(地铁站)","station_id":"深圳体育中心(地铁站)_22.55735_114.09098","lineId":"深圳地铁6号线","lat":22.55735256,"lon":114.09097829,"area_km2":3.2279,"D":0.7433,"C":0.9773,"T":0.5654,"U1":0.6853,"U2":0.4455,"couplingDegree":0.7433,"level":"良好协调","road_density":40.8226,"walk_accessibility":0.6472,"metro_line_density":5.1034,"station_count":9,"line_count":5,"population_density":33347.504,"poi_density":6.8155,"poi_diversity":2.0198,"gdp_density":772228.4762,"P":33347.504,"I":6.8155,"G":772228.4762},{"stationName":"深圳八卦岭(地铁站)","station_id":"深圳八卦岭(地铁站)_22.56414_114.08893","lineId":"深圳地铁6号线 / 深圳地铁7号线","lat":22.564140565,"lon":114.08893381,"area_km2":2.7687,"D":0.6204,"C":0.9704,"T":0.3966,"U1":0.4924,"U2":0.3009,"couplingDegree":0.6204,"level":"良好协调","road_density":41.9028,"walk_accessibility":0.5551,"metro_line_density":5.8037,"station_count":7,"line_count":3,"population_density":32517.2674,"poi_density":2.5282,"poi_diversity":1.5498,"gdp_density":424337.8424,"P":32517.2674,"I":2.5282,"G":424337.8424},{"stationName":"深圳银湖(地铁站)","station_id":"深圳银湖(地铁站)_22.57099_114.08472","lineId":"深圳地铁6号线","lat":22.57098783,"lon":114.08472222,"area_km2":2.1379,"D":0.3595,"C":0.6553,"T":0.1972,"U1":0.3461,"U2":0.0482,"couplingDegree":0.3595,"level":"中度失调","road_density":40.5815,"walk_accessibility":0.4286,"metro_line_density":5.827,"station_count":3,"line_count":3,"population_density":6890.7903,"poi_density":0.4677,"poi_diversity":0.0,"gdp_density":159510.1959,"P":6890.7903,"I":0.4677,"G":159510.1959},{"stationName":"深圳翰岭(地铁站)","station_id":"深圳翰岭(地铁站)_22.57688_114.06377","lineId":"深圳地铁6号线","lat":22.5768767,"lon":114.06376804,"area_km2":1.4167,"D":0.5052,"C":0.9079,"T":0.2811,"U1":0.399,"U2":0.1633,"couplingDegree":0.5052,"level":"勉强协调","road_density":30.3781,"walk_accessibility":0.2841,"metro_line_density":6.6167,"station_count":3,"line_count":4,"population_density":5714.554,"poi_density":1.4117,"poi_diversity":0.6931,"gdp_density":445308.1707,"P":5714.554,"I":1.4117,"G":445308.1707},{"stationName":"深圳梅林关(地铁站)","station_id":"深圳梅林关(地铁站)_22.59639_114.04863","lineId":"深圳地铁6号线","lat":22.59638612,"lon":114.0486283,"area_km2":1.7445,"D":0.4966,"C":0.9891,"T":0.2493,"U1":0.2859,"U2":0.2127,"couplingDegree":0.4966,"level":"勉强协调","road_density":38.5771,"walk_accessibility":0.3498,"metro_line_density":4.6541,"station_count":2,"line_count":3,"population_density":4284.921,"poi_density":6.8788,"poi_diversity":1.2343,"gdp_density":189189.4384,"P":4284.921,"I":6.8788,"G":189189.4384},{"stationName":"深圳上芬(地铁站)","station_id":"深圳上芬(地铁站)_22.64320_114.01159","lineId":"深圳地铁6号线","lat":22.64319972,"lon":114.01159448,"area_km2":2.0508,"D":0.3803,"C":0.8858,"T":0.1633,"U1":0.239,"U2":0.0875,"couplingDegree":0.3803,"level":"中度失调","road_density":36.0758,"walk_accessibility":0.4112,"metro_line_density":3.6808,"station_count":3,"line_count":2,"population_density":15694.4945,"poi_density":0.4876,"poi_diversity":0.0,"gdp_density":269490.7477,"P":15694.4945,"I":0.4876,"G":269490.7477},{"stationName":"深圳元芬(地铁站)","station_id":"深圳元芬(地铁站)_22.65916_114.00012","lineId":"深圳地铁6号线","lat":22.6591623,"lon":114.00012333,"area_km2":1.8511,"D":0.2738,"C":0.994,"T":0.0754,"U1":0.0672,"U2":0.0837,"couplingDegree":0.2738,"level":"中度失调","road_density":35.5322,"walk_accessibility":0.3711,"metro_line_density":1.447,"station_count":1,"line_count":1,"population_density":14095.948,"poi_density":0.0,"poi_diversity":0.0,"gdp_density":294430.4441,"P":14095.948,"I":0.0,"G":294430.4441},{"stationName":"深圳阳台山东(地铁站)","station_id":"深圳阳台山东(地铁站)_22.67077_113.98662","lineId":"深圳地铁6号线","lat":22.67076904,"lon":113.98661907,"area_km2":2.4381,"D":0.2639,"C":0.9933,"T":0.0701,"U1":0.0782,"U2":0.062,"couplingDegree":0.2639,"level":"中度失调","road_density":41.8296,"walk_accessibility":0.4888,"metro_line_density":1.054,"station_count":1,"line_count":1,"population_density":3889.1736,"poi_density":0.0,"poi_diversity":0.0,"gdp_density":299547.1711,"P":3889.1736,"I":0.0,"G":299547.1711},{"stationName":"深圳官田(地铁站)","station_id":"深圳官田(地铁站)_22.68623_113.94477","lineId":"深圳地铁6号线","lat":22.68623315,"lon":113.94476974,"area_km2":1.4291,"D":0.2839,"C":0.861,"T":0.0936,"U1":0.1412,"U2":0.046,"couplingDegree":0.2839,"level":"中度失调","road_density":23.5567,"walk_accessibility":0.2865,"metro_line_density":1.3458,"station_count":2,"line_count":2,"population_density":8539.5492,"poi_density":0.0,"poi_diversity":0.0,"gdp_density":152095.5009,"P":8539.5492,"I":0.0,"G":152095.5009},{"stationName":"深圳上屋(地铁站)","station_id":"深圳上屋(地铁站)_22.69169_113.93435","lineId":"深圳地铁13号线 / 深圳地铁6号线","lat":22.691688956666667,"lon":113.93435329333333,"area_km2":1.5957,"D":0.3057,"C":0.7741,"T":0.1208,"U1":0.1972,"U2":0.0443,"couplingDegree":0.3057,"level":"中度失调","road_density":18.296,"walk_accessibility":0.3199,"metro_line_density":5.4095,"station_count":2,"line_count":2,"population_density":5656.5369,"poi_density":0.0,"poi_diversity":0.0,"gdp_density":178420.3088,"P":5656.5369,"I":0.0,"G":178420.3088},{"stationName":"深圳长圳(地铁站)","station_id":"深圳长圳(地铁站)_22.72933_113.92605","lineId":"深圳地铁6号线","lat":22.72933246,"lon":113.92604951,"area_km2":1.8842,"D":0.255,"C":0.933,"T":0.0697,"U1":0.0446,"U2":0.0948,"couplingDegree":0.255,"level":"中度失调","road_density":23.2801,"walk_accessibility":0.3778,"metro_line_density":1.2454,"station_count":1,"line_count":1,"population_density":2442.8856,"poi_density":1.0614,"poi_diversity":0.6931,"gdp_density":120467.7459,"P":2442.8856,"I":1.0614,"G":120467.7459},{"stationName":"深圳凤凰城(地铁站)","station_id":"深圳凤凰城(地铁站)_22.75101_113.92833","lineId":"深圳地铁13号线 / 深圳地铁6号线","lat":22.75100808,"lon":113.92833175,"area_km2":1.8049,"D":0.2767,"C":0.8125,"T":0.0942,"U1":0.1491,"U2":0.0393,"couplingDegree":0.2767,"level":"中度失调","road_density":22.7605,"walk_accessibility":0.3619,"metro_line_density":3.8814,"station_count":1,"line_count":2,"population_density":5389.1413,"poi_density":0.0,"poi_diversity":0.0,"gdp_density":153551.4664,"P":5389.1413,"I":0.0,"G":153551.4664},{"stationName":"深圳光明大街(地铁站)","station_id":"深圳光明大街(地铁站)_22.76494_113.93782","lineId":"深圳地铁6号线","lat":22.76493662,"lon":113.93782319,"area_km2":1.9614,"D":0.3125,"C":0.9228,"T":0.1058,"U1":0.1466,"U2":0.0651,"couplingDegree":0.3125,"level":"中度失调","road_density":20.5097,"walk_accessibility":0.3933,"metro_line_density":3.6558,"station_count":3,"line_count":1,"population_density":22841.6008,"poi_density":0.5098,"poi_diversity":0.0,"gdp_density":53497.9432,"P":22841.6008,"I":0.5098,"G":53497.9432},{"stationName":"深圳光明(地铁站)","station_id":"深圳光明(地铁站)_22.77467_113.94035","lineId":"深圳地铁6号线","lat":22.77467126,"lon":113.94034774,"area_km2":1.1824,"D":0.2999,"C":0.9612,"T":0.0936,"U1":0.1194,"U2":0.0678,"couplingDegree":0.2999,"level":"中度失调","road_density":22.0277,"walk_accessibility":0.2371,"metro_line_density":4.5444,"station_count":2,"line_count":1,"population_density":24312.613,"poi_density":0.0,"poi_diversity":0.0,"gdp_density":78329.4594,"P":24312.613,"I":0.0,"G":78329.4594},{"stationName":"深圳科学公园(地铁站)","station_id":"深圳科学公园(地铁站)_22.78045_113.92923","lineId":"深圳地铁6号线","lat":22.78045031,"lon":113.92923301,"area_km2":1.2501,"D":0.2712,"C":0.9991,"T":0.0736,"U1":0.0768,"U2":0.0705,"couplingDegree":0.2712,"level":"中度失调","road_density":18.297,"walk_accessibility":0.2506,"metro_line_density":2.1226,"station_count":2,"line_count":1,"population_density":23146.1305,"poi_density":0.0,"poi_diversity":0.0,"gdp_density":107877.4152,"P":23146.1305,"I":0.0,"G":107877.4152},{"stationName":"深圳楼村(地铁站)","station_id":"深圳楼村(地铁站)_22.77890_113.91853","lineId":"深圳地铁6号线","lat":22.7789048,"lon":113.91853115,"area_km2":1.7005,"D":0.2626,"C":0.9997,"T":0.069,"U1":0.0705,"U2":0.0674,"couplingDegree":0.2626,"level":"中度失调","road_density":20.4839,"walk_accessibility":0.341,"metro_line_density":1.1405,"station_count":2,"line_count":1,"population_density":22040.6848,"poi_density":0.0,"poi_diversity":0.0,"gdp_density":104578.1422,"P":22040.6848,"I":0.0,"G":104578.1422},{"stationName":"深圳红花山(地铁站)","station_id":"深圳红花山(地铁站)_22.78069_113.90242","lineId":"深圳地铁6号线","lat":22.78068839,"lon":113.90241529,"area_km2":1.7254,"D":0.2162,"C":0.9641,"T":0.0485,"U1":0.0356,"U2":0.0614,"couplingDegree":0.2162,"level":"中度失调","road_density":20.4989,"walk_accessibility":0.3459,"metro_line_density":1.0768,"station_count":1,"line_count":1,"population_density":12111.6604,"poi_density":0.0,"poi_diversity":0.0,"gdp_density":194018.3901,"P":12111.6604,"I":0.0,"G":194018.3901},{"stationName":"深圳公明广场(地铁站)","station_id":"深圳公明广场(地铁站)_22.77949_113.88720","lineId":"深圳地铁13号线 / 深圳地铁6号线","lat":22.779494195,"lon":113.88720435,"area_km2":2.0677,"D":0.3188,"C":0.9604,"T":0.1058,"U1":0.1353,"U2":0.0763,"couplingDegree":0.3188,"level":"中度失调","road_density":21.564,"walk_accessibility":0.4146,"metro_line_density":2.9089,"station_count":1,"line_count":2,"population_density":20914.1802,"poi_density":0.0,"poi_diversity":0.0,"gdp_density":168623.0866,"P":20914.1802,"I":0.0,"G":168623.0866},{"stationName":"深圳合水口(地铁站)","station_id":"深圳合水口(地铁站)_22.78460_113.87602","lineId":"深圳地铁6号线","lat":22.7846029,"lon":113.87602216,"area_km2":2.0633,"D":0.2581,"C":0.9384,"T":0.071,"U1":0.0465,"U2":0.0955,"couplingDegree":0.2581,"level":"中度失调","road_density":22.6318,"walk_accessibility":0.4137,"metro_line_density":1.2982,"station_count":1,"line_count":1,"population_density":29599.7156,"poi_density":0.0,"poi_diversity":0.0,"gdp_density":168385.8527,"P":29599.7156,"I":0.0,"G":168385.8527},{"stationName":"深圳薯田埔(地铁站)","station_id":"深圳薯田埔(地铁站)_22.78391_113.86276","lineId":"深圳地铁6号线","lat":22.7839067,"lon":113.86276462,"area_km2":1.6112,"D":0.2248,"C":0.9908,"T":0.051,"U1":0.0441,"U2":0.0579,"couplingDegree":0.2248,"level":"中度失调","road_density":24.8937,"walk_accessibility":0.323,"metro_line_density":1.2527,"station_count":1,"line_count":1,"population_density":17651.7779,"poi_density":0.6206,"poi_diversity":0.0,"gdp_density":71745.9959,"P":17651.7779,"I":0.6206,"G":71745.9959},{"stationName":"深圳松岗公园(地铁站)","station_id":"深圳松岗公园(地铁站)_22.78087_113.84334","lineId":"深圳地铁6号线","lat":22.78087111,"lon":113.84333539,"area_km2":1.125,"D":0.2612,"C":0.9834,"T":0.0694,"U1":0.082,"U2":0.0568,"couplingDegree":0.2612,"level":"中度失调","road_density":23.446,"walk_accessibility":0.2256,"metro_line_density":2.011,"station_count":2,"line_count":1,"population_density":10375.8762,"poi_density":0.8889,"poi_diversity":0.0,"gdp_density":141176.0938,"P":10375.8762,"I":0.8889,"G":141176.0938},{"stationName":"深圳溪头(地铁站)","station_id":"深圳溪头(地铁站)_22.77758_113.83265","lineId":"深圳地铁6号线","lat":22.77758127,"lon":113.83264755,"area_km2":1.6969,"D":0.4624,"C":0.9992,"T":0.214,"U1":0.2057,"U2":0.2224,"couplingDegree":0.4624,"level":"勉强协调","road_density":24.7686,"walk_accessibility":0.3402,"metro_line_density":2.9737,"station_count":3,"line_count":2,"population_density":22548.9362,"poi_density":2.9465,"poi_diversity":1.3322,"gdp_density":186091.7786,"P":22548.9362,"I":2.9465,"G":186091.7786},{"stationName":"深圳松岗(地铁站)","station_id":"深圳松岗(地铁站)_22.77501_113.82396","lineId":"深圳地铁12号线 / 深圳地铁6号线","lat":22.775011883333335,"lon":113.82395764333334,"area_km2":2.0007,"D":0.357,"C":0.8911,"T":0.143,"U1":0.2079,"U2":0.0781,"couplingDegree":0.357,"level":"中度失调","road_density":22.9536,"walk_accessibility":0.4011,"metro_line_density":5.3063,"station_count":2,"line_count":2,"population_density":16348.8203,"poi_density":0.0,"poi_diversity":0.0,"gdp_density":235430.709,"P":16348.8203,"I":0.0,"G":235430.709},{"stationName":"深圳光明城(地铁站)","station_id":"深圳光明城(地铁站)_22.73519_113.94861","lineId":"深圳地铁13号线 / 深圳地铁6号线","lat":22.73519257,"lon":113.94860561333333,"area_km2":1.8524,"D":0.2249,"C":0.5325,"T":0.095,"U1":0.1754,"U2":0.0146,"couplingDegree":0.2249,"level":"中度失调","road_density":26.2661,"walk_accessibility":0.3714,"metro_line_density":5.1846,"station_count":1,"line_count":2,"population_density":2665.2291,"poi_density":0.0,"poi_diversity":0.0,"gdp_density":48765.0001,"P":2665.2291,"I":0.0,"G":48765.0001},{"stationName":"深圳虹桥公园(地铁站)","station_id":"深圳虹桥公园(地铁站)_22.75315_113.94531","lineId":"深圳地铁6号线","lat":22.7531536,"lon":113.94530974,"area_km2":1.9653,"D":0.2746,"C":0.8293,"T":0.0909,"U1":0.1418,"U2":0.0401,"couplingDegree":0.2746,"level":"中度失调","road_density":24.5214,"walk_accessibility":0.394,"metro_line_density":5.1398,"station_count":2,"line_count":1,"population_density":11919.6116,"poi_density":0.0,"poi_diversity":0.0,"gdp_density":77172.6925,"P":11919.6116,"I":0.0,"G":77172.6925},{"stationName":"深圳碧眼(地铁站)","station_id":"深圳碧眼(地铁站)_22.76108_113.94614","lineId":"深圳地铁6号线","lat":22.761075005000002,"lon":113.946138375,"area_km2":1.7645,"D":0.292,"C":0.8007,"T":0.1065,"U1":0.1703,"U2":0.0427,"couplingDegree":0.292,"level":"中度失调","road_density":19.8307,"walk_accessibility":0.3538,"metro_line_density":5.4178,"station_count":3,"line_count":1,"population_density":14227.4315,"poi_density":0.5667,"poi_diversity":0.0,"gdp_density":31969.7822,"P":14227.4315,"I":0.5667,"G":31969.7822},{"stationName":"深圳圳美(地铁站)","station_id":"深圳圳美(地铁站)_22.79077_113.94437","lineId":"深圳地铁6号线","lat":22.79076574,"lon":113.94437385,"area_km2":1.8605,"D":0.207,"C":0.8653,"T":0.0495,"U1":0.0744,"U2":0.0247,"couplingDegree":0.207,"level":"中度失调","road_density":23.0902,"walk_accessibility":0.373,"metro_line_density":0.9909,"station_count":2,"line_count":1,"population_density":3787.7924,"poi_density":0.0,"poi_diversity":0.0,"gdp_density":91598.2491,"P":3787.7924,"I":0.0,"G":91598.2491},{"stationName":"深圳中大(地铁站)","station_id":"深圳中大(地铁站)_22.79937_113.94844","lineId":"深圳地铁6号线","lat":22.79937181,"lon":113.94843706,"area_km2":1.9022,"D":0.2038,"C":0.8145,"T":0.051,"U1":0.0805,"U2":0.0214,"couplingDegree":0.2038,"level":"中度失调","road_density":22.8476,"walk_accessibility":0.3814,"metro_line_density":1.3867,"station_count":2,"line_count":1,"population_density":6805.3206,"poi_density":0.0,"poi_diversity":0.0,"gdp_density":35588.4885,"P":6805.3206,"I":0.0,"G":35588.4885},{"stationName":"深圳深理工(地铁站)","station_id":"深圳深理工(地铁站)_22.80928_113.96366","lineId":"深圳地铁6号线","lat":22.80927729,"lon":113.9636583,"area_km2":1.1622,"D":0.1568,"C":0.9079,"T":0.0271,"U1":0.0384,"U2":0.0157,"couplingDegree":0.1568,"level":"极度失调","road_density":25.7439,"walk_accessibility":0.233,"metro_line_density":1.1359,"station_count":1,"line_count":1,"population_density":587.6981,"poi_density":0.0,"poi_diversity":0.0,"gdp_density":80931.1058,"P":587.6981,"I":0.0,"G":80931.1058},{"stationName":"深圳深大丽湖(地铁站)","station_id":"深圳深大丽湖(地铁站)_22.59555_113.98454","lineId":"深圳地铁27号线 / 深圳地铁7号线","lat":22.595549903333335,"lon":113.98454029666668,"area_km2":2.2813,"D":0.4752,"C":0.9625,"T":0.2346,"U1":0.2983,"U2":0.1709,"couplingDegree":0.4752,"level":"勉强协调","road_density":30.2278,"walk_accessibility":0.4574,"metro_line_density":3.6981,"station_count":3,"line_count":3,"population_density":5727.7914,"poi_density":1.315,"poi_diversity":1.0986,"gdp_density":304330.3963,"P":5727.7914,"I":1.315,"G":304330.3963},{"stationName":"深圳北大(地铁站)","station_id":"深圳北大(地铁站)_22.59691_113.97338","lineId":"深圳地铁7号线","lat":22.596913283333333,"lon":113.97338153333332,"area_km2":1.2185,"D":0.4178,"C":0.9734,"T":0.1793,"U1":0.2204,"U2":0.1382,"couplingDegree":0.4178,"level":"勉强协调","road_density":26.7172,"walk_accessibility":0.2443,"metro_line_density":6.3202,"station_count":2,"line_count":2,"population_density":2534.3662,"poi_density":1.6414,"poi_diversity":0.6931,"gdp_density":331447.1725,"P":2534.3662,"I":1.6414,"G":331447.1725},{"stationName":"深圳西丽湖(地铁站)","station_id":"深圳西丽湖(地铁站)_22.59653_113.96073","lineId":"深圳地铁7号线","lat":22.596526474999997,"lon":113.960733545,"area_km2":2.1615,"D":0.288,"C":0.9679,"T":0.0857,"U1":0.1072,"U2":0.0641,"couplingDegree":0.288,"level":"中度失调","road_density":29.6348,"walk_accessibility":0.4334,"metro_line_density":4.4316,"station_count":1,"line_count":1,"population_density":1667.8303,"poi_density":0.4626,"poi_diversity":0.0,"gdp_density":313956.9039,"P":1667.8303,"I":0.4626,"G":313956.9039},{"stationName":"深圳茶光(地铁站)","station_id":"深圳茶光(地铁站)_22.57713_113.94942","lineId":"深圳地铁7号线","lat":22.57712817,"lon":113.94941739,"area_km2":2.3298,"D":0.5209,"C":0.9975,"T":0.272,"U1":0.2528,"U2":0.2912,"couplingDegree":0.5209,"level":"勉强协调","road_density":28.7747,"walk_accessibility":0.4671,"metro_line_density":5.1327,"station_count":3,"line_count":2,"population_density":3522.65,"poi_density":1.7169,"poi_diversity":1.3863,"gdp_density":850769.9887,"P":3522.65,"I":1.7169,"G":850769.9887},{"stationName":"深圳珠光(地铁站)","station_id":"深圳珠光(地铁站)_22.57125_113.95565","lineId":"深圳地铁7号线","lat":22.57124634,"lon":113.95565471,"area_km2":1.7368,"D":0.3932,"C":0.9985,"T":0.1549,"U1":0.1463,"U2":0.1634,"couplingDegree":0.3932,"level":"中度失调","road_density":26.904,"walk_accessibility":0.3482,"metro_line_density":5.3608,"station_count":2,"line_count":1,"population_density":3189.7781,"poi_density":0.5758,"poi_diversity":0.0,"gdp_density":845836.4561,"P":3189.7781,"I":0.5758,"G":845836.4561},{"stationName":"深圳龙井(地铁站)","station_id":"深圳龙井(地铁站)_22.56695_113.96975","lineId":"深圳地铁7号线","lat":22.56695015,"lon":113.96975318,"area_km2":1.9837,"D":0.3748,"C":0.9717,"T":0.1445,"U1":0.1104,"U2":0.1787,"couplingDegree":0.3748,"level":"中度失调","road_density":26.4398,"walk_accessibility":0.3977,"metro_line_density":2.8853,"station_count":2,"line_count":1,"population_density":11856.0619,"poi_density":2.5205,"poi_diversity":0.9503,"gdp_density":275011.8394,"P":11856.0619,"I":2.5205,"G":275011.8394},{"stationName":"深圳桃源村(地铁站)","station_id":"深圳桃源村(地铁站)_22.56282_113.97701","lineId":"深圳地铁7号线","lat":22.56282058,"lon":113.97701017,"area_km2":2.3101,"D":0.3747,"C":0.9701,"T":0.1447,"U1":0.1096,"U2":0.1798,"couplingDegree":0.3747,"level":"中度失调","road_density":28.552,"walk_accessibility":0.4632,"metro_line_density":2.3599,"station_count":2,"line_count":1,"population_density":6191.0505,"poi_density":2.1644,"poi_diversity":1.3322,"gdp_density":193359.7259,"P":6191.0505,"I":2.1644,"G":193359.7259},{"stationName":"深圳深云(地铁站)","station_id":"深圳深云(地铁站)_22.55942_113.98875","lineId":"深圳地铁7号线","lat":22.55942189,"lon":113.98874705,"area_km2":1.8609,"D":0.3513,"C":0.9444,"T":0.1307,"U1":0.1737,"U2":0.0877,"couplingDegree":0.3513,"level":"中度失调","road_density":32.6623,"walk_accessibility":0.3731,"metro_line_density":2.1643,"station_count":2,"line_count":2,"population_density":5067.8628,"poi_density":1.0747,"poi_diversity":0.0,"gdp_density":370696.6204,"P":5067.8628,"I":1.0747,"G":370696.6204},{"stationName":"深圳农林(地铁站)","station_id":"深圳农林(地铁站)_22.54322_114.01310","lineId":"深圳地铁7号线","lat":22.543224029999998,"lon":114.01309501,"area_km2":2.6327,"D":0.584,"C":0.9993,"T":0.3413,"U1":0.3539,"U2":0.3288,"couplingDegree":0.584,"level":"勉强协调","road_density":36.4198,"walk_accessibility":0.5278,"metro_line_density":4.1637,"station_count":4,"line_count":3,"population_density":22076.1302,"poi_density":3.7984,"poi_diversity":1.6957,"gdp_density":573390.2483,"P":22076.1302,"I":3.7984,"G":573390.2483},{"stationName":"深圳上沙(地铁站)","station_id":"深圳上沙(地铁站)_22.52635_114.03122","lineId":"深圳地铁22号线 / 深圳地铁7号线","lat":22.526354275,"lon":114.031220315,"area_km2":2.3642,"D":0.4989,"C":0.9503,"T":0.2619,"U1":0.1804,"U2":0.3434,"couplingDegree":0.4989,"level":"勉强协调","road_density":27.2089,"walk_accessibility":0.474,"metro_line_density":2.7894,"station_count":2,"line_count":2,"population_density":39949.6551,"poi_density":1.6919,"poi_diversity":1.3863,"gdp_density":692491.4258,"P":39949.6551,"I":1.6919,"G":692491.4258},{"stationName":"深圳沙尾(地铁站)","station_id":"深圳沙尾(地铁站)_22.52355_114.03749","lineId":"深圳地铁7号线","lat":22.5235481,"lon":114.03748869,"area_km2":2.7217,"D":0.5769,"C":0.9993,"T":0.333,"U1":0.3208,"U2":0.3453,"couplingDegree":0.5769,"level":"勉强协调","road_density":25.9291,"walk_accessibility":0.5457,"metro_line_density":3.0528,"station_count":4,"line_count":3,"population_density":31619.8062,"poi_density":4.0416,"poi_diversity":1.5466,"gdp_density":603349.3305,"P":31619.8062,"I":4.0416,"G":603349.3305},{"stationName":"深圳皇岗村(地铁站)","station_id":"深圳皇岗村(地铁站)_22.52585_114.05471","lineId":"深圳地铁7号线","lat":22.52585215,"lon":114.05470848,"area_km2":2.8025,"D":0.6406,"C":0.9958,"T":0.412,"U1":0.4498,"U2":0.3743,"couplingDegree":0.6406,"level":"良好协调","road_density":30.9535,"walk_accessibility":0.5619,"metro_line_density":4.3469,"station_count":5,"line_count":4,"population_density":25825.672,"poi_density":6.4229,"poi_diversity":1.7674,"gdp_density":605052.4327,"P":25825.672,"I":6.4229,"G":605052.4327},{"stationName":"深圳皇岗口岸(地铁站)","station_id":"深圳皇岗口岸(地铁站)_22.52449_114.06885","lineId":"深圳地铁7号线","lat":22.52449458,"lon":114.06884589,"area_km2":1.2877,"D":0.4168,"C":0.8455,"T":0.2055,"U1":0.3152,"U2":0.0958,"couplingDegree":0.4168,"level":"勉强协调","road_density":43.5636,"walk_accessibility":0.2582,"metro_line_density":1.9235,"station_count":4,"line_count":3,"population_density":10433.0643,"poi_density":1.5531,"poi_diversity":0.6931,"gdp_density":0.0,"P":10433.0643,"I":1.5531,"G":0.0},{"stationName":"深圳福邻(地铁站)","station_id":"深圳福邻(地铁站)_22.52734_114.07613","lineId":"深圳地铁7号线","lat":22.52734449,"lon":114.076134975,"area_km2":1.3237,"D":0.4494,"C":0.9792,"T":0.2063,"U1":0.1644,"U2":0.2481,"couplingDegree":0.4494,"level":"勉强协调","road_density":37.9126,"walk_accessibility":0.2654,"metro_line_density":3.4654,"station_count":3,"line_count":1,"population_density":10149.4162,"poi_density":2.2663,"poi_diversity":1.0986,"gdp_density":630429.458,"P":10149.4162,"I":2.2663,"G":630429.458},{"stationName":"深圳赤尾(地铁站)","station_id":"深圳赤尾(地铁站)_22.53406_114.07847","lineId":"深圳地铁7号线","lat":22.53406083,"lon":114.07846996,"area_km2":2.038,"D":0.6345,"C":0.9962,"T":0.4041,"U1":0.369,"U2":0.4393,"couplingDegree":0.6345,"level":"良好协调","road_density":30.7125,"walk_accessibility":0.4086,"metro_line_density":3.9781,"station_count":5,"line_count":3,"population_density":30295.2284,"poi_density":5.8881,"poi_diversity":1.9792,"gdp_density":844778.1905,"P":30295.2284,"I":5.8881,"G":844778.1905},{"stationName":"深圳华强南(地铁站)","station_id":"深圳华强南(地铁站)_22.54052_114.08278","lineId":"深圳地铁11号线 / 深圳地铁7号线","lat":22.540516945,"lon":114.08277976,"area_km2":2.5999,"D":0.8743,"C":0.997,"T":0.7667,"U1":0.707,"U2":0.8264,"couplingDegree":0.8743,"level":"优质协调","road_density":30.3212,"walk_accessibility":0.5213,"metro_line_density":6.0586,"station_count":8,"line_count":6,"population_density":69119.5763,"poi_density":29.6169,"poi_diversity":2.5807,"gdp_density":957512.0268,"P":69119.5763,"I":29.6169,"G":957512.0268},{"stationName":"深圳黄木岗(地铁站)","station_id":"深圳黄木岗(地铁站)_22.55847_114.08145","lineId":"深圳地铁7号线","lat":22.5584748,"lon":114.08145085,"area_km2":2.8203,"D":0.6383,"C":0.9949,"T":0.4095,"U1":0.3684,"U2":0.4507,"couplingDegree":0.6383,"level":"良好协调","road_density":34.0921,"walk_accessibility":0.5655,"metro_line_density":5.2065,"station_count":4,"line_count":3,"population_density":46263.2202,"poi_density":7.0915,"poi_diversity":2.1809,"gdp_density":550937.7769,"P":46263.2202,"I":7.0915,"G":550937.7769},