{"cityCode":"440300","year":2016,"stations":[{"stationName":"深圳机场东(地铁站)","station_id":"深圳机场东(地铁站)_22.65001_113.81745","lineId":"深圳地铁12号线 / 深圳地铁1号线 / 深圳地铁20号线","lat":22.65000622333333,"lon":113.81745417333333,"area_km2":1.8094,"D":0.2931,"C":0.5965,"T":0.144,"U1":0.2596,"U2":0.0284,"couplingDegree":0.2931,"level":"中度失调","road_density":23.3038,"walk_accessibility":0.3628,"metro_line_density":6.5442,"station_count":1,"line_count":3,"population_density":7991.0008,"poi_density":0.0,"poi_diversity":0.0,"gdp_density":65368.6688,"P":7991.0008,"I":0.0,"G":65368.6688},{"stationName":"深圳后瑞(地铁站)","station_id":"深圳后瑞(地铁站)_22.63180_113.83045","lineId":"深圳地铁1号线","lat":22.6318011,"lon":113.83045122,"area_km2":2.1041,"D":0.2516,"C":0.8222,"T":0.077,"U1":0.1209,"U2":0.0332,"couplingDegree":0.2516,"level":"中度失调","road_density":27.7809,"walk_accessibility":0.4219,"metro_line_density":5.241,"station_count":1,"line_count":1,"population_density":13617.2122,"poi_density":0.0,"poi_diversity":0.0,"gdp_density":42652.2862,"P":13617.2122,"I":0.0,"G":42652.2862},{"stationName":"深圳固戍(地铁站)","station_id":"深圳固戍(地铁站)_22.60435_113.84182","lineId":"深圳地铁1号线","lat":22.60435465,"lon":113.84182451,"area_km2":2.5354,"D":0.2106,"C":0.9139,"T":0.0485,"U1":0.0682,"U2":0.0288,"couplingDegree":0.2106,"level":"中度失调","road_density":26.6834,"walk_accessibility":0.5083,"metro_line_density":2.1077,"station_count":1,"line_count":1,"population_density":10681.4248,"poi_density":0.0,"poi_diversity":0.0,"gdp_density":46116.8404,"P":10681.4248,"I":0.0,"G":46116.8404},{"stationName":"深圳西乡(地铁站)","station_id":"深圳西乡(地铁站)_22.57817_113.85812","lineId":"深圳地铁1号线","lat":22.57817025,"lon":113.85812138,"area_km2":2.6809,"D":0.3096,"C":0.5844,"T":0.1641,"U1":0.2972,"U2":0.0309,"couplingDegree":0.3096,"level":"中度失调","road_density":28.7036,"walk_accessibility":0.5375,"metro_line_density":3.7063,"station_count":3,"line_count":3,"population_density":8608.6047,"poi_density":0.373,"poi_diversity":0.0,"gdp_density":42417.8656,"P":8608.6047,"I":0.373,"G":42417.8656},{"stationName":"深圳坪洲(地铁站)","station_id":"深圳坪洲(地铁站)_22.57195_113.86578","lineId":"深圳地铁15号线 / 深圳地铁1号线","lat":22.571946635,"lon":113.865775895,"area_km2":2.9608,"D":0.4331,"C":0.9863,"T":0.1901,"U1":0.2215,"U2":0.1588,"couplingDegree":0.4331,"level":"勉强协调","road_density":30.6237,"walk_accessibility":0.5936,"metro_line_density":4.5866,"station_count":2,"line_count":2,"population_density":14013.6082,"poi_density":1.6888,"poi_diversity":0.9503,"gdp_density":13855.4565,"P":14013.6082,"I":1.6888,"G":13855.4565},{"stationName":"深圳宝体(地铁站)","station_id":"深圳宝体(地铁站)_22.56378_113.87575","lineId":"深圳地铁1号线","lat":22.5637833,"lon":113.87574882,"area_km2":3.1156,"D":0.4858,"C":0.9668,"T":0.2441,"U1":0.3065,"U2":0.1818,"couplingDegree":0.4858,"level":"勉强协调","road_density":41.7022,"walk_accessibility":0.6247,"metro_line_density":2.8603,"station_count":3,"line_count":3,"population_density":25878.6488,"poi_density":1.2839,"poi_diversity":1.0397,"gdp_density":12995.7345,"P":25878.6488,"I":1.2839,"G":12995.7345},{"stationName":"深圳宝安中心(地铁站)","station_id":"深圳宝安中心(地铁站)_22.55762_113.88236","lineId":"深圳地铁1号线 / 深圳地铁5号线","lat":22.55761773,"lon":113.882356145,"area_km2":3.4136,"D":0.5466,"C":0.9114,"T":0.3278,"U1":0.4628,"U2":0.1929,"couplingDegree":0.5466,"level":"勉强协调","road_density":41.0074,"walk_accessibility":0.6844,"metro_line_density":3.6275,"station_count":7,"line_count":3,"population_density":11120.4229,"poi_density":1.4647,"poi_diversity":1.3322,"gdp_density":23601.4212,"P":11120.4229,"I":1.4647,"G":23601.4212},{"stationName":"深圳新安(地铁站)","station_id":"深圳新安(地铁站)_22.55052_113.88975","lineId":"深圳地铁1号线","lat":22.5505208,"lon":113.88975332,"area_km2":3.0257,"D":0.4164,"C":0.8245,"T":0.2103,"U1":0.3292,"U2":0.0913,"couplingDegree":0.4164,"level":"勉强协调","road_density":40.2879,"walk_accessibility":0.6066,"metro_line_density":3.9059,"station_count":5,"line_count":2,"population_density":3138.1582,"poi_density":0.661,"poi_diversity":0.6931,"gdp_density":0.0,"P":3138.1582,"I":0.661,"G":0.0},{"stationName":"深圳前海湾(地铁站)","station_id":"深圳前海湾(地铁站)_22.54039_113.89306","lineId":"深圳地铁1号线","lat":22.5403881,"lon":113.89306479999999,"area_km2":2.3465,"D":0.1295,"C":0.0951,"T":0.1763,"U1":0.3519,"U2":0.0008,"couplingDegree":0.1295,"level":"极度失调","road_density":43.4533,"walk_accessibility":0.4705,"metro_line_density":5.366,"station_count":5,"line_count":2,"population_density":459.4015,"poi_density":0.0,"poi_diversity":0.0,"gdp_density":0.0,"P":459.4015,"I":0.0,"G":0.0},{"stationName":"深圳鲤鱼门(地铁站)","station_id":"深圳鲤鱼门(地铁站)_22.53506_113.89822","lineId":"深圳地铁1号线","lat":22.53505852,"lon":113.89821563,"area_km2":2.5907,"D":0.2404,"C":0.3702,"T":0.1561,"U1":0.301,"U2":0.0111,"couplingDegree":0.2404,"level":"中度失调","road_density":40.3698,"walk_accessibility":0.5194,"metro_line_density":4.5708,"station_count":4,"line_count":2,"population_density":2494.323,"poi_density":0.386,"poi_diversity":0.0,"gdp_density":0.0,"P":2494.323,"I":0.386,"G":0.0},{"stationName":"深圳大新(地铁站)","station_id":"深圳大新(地铁站)_22.53528_113.91021","lineId":"深圳地铁1号线","lat":22.53528155,"lon":113.91021352,"area_km2":2.7798,"D":0.5255,"C":0.9897,"T":0.279,"U1":0.319,"U2":0.2391,"couplingDegree":0.5255,"level":"勉强协调","road_density":30.3518,"walk_accessibility":0.5574,"metro_line_density":2.7702,"station_count":4,"line_count":3,"population_density":51066.8874,"poi_density":1.7987,"poi_diversity":0.9503,"gdp_density":76040.3177,"P":51066.8874,"I":1.7987,"G":76040.3177},{"stationName":"深圳桃园(地铁站)","station_id":"深圳桃园(地铁站)_22.53497_113.91996","lineId":"深圳地铁12号线 / 深圳地铁1号线","lat":22.534973825,"lon":113.91995836000001,"area_km2":2.9509,"D":0.6303,"C":0.9816,"T":0.4047,"U1":0.3274,"U2":0.482,"couplingDegree":0.6303,"level":"良好协调","road_density":35.1938,"walk_accessibility":0.5916,"metro_line_density":4.6739,"station_count":3,"line_count":3,"population_density":44272.9811,"poi_density":7.7942,"poi_diversity":2.2204,"gdp_density":138768.4057,"P":44272.9811,"I":7.7942,"G":138768.4057},{"stationName":"深圳深大(地铁站)","station_id":"深圳深大(地铁站)_22.54225_113.93968","lineId":"深圳地铁1号线 / 深圳地铁20号线","lat":22.542249435000002,"lon":113.93968090499999,"area_km2":3.0953,"D":0.3776,"C":0.6657,"T":0.2142,"U1":0.374,"U2":0.0543,"couplingDegree":0.3776,"level":"中度失调","road_density":38.5053,"walk_accessibility":0.6206,"metro_line_density":4.9497,"station_count":4,"line_count":3,"population_density":14465.3028,"poi_density":0.0,"poi_diversity":0.0,"gdp_density":131354.4255,"P":14465.3028,"I":0.0,"G":131354.4255},{"stationName":"深圳高新园(地铁站)","station_id":"深圳高新园(地铁站)_22.54323_113.94895","lineId":"深圳地铁1号线","lat":22.54323071,"lon":113.94894998,"area_km2":3.0293,"D":0.3539,"C":0.6199,"T":0.2021,"U1":0.3607,"U2":0.0435,"couplingDegree":0.3539,"level":"中度失调","road_density":40.1298,"walk_accessibility":0.6074,"metro_line_density":4.1185,"station_count":4,"line_count":3,"population_density":7641.1603,"poi_density":0.0,"poi_diversity":0.0,"gdp_density":136045.2184,"P":7641.1603,"I":0.0,"G":136045.2184},{"stationName":"深圳白石洲(地铁站)","station_id":"深圳白石洲(地铁站)_22.54236_113.96268","lineId":"深圳地铁1号线 / 深圳地铁29号线","lat":22.54235794,"lon":113.9626828,"area_km2":2.3067,"D":0.3771,"C":0.889,"T":0.16,"U1":0.2332,"U2":0.0867,"couplingDegree":0.3771,"level":"中度失调","road_density":30.435,"walk_accessibility":0.4625,"metro_line_density":5.6996,"station_count":2,"line_count":2,"population_density":19273.8494,"poi_density":0.867,"poi_diversity":0.0,"gdp_density":171158.9705,"P":19273.8494,"I":0.867,"G":171158.9705},{"stationName":"深圳世界之窗(地铁站)","station_id":"深圳世界之窗(地铁站)_22.53984_113.96928","lineId":"深圳地铁1号线","lat":22.539844119999998,"lon":113.96928457,"area_km2":2.2183,"D":0.4314,"C":0.9418,"T":0.1976,"U1":0.2641,"U2":0.1312,"couplingDegree":0.4314,"level":"勉强协调","road_density":27.1948,"walk_accessibility":0.4448,"metro_line_density":5.7958,"station_count":3,"line_count":2,"population_density":11704.4709,"poi_density":1.3524,"poi_diversity":0.6365,"gdp_density":85520.084,"P":11704.4709,"I":1.3524,"G":85520.084},{"stationName":"深圳华侨城(地铁站)","station_id":"深圳华侨城(地铁站)_22.53640_113.98041","lineId":"深圳地铁1号线","lat":22.53640038,"lon":113.98041078,"area_km2":1.9388,"D":0.4589,"C":0.99,"T":0.2127,"U1":0.2427,"U2":0.1828,"couplingDegree":0.4589,"level":"勉强协调","road_density":27.7476,"walk_accessibility":0.3887,"metro_line_density":2.8013,"station_count":4,"line_count":2,"population_density":7733.5,"poi_density":2.0631,"poi_diversity":1.0397,"gdp_density":98377.6353,"P":7733.5,"I":2.0631,"G":98377.6353},{"stationName":"深圳侨城东(地铁站)","station_id":"深圳侨城东(地铁站)_22.53528_113.99167","lineId":"深圳地铁1号线","lat":22.53528443,"lon":113.991665165,"area_km2":2.6443,"D":0.4098,"C":0.9311,"T":0.1803,"U1":0.2461,"U2":0.1146,"couplingDegree":0.4098,"level":"勉强协调","road_density":32.6023,"walk_accessibility":0.5302,"metro_line_density":4.0618,"station_count":3,"line_count":2,"population_density":6359.4157,"poi_density":0.7564,"poi_diversity":0.6931,"gdp_density":72132.7201,"P":6359.4157,"I":0.7564,"G":72132.7201},{"stationName":"深圳竹子林(地铁站)","station_id":"深圳竹子林(地铁站)_22.53618_114.00889","lineId":"深圳地铁1号线","lat":22.53618372,"lon":114.00888869,"area_km2":2.636,"D":0.3408,"C":0.6061,"T":0.1916,"U1":0.344,"U2":0.0392,"couplingDegree":0.3408,"level":"中度失调","road_density":36.8073,"walk_accessibility":0.5285,"metro_line_density":5.6801,"station_count":3,"line_count":3,"population_density":22512.0903,"poi_density":0.0,"poi_diversity":0.0,"gdp_density":0.0,"P":22512.0903,"I":0.0,"G":0.0},{"stationName":"深圳车公庙(地铁站)","station_id":"深圳车公庙(地铁站)_22.53872_114.02221","lineId":"深圳地铁1号线 / 深圳地铁7号线","lat":22.53871917,"lon":114.02220625,"area_km2":2.4824,"D":0.4495,"C":0.7597,"T":0.266,"U1":0.4389,"U2":0.093,"couplingDegree":0.4495,"level":"勉强协调","road_density":40.5783,"walk_accessibility":0.4977,"metro_line_density":8.8111,"station_count":4,"line_count":3,"population_density":23094.171,"poi_density":0.0,"poi_diversity":0.0,"gdp_density":237801.9837,"P":23094.171,"I":0.0,"G":237801.9837},{"stationName":"深圳香蜜湖(地铁站)","station_id":"深圳香蜜湖(地铁站)_22.54164_114.03355","lineId":"深圳地铁1号线","lat":22.54164462,"lon":114.03355214,"area_km2":1.6897,"D":0.5525,"C":0.9781,"T":0.3121,"U1":0.3771,"U2":0.2471,"couplingDegree":0.5525,"level":"勉强协调","road_density":32.3984,"walk_accessibility":0.3388,"metro_line_density":8.5232,"station_count":3,"line_count":3,"population_density":17713.5437,"poi_density":2.9591,"poi_diversity":1.0549,"gdp_density":231899.2627,"P":17713.5437,"I":2.9591,"G":231899.2627},{"stationName":"深圳购物公园(地铁站)","station_id":"深圳购物公园(地铁站)_22.53683_114.04872","lineId":"深圳地铁1号线 / 深圳地铁3号线","lat":22.536828185,"lon":114.04872448500001,"area_km2":2.9494,"D":0.7156,"C":0.9866,"T":0.5191,"U1":0.6039,"U2":0.4343,"couplingDegree":0.7156,"level":"良好协调","road_density":39.2579,"walk_accessibility":0.5913,"metro_line_density":5.3532,"station_count":5,"line_count":6,"population_density":24582.5288,"poi_density":4.0686,"poi_diversity":1.589,"gdp_density":676122.4442,"P":24582.5288,"I":4.0686,"G":676122.4442},{"stationName":"深圳会展中心(地铁站)","station_id":"深圳会展中心(地铁站)_22.53748_114.05598","lineId":"深圳地铁1号线","lat":22.537482,"lon":114.05598438,"area_km2":2.8183,"D":0.7585,"C":0.9914,"T":0.5804,"U1":0.6563,"U2":0.5044,"couplingDegree":0.7585,"level":"良好协调","road_density":39.9326,"walk_accessibility":0.5651,"metro_line_density":6.3594,"station_count":6,"line_count":6,"population_density":27128.4717,"poi_density":6.7416,"poi_diversity":1.7398,"gdp_density":689009.054,"P":27128.4717,"I":6.7416,"G":689009.054},{"stationName":"深圳岗厦(地铁站)","station_id":"深圳岗厦(地铁站)_22.53720_114.06300","lineId":"深圳地铁10号线 / 深圳地铁1号线","lat":22.53719936,"lon":114.06300142,"area_km2":3.0179,"D":0.7179,"C":0.9803,"T":0.5257,"U1":0.6294,"U2":0.422,"couplingDegree":0.7179,"level":"良好协调","road_density":39.3513,"walk_accessibility":0.6051,"metro_line_density":6.7213,"station_count":5,"line_count":6,"population_density":39347.1857,"poi_density":3.9763,"poi_diversity":1.4735,"gdp_density":568031.3784,"P":39347.1857,"I":3.9763,"G":568031.3784},{"stationName":"深圳华强路(地铁站)","station_id":"深圳华强路(地铁站)_22.54314_114.08000","lineId":"深圳地铁1号线","lat":22.54314425,"lon":114.08000402,"area_km2":3.0295,"D":0.7708,"C":0.9755,"T":0.6091,"U1":0.743,"U2":0.4751,"couplingDegree":0.7708,"level":"良好协调","road_density":29.8098,"walk_accessibility":0.6074,"metro_line_density":7.9828,"station_count":8,"line_count":6,"population_density":61356.5983,"poi_density":5.9417,"poi_diversity":2.1682,"gdp_density":144678.1274,"P":61356.5983,"I":5.9417,"G":144678.1274},{"stationName":"深圳科学馆(地铁站)","station_id":"深圳科学馆(地铁站)_22.54281_114.09065","lineId":"深圳地铁1号线 / 深圳地铁6号线","lat":22.542808015,"lon":114.09064715,"area_km2":2.5726,"D":0.7818,"C":0.9753,"T":0.6267,"U1":0.7653,"U2":0.4882,"couplingDegree":0.7818,"level":"良好协调","road_density":32.2578,"walk_accessibility":0.5158,"metro_line_density":7.7812,"station_count":7,"line_count":7,"population_density":73270.7329,"poi_density":5.8306,"poi_diversity":2.0611,"gdp_density":170572.8691,"P":73270.7329,"I":5.8306,"G":170572.8691},{"stationName":"深圳大剧院(地铁站)","station_id":"深圳大剧院(地铁站)_22.54405_114.10295","lineId":"深圳地铁1号线 / 深圳地铁2号线 / 深圳地铁5号线","lat":22.54404932,"lon":114.1029459975,"area_km2":2.8679,"D":0.8149,"C":0.9723,"T":0.6831,"U1":0.8428,"U2":0.5233,"couplingDegree":0.8149,"level":"优质协调","road_density":37.1631,"walk_accessibility":0.575,"metro_line_density":9.55,"station_count":8,"line_count":7,"population_density":54447.205,"poi_density":5.579,"poi_diversity":2.3394,"gdp_density":361739.1383,"P":54447.205,"I":5.579,"G":361739.1383},{"stationName":"深圳老街(地铁站)","station_id":"深圳老街(地铁站)_22.54744_114.11095","lineId":"深圳地铁17号线 / 深圳地铁1号线 / 深圳地铁3号线","lat":22.547437164999998,"lon":114.1109457625,"area_km2":3.0672,"D":0.8516,"C":0.986,"T":0.7356,"U1":0.8583,"U2":0.6129,"couplingDegree":0.8516,"level":"优质协调","road_density":34.5057,"walk_accessibility":0.615,"metro_line_density":8.5457,"station_count":9,"line_count":7,"population_density":69905.2467,"poi_density":6.5206,"poi_diversity":2.3161,"gdp_density":581243.1437,"P":69905.2467,"I":6.5206,"G":581243.1437},{"stationName":"深圳国贸(地铁站)","station_id":"深圳国贸(地铁站)_22.54236_114.11373","lineId":"深圳地铁1号线","lat":22.54236105,"lon":114.11372756,"area_km2":2.898,"D":0.8046,"C":0.9684,"T":0.6685,"U1":0.8353,"U2":0.5017,"couplingDegree":0.8046,"level":"优质协调","road_density":34.7328,"walk_accessibility":0.581,"metro_line_density":8.9086,"station_count":10,"line_count":6,"population_density":45640.0753,"poi_density":4.8309,"poi_diversity":2.1066,"gdp_density":504976.1912,"P":45640.0753,"I":4.8309,"G":504976.1912},{"stationName":"深圳罗湖(地铁站)","station_id":"深圳罗湖(地铁站)_22.53455_114.11352","lineId":"深圳地铁1号线","lat":22.53455081,"lon":114.11352383,"area_km2":1.9686,"D":0.6599,"C":1.0,"T":0.4354,"U1":0.4338,"U2":0.4371,"couplingDegree":0.6599,"level":"良好协调","road_density":36.1087,"walk_accessibility":0.3947,"metro_line_density":5.3452,"station_count":6,"line_count":3,"population_density":27053.0878,"poi_density":8.1277,"poi_diversity":1.6348,"gdp_density":327773.334,"P":27053.0878,"I":8.1277,"G":327773.334},{"stationName":"深圳湾厦(地铁站)","station_id":"深圳湾厦(地铁站)_22.49638_113.93374","lineId":"深圳地铁2号线","lat":22.496378425,"lon":113.93373575,"area_km2":2.5806,"D":0.2281,"C":0.4603,"T":0.113,"U1":0.2133,"U2":0.0127,"couplingDegree":0.2281,"level":"中度失调","road_density":37.4045,"walk_accessibility":0.5174,"metro_line_density":1.8848,"station_count":3,"line_count":2,"population_density":3393.803,"poi_density":0.3875,"poi_diversity":0.0,"gdp_density":0.0,"P":3393.803,"I":0.3875,"G":0.0},{"stationName":"深圳后海(地铁站)","station_id":"深圳后海(地铁站)_22.52078_113.93700","lineId":"深圳地铁11号线 / 深圳地铁2号线","lat":22.52077919,"lon":113.93700366,"area_km2":3.2515,"D":0.5925,"C":0.9845,"T":0.3566,"U1":0.4192,"U2":0.294,"couplingDegree":0.5925,"level":"勉强协调","road_density":43.4973,"walk_accessibility":0.6519,"metro_line_density":3.4545,"station_count":4,"line_count":4,"population_density":2863.616,"poi_density":3.3831,"poi_diversity":2.1458,"gdp_density":0.0,"P":2863.616,"I":3.3831,"G":0.0},{"stationName":"深圳景田(地铁站)","station_id":"深圳景田(地铁站)_22.55616_114.03825","lineId":"深圳地铁2号线","lat":22.55616499,"lon":114.038249175,"area_km2":2.589,"D":0.6289,"C":0.9733,"T":0.4064,"U1":0.313,"U2":0.4998,"couplingDegree":0.6289,"level":"良好协调","road_density":25.6758,"walk_accessibility":0.5191,"metro_line_density":4.5008,"station_count":5,"line_count":2,"population_density":10358.3851,"poi_density":12.3599,"poi_diversity":2.1751,"gdp_density":146924.7785,"P":10358.3851,"I":12.3599,"G":146924.7785},{"stationName":"深圳福田(地铁站)","station_id":"深圳福田(地铁站)_22.54272_114.04896","lineId":"深圳地铁11号线 / 深圳地铁2号线 / 深圳地铁3号线","lat":22.542715333333334,"lon":114.04896284666667,"area_km2":3.1711,"D":0.7003,"C":0.9786,"T":0.5011,"U1":0.6041,"U2":0.3981,"couplingDegree":0.7003,"level":"良好协调","road_density":38.949,"walk_accessibility":0.6358,"metro_line_density":6.7918,"station_count":6,"line_count":5,"population_density":15164.7519,"poi_density":4.4149,"poi_diversity":1.8712,"gdp_density":423545.9958,"P":15164.7519,"I":4.4149,"G":423545.9958},{"stationName":"深圳岗厦北(地铁站)","station_id":"深圳岗厦北(地铁站)_22.54251_114.06310","lineId":"深圳地铁10号线 / 深圳地铁11号线 / 深圳地铁2号线","lat":22.54250847333333,"lon":114.06310459666668,"area_km2":3.0388,"D":0.7206,"C":0.9625,"T":0.5395,"U1":0.6858,"U2":0.3932,"couplingDegree":0.7206,"level":"良好协调","road_density":36.2552,"walk_accessibility":0.6093,"metro_line_density":8.1579,"station_count":6,"line_count":6,"population_density":22428.4767,"poi_density":4.278,"poi_diversity":1.738,"gdp_density":419843.8558,"P":22428.4767,"I":4.278,"G":419843.8558},{"stationName":"深圳黄贝岭(地铁站)","station_id":"深圳黄贝岭(地铁站)_22.54881_114.13127","lineId":"深圳地铁2号线","lat":22.54880508,"lon":114.13126658499999,"area_km2":2.2937,"D":0.619,"C":0.9825,"T":0.39,"U1":0.3173,"U2":0.4627,"couplingDegree":0.619,"level":"良好协调","road_density":30.6119,"walk_accessibility":0.4599,"metro_line_density":4.9341,"station_count":3,"line_count":3,"population_density":46373.2414,"poi_density":6.1037,"poi_diversity":1.9085,"gdp_density":318638.2647,"P":46373.2414,"I":6.1037,"G":318638.2647},{"stationName":"深圳莲塘(地铁站)","station_id":"深圳莲塘(地铁站)_22.56689_114.16932","lineId":"深圳地铁2号线","lat":22.56689319,"lon":114.16932174,"area_km2":1.6003,"D":0.2123,"C":0.6253,"T":0.0721,"U1":0.1284,"U2":0.0158,"couplingDegree":0.2123,"level":"中度失调","road_density":25.0486,"walk_accessibility":0.3208,"metro_line_density":2.3281,"station_count":3,"line_count":1,"population_density":2024.669,"poi_density":0.0,"poi_diversity":0.0,"gdp_density":55440.1541,"P":2024.669,"I":0.0,"G":55440.1541},{"stationName":"深圳海山(地铁站)","station_id":"深圳海山(地铁站)_22.55840_114.23288","lineId":"深圳地铁2号线","lat":22.55839839,"lon":114.23287589,"area_km2":2.4557,"D":0.3569,"C":0.9688,"T":0.1315,"U1":0.0989,"U2":0.1641,"couplingDegree":0.3569,"level":"中度失调","road_density":24.8881,"walk_accessibility":0.4924,"metro_line_density":2.0681,"station_count":2,"line_count":1,"population_density":14380.5879,"poi_density":1.2216,"poi_diversity":1.0986,"gdp_density":0.0,"P":14380.5879,"I":1.2216,"G":0.0},{"stationName":"深圳大梅沙(地铁站)","station_id":"深圳大梅沙(地铁站)_22.59690_114.30297","lineId":"深圳地铁2号线","lat":22.59689826,"lon":114.30297058,"area_km2":1.0853,"D":0.3679,"C":0.9667,"T":0.14,"U1":0.1042,"U2":0.1758,"couplingDegree":0.3679,"level":"中度失调","road_density":30.5991,"walk_accessibility":0.2176,"metro_line_density":4.7695,"station_count":1,"line_count":1,"population_density":0.0,"poi_density":3.6855,"poi_diversity":1.0397,"gdp_density":0.0,"P":0.0,"I":3.6855,"G":0.0},{"stationName":"深圳赤湾(地铁站)","station_id":"深圳赤湾(地铁站)_22.48228_113.89266","lineId":"深圳地铁2号线","lat":22.48228075,"lon":113.8926602,"area_km2":1.6622,"D":0.1484,"C":0.897,"T":0.0246,"U1":0.0354,"U2":0.0137,"couplingDegree":0.1484,"level":"极度失调","road_density":24.4097,"walk_accessibility":0.3333,"metro_line_density":1.0588,"station_count":1,"line_count":1,"population_density":1833.142,"poi_density":0.6016,"poi_diversity":0.0,"gdp_density":0.0,"P":1833.142,"I":0.6016,"G":0.0},{"stationName":"深圳蛇口港(地铁站)","station_id":"深圳蛇口港(地铁站)_22.47968_113.90747","lineId":"深圳地铁2号线","lat":22.47967754,"lon":113.90747461,"area_km2":2.1905,"D":0.4153,"C":0.9983,"T":0.1728,"U1":0.1828,"U2":0.1627,"couplingDegree":0.4153,"level":"勉强协调","road_density":27.7748,"walk_accessibility":0.4392,"metro_line_density":3.1902,"station_count":2,"line_count":2,"population_density":11149.8249,"poi_density":1.826,"poi_diversity":1.0397,"gdp_density":0.0,"P":11149.8249,"I":1.826,"G":0.0},{"stationName":"深圳海上世界(地铁站)","station_id":"深圳海上世界(地铁站)_22.48836_113.90973","lineId":"深圳地铁12号线 / 深圳地铁2号线","lat":22.488362535,"lon":113.90973415,"area_km2":2.6632,"D":0.4734,"C":0.9988,"T":0.2244,"U1":0.2132,"U2":0.2356,"couplingDegree":0.4734,"level":"勉强协调","road_density":25.9258,"walk_accessibility":0.534,"metro_line_density":2.7669,"station_count":3,"line_count":2,"population_density":25243.5405,"poi_density":1.8775,"poi_diversity":1.3322,"gdp_density":72444.6019,"P":25243.5405,"I":1.8775,"G":72444.6019},{"stationName":"深圳水湾(地铁站)","station_id":"深圳水湾(地铁站)_22.49144_113.91483","lineId":"深圳地铁2号线","lat":22.49143653,"lon":113.91482918,"area_km2":2.9719,"D":0.5359,"C":0.9984,"T":0.2877,"U1":0.2716,"U2":0.3037,"couplingDegree":0.5359,"level":"勉强协调","road_density":26.5,"walk_accessibility":0.5959,"metro_line_density":2.2666,"station_count":3,"line_count":3,"population_density":49855.759,"poi_density":2.0189,"poi_diversity":1.5607,"gdp_density":64919.1359,"P":49855.759,"I":2.0189,"G":64919.1359},{"stationName":"深圳东角头(地铁站)","station_id":"深圳东角头(地铁站)_22.48908_113.92671","lineId":"深圳地铁13号线 / 深圳地铁2号线","lat":22.489081140000003,"lon":113.92670812,"area_km2":2.7311,"D":0.4146,"C":0.9845,"T":0.1746,"U1":0.2053,"U2":0.144,"couplingDegree":0.4146,"level":"勉强协调","road_density":30.3926,"walk_accessibility":0.5476,"metro_line_density":1.9106,"station_count":3,"line_count":2,"population_density":32669.2691,"poi_density":0.7323,"poi_diversity":0.6931,"gdp_density":0.0,"P":32669.2691,"I":0.7323,"G":0.0},{"stationName":"深圳海月(地铁站)","station_id":"深圳海月(地铁站)_22.50343_113.93285","lineId":"深圳地铁2号线","lat":22.50343499,"lon":113.9328472,"area_km2":3.0329,"D":0.2686,"C":0.7209,"T":0.1001,"U1":0.1694,"U2":0.0307,"couplingDegree":0.2686,"level":"中度失调","road_density":39.746,"walk_accessibility":0.6081,"metro_line_density":2.4359,"station_count":3,"line_count":1,"population_density":3292.5554,"poi_density":0.6594,"poi_diversity":0.0,"gdp_density":60602.6703,"P":3292.5554,"I":0.6594,"G":60602.6703},{"stationName":"深圳登良(地铁站)","station_id":"深圳登良(地铁站)_22.51217_113.93273","lineId":"深圳地铁2号线","lat":22.51217143,"lon":113.93273309,"area_km2":3.0466,"D":0.5435,"C":0.9892,"T":0.2986,"U1":0.3424,"U2":0.2549,"couplingDegree":0.5435,"level":"勉强协调","road_density":39.3234,"walk_accessibility":0.6108,"metro_line_density":3.1542,"station_count":4,"line_count":3,"population_density":2750.568,"poi_density":2.6258,"poi_diversity":1.9062,"gdp_density":0.0,"P":2750.568,"I":2.6258,"G":0.0},{"stationName":"深圳科苑(地铁站)","station_id":"深圳科苑(地铁站)_22.53003_113.94132","lineId":"深圳地铁2号线","lat":22.53002996,"lon":113.94131533,"area_km2":3.1318,"D":0.3687,"C":0.5607,"T":0.2424,"U1":0.4431,"U2":0.0417,"couplingDegree":0.3687,"level":"中度失调","road_density":38.2572,"walk_accessibility":0.6279,"metro_line_density":3.3521,"station_count":5,"line_count":4,"population_density":2922.6367,"poi_density":0.3193,"poi_diversity":0.0,"gdp_density":139706.9368,"P":2922.6367,"I":0.3193,"G":139706.9368},{"stationName":"深圳红树湾(地铁站)","station_id":"深圳红树湾(地铁站)_22.52810_113.96351","lineId":"深圳地铁2号线","lat":22.52810144,"lon":113.96351323,"area_km2":1.7324,"D":0.3145,"C":0.5237,"T":0.1888,"U1":0.3497,"U2":0.028,"couplingDegree":0.3145,"level":"中度失调","road_density":30.1136,"walk_accessibility":0.3473,"metro_line_density":7.1564,"station_count":3,"line_count":3,"population_density":16057.9099,"poi_density":0.0,"poi_diversity":0.0,"gdp_density":0.0,"P":16057.9099,"I":0.0,"G":0.0},{"stationName":"深圳侨城北(地铁站)","station_id":"深圳侨城北(地铁站)_22.54689_113.98418","lineId":"深圳地铁2号线","lat":22.54689151,"lon":113.98418133,"area_km2":1.5372,"D":0.2886,"C":0.7963,"T":0.1046,"U1":0.1679,"U2":0.0413,"couplingDegree":0.2886,"level":"中度失调","road_density":25.163,"walk_accessibility":0.3082,"metro_line_density":1.0672,"station_count":3,"line_count":2,"population_density":1452.6067,"poi_density":0.6505,"poi_diversity":0.0,"gdp_density":123538.5746,"P":1452.6067,"I":0.6505,"G":123538.5746},{"stationName":"深圳深康(地铁站)","station_id":"深圳深康(地铁站)_22.54933_113.99385","lineId":"深圳地铁2号线","lat":22.54932677,"lon":113.99385475,"area_km2":1.2395,"D":0.3061,"C":0.6562,"T":0.1428,"U1":0.2505,"U2":0.035,"couplingDegree":0.3061,"level":"中度失调","road_density":25.2256,"walk_accessibility":0.2485,"metro_line_density":3.9161,"station_count":4,"line_count":2,"population_density":1177.8781,"poi_density":0.0,"poi_diversity":0.0,"gdp_density":148596.183,"P":1177.8781,"I":0.0,"G":148596.183},{"stationName":"深圳安托山(地铁站)","station_id":"深圳安托山(地铁站)_22.55163_114.00123","lineId":"深圳地铁2号线 / 深圳地铁7号线","lat":22.55163211,"lon":114.00122526999999,"area_km2":1.5554,"D":0.2695,"C":0.6,"T":0.1211,"U1":0.2179,"U2":0.0242,"couplingDegree":0.2695,"level":"中度失调","road_density":23.9415,"walk_accessibility":0.3119,"metro_line_density":3.9431,"station_count":3,"line_count":2,"population_density":6973.7395,"poi_density":0.0,"poi_diversity":0.0,"gdp_density":54381.6023,"P":6973.7395,"I":0.0,"G":54381.6023},{"stationName":"深圳侨香(地铁站)","station_id":"深圳侨香(地铁站)_22.55261_114.00935","lineId":"深圳地铁2号线","lat":22.55260751,"lon":114.00934651,"area_km2":2.5758,"D":0.3697,"C":0.8389,"T":0.1629,"U1":0.2515,"U2":0.0742,"couplingDegree":0.3697,"level":"中度失调","road_density":28.2515,"walk_accessibility":0.5164,"metro_line_density":2.8202,"station_count":4,"line_count":2,"population_density":11408.7933,"poi_density":0.3882,"poi_diversity":0.0,"gdp_density":214325.4232,"P":11408.7933,"I":0.3882,"G":214325.4232},{"stationName":"深圳香蜜(地铁站)","station_id":"深圳香蜜(地铁站)_22.55557_114.01880","lineId":"深圳地铁2号线","lat":22.55556774,"lon":114.01879815,"area_km2":2.0413,"D":0.2418,"C":0.6681,"T":0.0875,"U1":0.1527,"U2":0.0224,"couplingDegree":0.2418,"level":"中度失调","road_density":31.6247,"walk_accessibility":0.4093,"metro_line_density":2.8435,"station_count":3,"line_count":1,"population_density":7711.7991,"poi_density":0.0,"poi_diversity":0.0,"gdp_density":40443.9578,"P":7711.7991,"I":0.0,"G":40443.9578},{"stationName":"深圳香梅北(地铁站)","station_id":"深圳香梅北(地铁站)_22.55663_114.02764","lineId":"深圳地铁2号线","lat":22.5566329,"lon":114.02764343,"area_km2":2.0293,"D":0.62,"C":0.9781,"T":0.393,"U1":0.3112,"U2":0.4747,"couplingDegree":0.62,"level":"良好协调","road_density":26.5372,"walk_accessibility":0.4069,"metro_line_density":4.7073,"station_count":5,"line_count":2,"population_density":12878.4114,"poi_density":13.7979,"poi_diversity":1.7761,"gdp_density":93819.5026,"P":12878.4114,"I":13.7979,"G":93819.5026},{"stationName":"深圳莲花西(地铁站)","station_id":"深圳莲花西(地铁站)_22.54940_114.04493","lineId":"深圳地铁2号线","lat":22.54939978,"lon":114.04492966,"area_km2":2.8644,"D":0.6362,"C":0.968,"T":0.4182,"U1":0.5232,"U2":0.3132,"couplingDegree":0.6362,"level":"良好协调","road_density":31.2196,"walk_accessibility":0.5743,"metro_line_density":5.0734,"station_count":5,"line_count":5,"population_density":13616.9399,"poi_density":3.142,"poi_diversity":1.8892,"gdp_density":144708.4399,"P":13616.9399,"I":3.142,"G":144708.4399},{"stationName":"深圳市民中心(地铁站)","station_id":"深圳市民中心(地铁站)_22.54396_114.05625","lineId":"深圳地铁2号线 / 深圳地铁4号线","lat":22.54396157,"lon":114.05624833499999,"area_km2":2.9712,"D":0.6882,"C":0.8985,"T":0.5271,"U1":0.7585,"U2":0.2957,"couplingDegree":0.6882,"level":"良好协调","road_density":39.3949,"walk_accessibility":0.5957,"metro_line_density":8.0965,"station_count":8,"line_count":6,"population_density":7529.0379,"poi_density":2.356,"poi_diversity":1.9459,"gdp_density":148154.8555,"P":7529.0379,"I":2.356,"G":148154.8555},{"stationName":"深圳华强北(地铁站)","station_id":"深圳华强北(地铁站)_22.54662_114.08091","lineId":"深圳地铁2号线 / 深圳地铁7号线","lat":22.54661839,"lon":114.080908915,"area_km2":3.0984,"D":0.7964,"C":0.9887,"T":0.6416,"U1":0.7379,"U2":0.5453,"couplingDegree":0.7964,"level":"良好协调","road_density":28.9543,"walk_accessibility":0.6212,"metro_line_density":7.7189,"station_count":8,"line_count":6,"population_density":63604.4199,"poi_density":7.7458,"poi_diversity":2.4991,"gdp_density":141456.5365,"P":63604.4199,"I":7.7458,"G":141456.5365},{"stationName":"深圳燕南(地铁站)","station_id":"深圳燕南(地铁站)_22.54722_114.08743","lineId":"深圳地铁2号线","lat":22.54722282,"lon":114.08743455,"area_km2":2.7574,"D":0.8219,"C":0.9999,"T":0.6756,"U1":0.6829,"U2":0.6683,"couplingDegree":0.8219,"level":"优质协调","road_density":27.3696,"walk_accessibility":0.5529,"metro_line_density":6.9653,"station_count":7,"line_count":6,"population_density":96573.5817,"poi_density":10.8797,"poi_diversity":2.5633,"gdp_density":159140.7836,"P":96573.5817,"I":10.8797,"G":159140.7836},{"stationName":"深圳湖贝(地铁站)","station_id":"深圳湖贝(地铁站)_22.54674_114.11873","lineId":"深圳地铁2号线 / 深圳地铁5号线","lat":22.546738225,"lon":114.11872700500001,"area_km2":2.9587,"D":0.8177,"C":0.9934,"T":0.6732,"U1":0.7505,"U2":0.5958,"couplingDegree":0.8177,"level":"优质协调","road_density":30.0435,"walk_accessibility":0.5932,"metro_line_density":8.4269,"station_count":8,"line_count":6,"population_density":58568.3531,"poi_density":6.7598,"poi_diversity":2.3161,"gdp_density":574570.5705,"P":58568.3531,"I":6.7598,"G":574570.5705},{"stationName":"深圳新秀(地铁站)","station_id":"深圳新秀(地铁站)_22.55046_114.14411","lineId":"深圳地铁2号线","lat":22.55045888,"lon":114.14411389,"area_km2":1.9422,"D":0.477,"C":0.8278,"T":0.2749,"U1":0.1206,"U2":0.4291,"couplingDegree":0.477,"level":"勉强协调","road_density":30.7061,"walk_accessibility":0.3894,"metro_line_density":3.1497,"station_count":2,"line_count":1,"population_density":17018.1436,"poi_density":8.7529,"poi_diversity":1.67,"gdp_density":304128.4579,"P":17018.1436,"I":8.7529,"G":304128.4579},{"stationName":"深圳莲塘口岸(地铁站)","station_id":"深圳莲塘口岸(地铁站)_22.55609_114.15032","lineId":"深圳地铁2号线","lat":22.55608627,"lon":114.15032224,"area_km2":2.0784,"D":0.4603,"C":0.7945,"T":0.2666,"U1":0.1047,"U2":0.4285,"couplingDegree":0.4603,"level":"勉强协调","road_density":33.0081,"walk_accessibility":0.4167,"metro_line_density":1.9813,"station_count":2,"line_count":1,"population_density":3322.7563,"poi_density":7.6982,"poi_diversity":2.1007,"gdp_density":284202.3603,"P":3322.7563,"I":7.6982,"G":284202.3603},{"stationName":"深圳仙湖路(地铁站)","station_id":"深圳仙湖路(地铁站)_22.56667_114.16124","lineId":"深圳地铁2号线","lat":22.56666831,"lon":114.16123801,"area_km2":1.9267,"D":0.2063,"C":0.7499,"T":0.0567,"U1":0.0943,"U2":0.0192,"couplingDegree":0.2063,"level":"中度失调","road_density":27.1013,"walk_accessibility":0.3863,"metro_line_density":1.9887,"station_count":2,"line_count":1,"population_density":2156.5066,"poi_density":0.0,"poi_diversity":0.0,"gdp_density":69585.0976,"P":2156.5066,"I":0.0,"G":69585.0976},{"stationName":"深圳梧桐山南(地铁站)","station_id":"深圳梧桐山南(地铁站)_22.56064_114.17826","lineId":"深圳地铁2号线","lat":22.56064201,"lon":114.17826102,"area_km2":1.3061,"D":0.1672,"C":0.5984,"T":0.0467,"U1":0.0841,"U2":0.0093,"couplingDegree":0.1672,"level":"极度失调","road_density":23.2101,"walk_accessibility":0.2619,"metro_line_density":2.1647,"station_count":2,"line_count":1,"population_density":5332.6828,"poi_density":0.0,"poi_diversity":0.0,"gdp_density":0.0,"P":5332.6828,"I":0.0,"G":0.0},{"stationName":"深圳沙头角(地铁站)","station_id":"深圳沙头角(地铁站)_22.55720_114.21831","lineId":"深圳地铁2号线","lat":22.55719981,"lon":114.21830687,"area_km2":1.5197,"D":0.3132,"C":0.9493,"T":0.1033,"U1":0.0708,"U2":0.1358,"couplingDegree":0.3132,"level":"中度失调","road_density":24.8487,"walk_accessibility":0.3047,"metro_line_density":3.0911,"station_count":1,"line_count":1,"population_density":0.0,"poi_density":1.9741,"poi_diversity":0.6365,"gdp_density":149070.9739,"P":0.0,"I":1.9741,"G":149070.9739},{"stationName":"深圳盐田港西(地铁站)","station_id":"深圳盐田港西(地铁站)_22.56540_114.24207","lineId":"深圳地铁2号线","lat":22.56539901,"lon":114.24207222,"area_km2":1.4895,"D":0.2274,"C":0.8612,"T":0.0601,"U1":0.0906,"U2":0.0295,"couplingDegree":0.2274,"level":"中度失调","road_density":22.3874,"walk_accessibility":0.2986,"metro_line_density":2.4665,"station_count":2,"line_count":1,"population_density":16959.8539,"poi_density":0.0,"poi_diversity":0.0,"gdp_density":0.0,"P":16959.8539,"I":0.0,"G":0.0},{"stationName":"深圳深外高中(地铁站)","station_id":"深圳深外高中(地铁站)_22.58664_114.23968","lineId":"深圳地铁2号线","lat":22.58664442,"lon":114.23968018,"area_km2":1.6115,"D":0.173,"C":0.9014,"T":0.0332,"U1":0.0476,"U2":0.0188,"couplingDegree":0.173,"level":"极度失调","road_density":23.7764,"walk_accessibility":0.3231,"metro_line_density":1.8225,"station_count":1,"line_count":1,"population_density":824.0791,"poi_density":0.0,"poi_diversity":0.0,"gdp_density":78333.8988,"P":824.0791,"I":0.0,"G":78333.8988},{"stationName":"深圳盐田路(地铁站)","station_id":"深圳盐田路(地铁站)_22.59182_114.25083","lineId":"深圳地铁2号线","lat":22.59181889,"lon":114.25082746,"area_km2":1.7512,"D":0.2945,"C":0.9131,"T":0.095,"U1":0.1337,"U2":0.0563,"couplingDegree":0.2945,"level":"中度失调","road_density":30.7785,"walk_accessibility":0.3511,"metro_line_density":3.9998,"station_count":2,"line_count":1,"population_density":21360.079,"poi_density":0.0,"poi_diversity":0.0,"gdp_density":85855.6,"P":21360.079,"I":0.0,"G":85855.6},{"stationName":"深圳鸿安围(地铁站)","station_id":"深圳鸿安围(地铁站)_22.59340_114.25940","lineId":"深圳地铁2号线","lat":22.59340146,"lon":114.25940312,"area_km2":1.7925,"D":0.3307,"C":0.7112,"T":0.1537,"U1":0.2618,"U2":0.0457,"couplingDegree":0.3307,"level":"中度失调","road_density":30.6346,"walk_accessibility":0.3594,"metro_line_density":5.6757,"station_count":3,"line_count":2,"population_density":22886.3226,"poi_density":0.0,"poi_diversity":0.0,"gdp_density":26190.3457,"P":22886.3226,"I":0.0,"G":26190.3457},{"stationName":"深圳盐田墟(地铁站)","station_id":"深圳盐田墟(地铁站)_22.59019_114.27115","lineId":"深圳地铁2号线 / 深圳地铁8号线","lat":22.590188695000002,"lon":114.271147555,"area_km2":1.5697,"D":0.196,"C":0.3494,"T":0.1099,"U1":0.2129,"U2":0.0069,"couplingDegree":0.196,"level":"极度失调","road_density":33.1172,"walk_accessibility":0.3147,"metro_line_density":4.8488,"station_count":2,"line_count":2,"population_density":3979.823,"poi_density":0.0,"poi_diversity":0.0,"gdp_density":0.0,"P":3979.823,"I":0.0,"G":0.0},{"stationName":"深圳小梅沙(地铁站)","station_id":"深圳小梅沙(地铁站)_22.60485_114.32147","lineId":"深圳地铁2号线 / 深圳地铁8号线","lat":22.60484711,"lon":114.321470845,"area_km2":0.7163,"D":0.0,"C":0.0,"T":0.0615,"U1":0.123,"U2":0.0,"couplingDegree":0.0,"level":"极度失调","road_density":24.9031,"walk_accessibility":0.1436,"metro_line_density":3.0414,"station_count":1,"line_count":2,"population_density":0.0,"poi_density":0.0,"poi_diversity":0.0,"gdp_density":0.0,"P":0.0,"I":0.0,"G":0.0},{"stationName":"深圳坪地六联(地铁站)","station_id":"深圳坪地六联(地铁站)_22.79039_114.31806","lineId":"深圳地铁3号线","lat":22.79038748,"lon":114.31806171,"area_km2":0.734,"D":0.1635,"C":0.9479,"T":0.0282,"U1":0.0372,"U2":0.0192,"couplingDegree":0.1635,"level":"极度失调","road_density":19.3747,"walk_accessibility":0.1472,"metro_line_density":2.2012,"station_count":1,"line_count":1,"population_density":7319.1919,"poi_density":0.0,"poi_diversity":0.0,"gdp_density":29212.3908,"P":7319.1919,"I":0.0,"G":29212.3908},{"stationName":"深圳富坪(地铁站)","station_id":"深圳富坪(地铁站)_22.78290_114.30596","lineId":"深圳地铁3号线","lat":22.782900105000003,"lon":114.30595590499999,"area_km2":1.4727,"D":0.2334,"C":0.6772,"T":0.0804,"U1":0.1396,"U2":0.0212,"couplingDegree":0.2334,"level":"中度失调","road_density":23.9181,"walk_accessibility":0.2953,"metro_line_density":5.083,"station_count":2,"line_count":1,"population_density":9848.7008,"poi_density":0.0,"poi_diversity":0.0,"gdp_density":18454.0914,"P":9848.7008,"I":0.0,"G":18454.0914},{"stationName":"深圳白石塘(地铁站)","station_id":"深圳白石塘(地铁站)_22.77785_114.29792","lineId":"深圳地铁3号线","lat":22.77784767,"lon":114.29792279333333,"area_km2":1.6992,"D":0.26,"C":0.7244,"T":0.0933,"U1":0.1576,"U2":0.029,"couplingDegree":0.26,"level":"中度失调","road_density":23.8375,"walk_accessibility":0.3407,"metro_line_density":5.9405,"station_count":2,"line_count":1,"population_density":13230.6733,"poi_density":0.0,"poi_diversity":0.0,"gdp_density":26785.9048,"P":13230.6733,"I":0.0,"G":26785.9048},{"stationName":"深圳低碳城(地铁站)","station_id":"深圳低碳城(地铁站)_22.77389_114.28468","lineId":"深圳地铁3号线","lat":22.77388873,"lon":114.2846803,"area_km2":1.7811,"D":0.1977,"C":0.5449,"T":0.0718,"U1":0.1319,"U2":0.0116,"couplingDegree":0.1977,"level":"极度失调","road_density":22.9181,"walk_accessibility":0.3571,"metro_line_density":4.528,"station_count":2,"line_count":1,"population_density":3622.0195,"poi_density":0.0,"poi_diversity":0.0,"gdp_density":23802.8047,"P":3622.0195,"I":0.0,"G":23802.8047},{"stationName":"深圳坪西(地铁站)","station_id":"深圳坪西(地铁站)_22.76626_114.27741","lineId":"深圳地铁3号线","lat":22.766256365,"lon":114.27741460499999,"area_km2":1.2226,"D":0.2116,"C":0.6482,"T":0.069,"U1":0.1216,"U2":0.0165,"couplingDegree":0.2116,"level":"中度失调","road_density":18.3338,"walk_accessibility":0.2451,"metro_line_density":4.709,"station_count":2,"line_count":1,"population_density":0.0,"poi_density":0.0,"poi_diversity":0.0,"gdp_density":74199.0983,"P":0.0,"I":0.0,"G":74199.0983},{"stationName":"深圳新生(地铁站)","station_id":"深圳新生(地铁站)_22.75071_114.27817","lineId":"深圳地铁3号线","lat":22.750714175,"lon":114.278172775,"area_km2":1.3959,"D":0.253,"C":0.8624,"T":0.0742,"U1":0.1118,"U2":0.0367,"couplingDegree":0.253,"level":"中度失调","road_density":23.8796,"walk_accessibility":0.2799,"metro_line_density":5.5367,"station_count":1,"line_count":1,"population_density":11515.9552,"poi_density":0.0,"poi_diversity":0.0,"gdp_density":74773.2942,"P":11515.9552,"I":0.0,"G":74773.2942},{"stationName":"深圳梨园(地铁站)","station_id":"深圳梨园(地铁站)_22.65492_114.19240","lineId":"深圳地铁17号线 / 深圳地铁3号线","lat":22.654922714999998,"lon":114.1924031,"area_km2":2.0538,"D":0.3761,"C":0.9872,"T":0.1433,"U1":0.1204,"U2":0.1661,"couplingDegree":0.3761,"level":"中度失调","road_density":21.1827,"walk_accessibility":0.4118,"metro_line_density":2.2973,"station_count":1,"line_count":2,"population_density":7652.9655,"poi_density":1.4607,"poi_diversity":1.0986,"gdp_density":43036.1239,"P":7652.9655,"I":1.4607,"G":43036.1239},{"stationName":"深圳双龙(地铁站)","station_id":"深圳双龙(地铁站)_22.73192_114.27249","lineId":"深圳地铁16号线 / 深圳地铁3号线","lat":22.73191529,"lon":114.272485405,"area_km2":2.1043,"D":0.2897,"C":0.7305,"T":0.1149,"U1":0.1934,"U2":0.0364,"couplingDegree":0.2897,"level":"中度失调","road_density":22.4427,"walk_accessibility":0.4219,"metro_line_density":6.2243,"station_count":1,"line_count":2,"population_density":17691.7369,"poi_density":0.0,"poi_diversity":0.0,"gdp_density":25348.826,"P":17691.7369,"I":0.0,"G":25348.826},{"stationName":"深圳南联(地铁站)","station_id":"深圳南联(地铁站)_22.72480_114.26070","lineId":"深圳地铁3号线","lat":22.72479575,"lon":114.26070042,"area_km2":2.1993,"D":0.2668,"C":0.9393,"T":0.0758,"U1":0.1018,"U2":0.0498,"couplingDegree":0.2668,"level":"中度失调","road_density":21.0282,"walk_accessibility":0.4409,"metro_line_density":2.7219,"station_count":2,"line_count":1,"population_density":22112.7274,"poi_density":0.0,"poi_diversity":0.0,"gdp_density":50835.5834,"P":22112.7274,"I":0.0,"G":50835.5834},{"stationName":"深圳龙城广场(地铁站)","station_id":"深圳龙城广场(地铁站)_22.71975_114.24976","lineId":"深圳地铁3号线","lat":22.7197484,"lon":114.24976034,"area_km2":2.2351,"D":0.2617,"C":0.9322,"T":0.0735,"U1":0.1001,"U2":0.0469,"couplingDegree":0.2617,"level":"中度失调","road_density":24.5304,"walk_accessibility":0.4481,"metro_line_density":2.3146,"station_count":2,"line_count":1,"population_density":14454.9773,"poi_density":0.0,"poi_diversity":0.0,"gdp_density":97863.6951,"P":14454.9773,"I":0.0,"G":97863.6951},{"stationName":"深圳吉祥(地铁站)","station_id":"深圳吉祥(地铁站)_22.71232_114.23948","lineId":"深圳地铁3号线","lat":22.71232354,"lon":114.23948092,"area_km2":2.015,"D":0.3349,"C":0.8859,"T":0.1266,"U1":0.0679,"U2":0.1853,"couplingDegree":0.3349,"level":"中度失调","road_density":26.334,"walk_accessibility":0.404,"metro_line_density":2.4682,"station_count":1,"line_count":1,"population_density":16149.1609,"poi_density":1.9851,"poi_diversity":1.0397,"gdp_density":49887.9098,"P":16149.1609,"I":1.9851,"G":49887.9098},{"stationName":"深圳爱联(地铁站)","station_id":"深圳爱联(地铁站)_22.70033_114.22958","lineId":"深圳地铁3号线","lat":22.70033127,"lon":114.2295755,"area_km2":1.8601,"D":0.2388,"C":0.802,"T":0.0711,"U1":0.1136,"U2":0.0286,"couplingDegree":0.2388,"level":"中度失调","road_density":23.7465,"walk_accessibility":0.3729,"metro_line_density":5.3324,"station_count":1,"line_count":1,"population_density":4547.1668,"poi_density":0.5376,"poi_diversity":0.0,"gdp_density":50969.7451,"P":4547.1668,"I":0.5376,"G":50969.7451},{"stationName":"深圳大运(地铁站)","station_id":"深圳大运(地铁站)_22.68859_114.22306","lineId":"深圳地铁14号线 / 深圳地铁3号线","lat":22.688593384999997,"lon":114.22305596999999,"area_km2":1.5147,"D":0.3563,"C":0.7875,"T":0.1612,"U1":0.2606,"U2":0.0619,"couplingDegree":0.3563,"level":"中度失调","road_density":30.3263,"walk_accessibility":0.3037,"metro_line_density":9.7205,"station_count":1,"line_count":2,"population_density":24171.5978,"poi_density":0.6602,"poi_diversity":0.0,"gdp_density":37099.8012,"P":24171.5978,"I":0.6602,"G":37099.8012},{"stationName":"深圳荷坳(地铁站)","station_id":"深圳荷坳(地铁站)_22.67591_114.21945","lineId":"深圳地铁3号线","lat":22.67591343,"lon":114.21944916,"area_km2":1.5078,"D":0.2484,"C":0.7387,"T":0.0835,"U1":0.1399,"U2":0.0272,"couplingDegree":0.2484,"level":"中度失调","road_density":24.7443,"walk_accessibility":0.3023,"metro_line_density":6.9536,"station_count":1,"line_count":1,"population_density":12305.5602,"poi_density":0.0,"poi_diversity":0.0,"gdp_density":26167.8859,"P":12305.5602,"I":0.0,"G":26167.8859},{"stationName":"深圳永湖(地铁站)","station_id":"深圳永湖(地铁站)_22.66183_114.21317","lineId":"深圳地铁3号线","lat":22.66182586,"lon":114.21317149,"area_km2":1.4526,"D":0.1869,"C":0.6945,"T":0.0503,"U1":0.0865,"U2":0.0141,"couplingDegree":0.1869,"level":"极度失调","road_density":26.052,"walk_accessibility":0.2912,"metro_line_density":3.9098,"station_count":1,"line_count":1,"population_density":5691.1078,"poi_density":0.0,"poi_diversity":0.0,"gdp_density":18909.8364,"P":5691.1078,"I":0.0,"G":18909.8364},{"stationName":"深圳横岗(地铁站)","station_id":"深圳横岗(地铁站)_22.65126_114.20411","lineId":"深圳地铁3号线","lat":22.65126376,"lon":114.20410601,"area_km2":2.2599,"D":0.2325,"C":0.9554,"T":0.0566,"U1":0.0733,"U2":0.0399,"couplingDegree":0.2325,"level":"中度失调","road_density":20.7119,"walk_accessibility":0.4531,"metro_line_density":3.0656,"station_count":1,"line_count":1,"population_density":14266.7584,"poi_density":0.0,"poi_diversity":0.0,"gdp_density":67669.4199,"P":14266.7584,"I":0.0,"G":67669.4199},{"stationName":"深圳塘坑(地铁站)","station_id":"深圳塘坑(地铁站)_22.64198_114.18780","lineId":"深圳地铁3号线","lat":22.64197596,"lon":114.18779985,"area_km2":2.2249,"D":0.3071,"C":0.9641,"T":0.0978,"U1":0.0718,"U2":0.1238,"couplingDegree":0.3071,"level":"中度失调","road_density":21.8885,"walk_accessibility":0.4461,"metro_line_density":2.9138,"station_count":1,"line_count":1,"population_density":16371.2135,"poi_density":0.8989,"poi_diversity":0.6931,"gdp_density":23962.5188,"P":16371.2135,"I":0.8989,"G":23962.5188},{"stationName":"深圳六约(地铁站)","station_id":"深圳六约(地铁站)_22.63710_114.17569","lineId":"深圳地铁3号线","lat":22.63709901,"lon":114.17568946,"area_km2":1.9292,"D":0.2242,"C":0.9354,"T":0.0538,"U1":0.0728,"U2":0.0348,"couplingDegree":0.2242,"level":"中度失调","road_density":23.2487,"walk_accessibility":0.3868,"metro_line_density":3.053,"station_count":1,"line_count":1,"population_density":13607.7578,"poi_density":0.0,"poi_diversity":0.0,"gdp_density":49808.6338,"P":13607.7578,"I":0.0,"G":49808.6338},{"stationName":"深圳丹竹头(地铁站)","station_id":"深圳丹竹头(地铁站)_22.62247_114.14301","lineId":"深圳地铁3号线","lat":22.62247144,"lon":114.14301137,"area_km2":2.3224,"D":0.2657,"C":0.8288,"T":0.0851,"U1":0.1328,"U2":0.0375,"couplingDegree":0.2657,"level":"中度失调","road_density":30.9122,"walk_accessibility":0.4656,"metro_line_density":3.5516,"station_count":2,"line_count":1,"population_density":18695.3744,"poi_density":0.0,"poi_diversity":0.0,"gdp_density":22310.9588,"P":18695.3744,"I":0.0,"G":22310.9588},{"stationName":"深圳大芬(地铁站)","station_id":"深圳大芬(地铁站)_22.61690_114.13330","lineId":"深圳地铁3号线","lat":22.61689564,"lon":114.13329828,"area_km2":1.9548,"D":0.4531,"C":0.9685,"T":0.212,"U1":0.1592,"U2":0.2648,"couplingDegree":0.4531,"level":"勉强协调","road_density":30.0466,"walk_accessibility":0.3919,"metro_line_density":3.3976,"station_count":3,"line_count":1,"population_density":22373.6521,"poi_density":2.5578,"poi_diversity":1.6094,"gdp_density":39104.6534,"P":22373.6521,"I":2.5578,"G":39104.6534},{"stationName":"深圳木棉湾(地铁站)","station_id":"深圳木棉湾(地铁站)_22.60969_114.12521","lineId":"深圳地铁3号线","lat":22.60969171,"lon":114.12521029,"area_km2":1.8114,"D":0.5412,"C":0.9974,"T":0.2937,"U1":0.3151,"U2":0.2723,"couplingDegree":0.5412,"level":"勉强协调","road_density":31.6358,"walk_accessibility":0.3632,"metro_line_density":5.0504,"station_count":3,"line_count":3,"population_density":27889.2419,"poi_density":2.7603,"poi_diversity":1.6094,"gdp_density":13876.9943,"P":27889.2419,"I":2.7603,"G":13876.9943},{"stationName":"深圳布吉(地铁站)","station_id":"深圳布吉(地铁站)_22.60443_114.11627","lineId":"深圳地铁14号线 / 深圳地铁3号线 / 深圳地铁5号线","lat":22.604433413333336,"lon":114.11627254666666,"area_km2":2.1646,"D":0.5666,"C":0.9878,"T":0.325,"U1":0.3757,"U2":0.2744,"couplingDegree":0.5666,"level":"勉强协调","road_density":27.5048,"walk_accessibility":0.434,"metro_line_density":6.5785,"station_count":4,"line_count":3,"population_density":26388.8425,"poi_density":3.2339,"poi_diversity":1.5498,"gdp_density":26301.99,"P":26388.8425,"I":3.2339,"G":26301.99},{"stationName":"深圳草埔(地铁站)","station_id":"深圳草埔(地铁站)_22.58713_114.11139","lineId":"深圳地铁3号线","lat":22.58713168,"lon":114.11139401,"area_km2":1.9327,"D":0.2249,"C":0.7311,"T":0.0692,"U1":0.1164,"U2":0.022,"couplingDegree":0.2249,"level":"中度失调","road_density":31.143,"walk_accessibility":0.3875,"metro_line_density":4.8328,"station_count":1,"line_count":1,"population_density":3608.8826,"poi_density":0.0,"poi_diversity":0.0,"gdp_density":70732.4183,"P":3608.8826,"I":0.0,"G":70732.4183},{"stationName":"深圳水贝(地铁站)","station_id":"深圳水贝(地铁站)_22.57668_114.11988","lineId":"深圳地铁3号线","lat":22.57668093,"lon":114.11988341,"area_km2":2.3085,"D":0.5335,"C":0.9907,"T":0.2873,"U1":0.3263,"U2":0.2483,"couplingDegree":0.5335,"level":"勉强协调","road_density":34.516,"walk_accessibility":0.4629,"metro_line_density":3.1542,"station_count":4,"line_count":3,"population_density":24822.8638,"poi_density":3.0322,"poi_diversity":1.1537,"gdp_density":128105.8428,"P":24822.8638,"I":3.0322,"G":128105.8428},{"stationName":"深圳田贝(地铁站)","station_id":"深圳田贝(地铁站)_22.56986_114.12444","lineId":"深圳地铁3号线 / 深圳地铁7号线","lat":22.56985871,"lon":114.124444625,"area_km2":2.2001,"D":0.5944,"C":0.9992,"T":0.3536,"U1":0.3673,"U2":0.3399,"couplingDegree":0.5944,"level":"勉强协调","road_density":28.3478,"walk_accessibility":0.4411,"metro_line_density":4.0711,"station_count":5,"line_count":3,"population_density":19773.2629,"poi_density":4.9997,"poi_diversity":1.7678,"gdp_density":128958.4534,"P":19773.2629,"I":4.9997,"G":128958.4534},{"stationName":"深圳翠竹(地铁站)","station_id":"深圳翠竹(地铁站)_22.55889_114.12480","lineId":"深圳地铁3号线","lat":22.55888926,"lon":114.12480382,"area_km2":2.4596,"D":0.5999,"C":0.982,"T":0.3665,"U1":0.2972,"U2":0.4358,"couplingDegree":0.5999,"level":"勉强协调","road_density":25.7217,"walk_accessibility":0.4931,"metro_line_density":2.1518,"station_count":4,"line_count":3,"population_density":46901.6281,"poi_density":6.5052,"poi_diversity":1.9928,"gdp_density":120985.6438,"P":46901.6281,"I":6.5052,"G":120985.6438},{"stationName":"深圳晒布(地铁站)","station_id":"深圳晒布(地铁站)_22.55193_114.11757","lineId":"深圳地铁3号线","lat":22.55193148,"lon":114.11757001,"area_km2":2.7143,"D":0.8013,"C":0.9944,"T":0.6457,"U1":0.7141,"U2":0.5774,"couplingDegree":0.8013,"level":"优质协调","road_density":30.9417,"walk_accessibility":0.5442,"metro_line_density":6.49,"station_count":8,"line_count":6,"population_density":64371.9527,"poi_density":8.4738,"poi_diversity":2.2204,"gdp_density":357041.4037,"P":64371.9527,"I":8.4738,"G":357041.4037},{"stationName":"深圳红岭(地铁站)","station_id":"深圳红岭(地铁站)_22.55134_114.09895","lineId":"深圳地铁3号线 / 深圳地铁9号线","lat":22.551336980000002,"lon":114.09895414666666,"area_km2":3.0553,"D":0.7063,"C":0.9585,"T":0.5205,"U1":0.6689,"U2":0.372,"couplingDegree":0.7063,"level":"良好协调","road_density":40.4905,"walk_accessibility":0.6126,"metro_line_density":5.3079,"station_count":5,"line_count":7,"population_density":56278.1964,"poi_density":2.6184,"poi_diversity":1.7329,"gdp_density":191977.7615,"P":56278.1964,"I":2.6184,"G":191977.7615},{"stationName":"深圳通新岭(地铁站)","station_id":"深圳通新岭(地铁站)_22.55137_114.09113","lineId":"深圳地铁3号线 / 深圳地铁6号线","lat":22.551367845,"lon":114.09112792,"area_km2":3.195,"D":0.7913,"C":0.9978,"T":0.6276,"U1":0.6692,"U2":0.586,"couplingDegree":0.7913,"level":"良好协调","road_density":35.4673,"walk_accessibility":0.6406,"metro_line_density":5.2389,"station_count":7,"line_count":6,"population_density":75492.2562,"poi_density":7.8248,"poi_diversity":2.5461,"gdp_density":202804.8632,"P":75492.2562,"I":7.8248,"G":202804.8632},{"stationName":"深圳华新(地铁站)","station_id":"深圳华新(地铁站)_22.55166_114.08152","lineId":"深圳地铁3号线 / 深圳地铁7号线","lat":22.551664825000003,"lon":114.0815246,"area_km2":3.0496,"D":0.7872,"C":0.9946,"T":0.623,"U1":0.6877,"U2":0.5584,"couplingDegree":0.7872,"level":"良好协调","road_density":29.8785,"walk_accessibility":0.6114,"metro_line_density":6.8278,"station_count":7,"line_count":6,"population_density":63921.8351,"poi_density":8.1978,"poi_diversity":2.5433,"gdp_density":140764.4807,"P":63921.8351,"I":8.1978,"G":140764.4807},{"stationName":"深圳莲花村(地铁站)","station_id":"深圳莲花村(地铁站)_22.55135_114.06273","lineId":"深圳地铁3号线","lat":22.5513476,"lon":114.0627285,"area_km2":3.032,"D":0.6725,"C":0.9941,"T":0.4549,"U1":0.5043,"U2":0.4056,"couplingDegree":0.6725,"level":"良好协调","road_density":33.6509,"walk_accessibility":0.6079,"metro_line_density":5.655,"station_count":4,"line_count":5,"population_density":14621.358,"poi_density":4.2876,"poi_diversity":2.5649,"gdp_density":136942.316,"P":14621.358,"I":4.2876,"G":136942.316},{"stationName":"深圳少年宫(地铁站)","station_id":"深圳少年宫(地铁站)_22.55074_114.05541","lineId":"深圳地铁3号线 / 深圳地铁4号线","lat":22.550741715,"lon":114.05541320500001,"area_km2":2.5826,"D":0.6928,"C":0.9847,"T":0.4874,"U1":0.5723,"U2":0.4025,"couplingDegree":0.6928,"level":"良好协调","road_density":32.3047,"walk_accessibility":0.5178,"metro_line_density":5.965,"station_count":6,"line_count":5,"population_density":8693.9033,"poi_density":5.0337,"poi_diversity":2.4583,"gdp_density":162083.1376,"P":8693.9033,"I":5.0337,"G":162083.1376},{"stationName":"深圳石厦(地铁站)","station_id":"深圳石厦(地铁站)_22.52609_114.04857","lineId":"深圳地铁3号线 / 深圳地铁7号线","lat":22.5260948475,"lon":114.0485720225,"area_km2":2.7348,"D":0.6193,"C":0.9992,"T":0.3839,"U1":0.3683,"U2":0.3995,"couplingDegree":0.6193,"level":"良好协调","road_density":30.9849,"walk_accessibility":0.5483,"metro_line_density":3.5451,"station_count":5,"line_count":3,"population_density":44068.5147,"poi_density":2.9253,"poi_diversity":1.3209,"gdp_density":586139.8035,"P":44068.5147,"I":2.9253,"G":586139.8035},{"stationName":"深圳益田(地铁站)","station_id":"深圳益田(地铁站)_22.51902_114.04588","lineId":"深圳地铁3号线","lat":22.51901809,"lon":114.04588314,"area_km2":2.8509,"D":0.5804,"C":0.9921,"T":0.3396,"U1":0.297,"U2":0.3822,"couplingDegree":0.5804,"level":"勉强协调","road_density":29.4533,"walk_accessibility":0.5716,"metro_line_density":3.1199,"station_count":5,"line_count":2,"population_density":25348.467,"poi_density":4.2091,"poi_diversity":1.4241,"gdp_density":504046.7976,"P":25348.467,"I":4.2091,"G":504046.7976},{"stationName":"深圳福保(地铁站)","station_id":"深圳福保(地铁站)_22.51089_114.05147","lineId":"深圳地铁3号线","lat":22.5108939,"lon":114.05147292,"area_km2":2.3897,"D":0.4263,"C":0.7921,"T":0.2294,"U1":0.0894,"U2":0.3694,"couplingDegree":0.4263,"level":"勉强协调","road_density":27.7272,"walk_accessibility":0.4791,"metro_line_density":1.3498,"station_count":2,"line_count":1,"population_density":6428.5528,"poi_density":3.7662,"poi_diversity":1.523,"gdp_density":581956.6506,"P":6428.5528,"I":3.7662,"G":581956.6506},{"stationName":"深圳牛湖(地铁站)","station_id":"深圳牛湖(地铁站)_22.72726_114.08411","lineId":"深圳地铁4号线","lat":22.72725802,"lon":114.08411467,"area_km2":1.56,"D":0.183,"C":0.9993,"T":0.0335,"U1":0.0348,"U2":0.0323,"couplingDegree":0.183,"level":"极度失调","road_density":17.1147,"walk_accessibility":0.3128,"metro_line_density":1.6907,"station_count":1,"line_count":1,"population_density":14566.4851,"poi_density":0.0,"poi_diversity":0.0,"gdp_density":31240.5688,"P":14566.4851,"I":0.0,"G":31240.5688},{"stationName":"深圳观澜湖(地铁站)","station_id":"深圳观澜湖(地铁站)_22.72428_114.07113","lineId":"深圳地铁4号线","lat":22.72427559,"lon":114.07113091,"area_km2":1.2936,"D":0.1671,"C":0.3205,"T":0.0871,"U1":0.1697,"U2":0.0046,"couplingDegree":0.1671,"level":"极度失调","road_density":20.3123,"walk_accessibility":0.2594,"metro_line_density":3.6799,"station_count":2,"line_count":2,"population_density":0.0,"poi_density":0.0,"poi_diversity":0.0,"gdp_density":20704.7652,"P":0.0,"I":0.0,"G":20704.7652},{"stationName":"深圳松元厦(地铁站)","station_id":"深圳松元厦(地铁站)_22.72377_114.05923","lineId":"深圳地铁22号线 / 深圳地铁4号线","lat":22.723765653333334,"lon":114.05923284333333,"area_km2":1.3535,"D":0.3256,"C":0.7243,"T":0.1464,"U1":0.2474,"U2":0.0455,"couplingDegree":0.3256,"level":"中度失调","road_density":20.3143,"walk_accessibility":0.2714,"metro_line_density":6.0172,"station_count":3,"line_count":2,"population_density":11008.6963,"poi_density":0.7388,"poi_diversity":0.0,"gdp_density":60231.6067,"P":11008.6963,"I":0.7388,"G":60231.6067},{"stationName":"深圳观澜(地铁站)","station_id":"深圳观澜(地铁站)_22.71786_114.04965","lineId":"深圳地铁4号线","lat":22.71786435,"lon":114.04964981,"area_km2":1.3761,"D":0.2915,"C":0.6763,"T":0.1256,"U1":0.2182,"U2":0.0331,"couplingDegree":0.2915,"level":"中度失调","road_density":21.9361,"walk_accessibility":0.2759,"metro_line_density":4.2415,"station_count":3,"line_count":2,"population_density":6637.4906,"poi_density":0.7267,"poi_diversity":0.0,"gdp_density":39777.7095,"P":6637.4906,"I":0.7267,"G":39777.7095},{"stationName":"深圳长湖(地铁站)","station_id":"深圳长湖(地铁站)_22.71348_114.03969","lineId":"深圳地铁4号线","lat":22.71347934,"lon":114.039689,"area_km2":1.6049,"D":0.2696,"C":0.9215,"T":0.0789,"U1":0.1095,"U2":0.0482,"couplingDegree":0.2696,"level":"中度失调","road_density":23.6311,"walk_accessibility":0.3218,"metro_line_density":3.3393,"station_count":2,"line_count":1,"population_density":19110.7649,"poi_density":0.0,"poi_diversity":0.0,"gdp_density":67381.3195,"P":19110.7649,"I":0.0,"G":67381.3195},{"stationName":"深圳茜坑(地铁站)","station_id":"深圳茜坑(地铁站)_22.69998_114.03599","lineId":"深圳地铁4号线","lat":22.69998229,"lon":114.03598751,"area_km2":1.3555,"D":0.2465,"C":0.7867,"T":0.0772,"U1":0.1249,"U2":0.0296,"couplingDegree":0.2465,"level":"中度失调","road_density":28.1287,"walk_accessibility":0.2718,"metro_line_density":3.9953,"station_count":2,"line_count":1,"population_density":7080.5803,"poi_density":0.0,"poi_diversity":0.0,"gdp_density":77582.8136,"P":7080.5803,"I":0.0,"G":77582.8136},{"stationName":"深圳竹村(地铁站)","station_id":"深圳竹村(地铁站)_22.68946_114.03521","lineId":"深圳地铁4号线","lat":22.68945995,"lon":114.03521228,"area_km2":1.8471,"D":0.2277,"C":0.8155,"T":0.0636,"U1":0.1004,"U2":0.0268,"couplingDegree":0.2277,"level":"中度失调","road_density":29.4765,"walk_accessibility":0.3703,"metro_line_density":2.187,"station_count":2,"line_count":1,"population_density":8076.4915,"poi_density":0.0,"poi_diversity":0.0,"gdp_density":57329.3922,"P":8076.4915,"I":0.0,"G":57329.3922},{"stationName":"深圳清湖北(地铁站)","station_id":"深圳清湖北(地铁站)_22.67482_114.03532","lineId":"深圳地铁4号线","lat":22.67482194,"lon":114.03532095,"area_km2":1.4442,"D":0.2499,"C":0.9298,"T":0.0672,"U1":0.0919,"U2":0.0425,"couplingDegree":0.2499,"level":"中度失调","road_density":29.6778,"walk_accessibility":0.2896,"metro_line_density":1.972,"station_count":2,"line_count":1,"population_density":14522.1627,"poi_density":0.0,"poi_diversity":0.0,"gdp_density":77326.379,"P":14522.1627,"I":0.0,"G":77326.379},{"stationName":"深圳清湖(地铁站)","station_id":"深圳清湖(地铁站)_22.66683_114.03145","lineId":"深圳地铁4号线","lat":22.66683012,"lon":114.03144992,"area_km2":1.6315,"D":0.2608,"C":0.896,"T":0.0759,"U1":0.1096,"U2":0.0422,"couplingDegree":0.2608,"level":"中度失调","road_density":26.2105,"walk_accessibility":0.3271,"metro_line_density":3.1148,"station_count":2,"line_count":1,"population_density":4269.2006,"poi_density":0.613,"poi_diversity":0.0,"gdp_density":108320.775,"P":4269.2006,"I":0.613,"G":108320.775},{"stationName":"深圳龙华(地铁站)","station_id":"深圳龙华(地铁站)_22.65486_114.01800","lineId":"深圳地铁25号线 / 深圳地铁4号线","lat":22.6548649375,"lon":114.01800384500001,"area_km2":2.2203,"D":0.2676,"C":0.7057,"T":0.1015,"U1":0.1734,"U2":0.0296,"couplingDegree":0.2676,"level":"中度失调","road_density":27.6286,"walk_accessibility":0.4452,"metro_line_density":4.6058,"station_count":1,"line_count":2,"population_density":10224.5941,"poi_density":0.0,"poi_diversity":0.0,"gdp_density":53094.7471,"P":10224.5941,"I":0.0,"G":53094.7471},{"stationName":"深圳龙胜(地铁站)","station_id":"深圳龙胜(地铁站)_22.64756_114.00698","lineId":"深圳地铁4号线","lat":22.64755658,"lon":114.00697831,"area_km2":1.8676,"D":0.2593,"C":0.7763,"T":0.0866,"U1":0.1412,"U2":0.032,"couplingDegree":0.2593,"level":"中度失调","road_density":36.3661,"walk_accessibility":0.3744,"metro_line_density":3.8783,"station_count":2,"line_count":1,"population_density":11220.3348,"poi_density":0.0,"poi_diversity":0.0,"gdp_density":56180.1174,"P":11220.3348,"I":0.0,"G":56180.1174},{"stationName":"深圳上塘(地铁站)","station_id":"深圳上塘(地铁站)_22.63987_114.00781","lineId":"深圳地铁4号线","lat":22.63987266,"lon":114.00780504,"area_km2":2.0275,"D":0.2555,"C":0.7573,"T":0.0862,"U1":0.1425,"U2":0.0299,"couplingDegree":0.2555,"level":"中度失调","road_density":37.1397,"walk_accessibility":0.4065,"metro_line_density":3.7796,"station_count":2,"line_count":1,"population_density":9955.5869,"poi_density":0.0,"poi_diversity":0.0,"gdp_density":56599.0033,"P":9955.5869,"I":0.0,"G":56599.0033},{"stationName":"深圳红山(地铁站)","station_id":"深圳红山(地铁站)_22.62453_114.01841","lineId":"深圳地铁4号线 / 深圳地铁6号线","lat":22.624534505,"lon":114.01840748000001,"area_km2":2.3317,"D":0.2422,"C":0.5845,"T":0.1004,"U1":0.1819,"U2":0.0189,"couplingDegree":0.2422,"level":"中度失调","road_density":41.1422,"walk_accessibility":0.4675,"metro_line_density":3.8896,"station_count":1,"line_count":2,"population_density":293.3483,"poi_density":0.4289,"poi_diversity":0.0,"gdp_density":49223.8596,"P":293.3483,"I":0.4289,"G":49223.8596},{"stationName":"深圳深圳北站(地铁站)","station_id":"深圳深圳北站(地铁站)_22.61326_114.02550","lineId":"深圳地铁4号线 / 深圳地铁5号线 / 深圳地铁6号线","lat":22.61325544,"lon":114.02550389333332,"area_km2":2.298,"D":0.2547,"C":0.4533,"T":0.1431,"U1":0.2706,"U2":0.0155,"couplingDegree":0.2547,"level":"中度失调","road_density":36.038,"walk_accessibility":0.4607,"metro_line_density":5.7792,"station_count":1,"line_count":3,"population_density":1234.5501,"poi_density":0.4352,"poi_diversity":0.0,"gdp_density":26070.5687,"P":1234.5501,"I":0.4352,"G":26070.5687},{"stationName":"深圳白石龙(地铁站)","station_id":"深圳白石龙(地铁站)_22.60450_114.03695","lineId":"深圳地铁27号线 / 深圳地铁4号线","lat":22.604503125,"lon":114.03694687999999,"area_km2":2.332,"D":0.5284,"C":0.9939,"T":0.2809,"U1":0.3119,"U2":0.2499,"couplingDegree":0.5284,"level":"勉强协调","road_density":34.2758,"walk_accessibility":0.4676,"metro_line_density":6.2547,"station_count":2,"line_count":3,"population_density":20143.9434,"poi_density":2.1441,"poi_diversity":1.6094,"gdp_density":22279.9707,"P":20143.9434,"I":2.1441,"G":22279.9707},{"stationName":"深圳民乐(地铁站)","station_id":"深圳民乐(地铁站)_22.59706_114.04402","lineId":"深圳地铁22号线 / 深圳地铁4号线","lat":22.597057956666664,"lon":114.04402448,"area_km2":2.339,"D":0.3271,"C":0.631,"T":0.1695,"U1":0.3011,"U2":0.038,"couplingDegree":0.3271,"level":"中度失调","road_density":39.3544,"walk_accessibility":0.469,"metro_line_density":5.2272,"station_count":2,"line_count":3,"population_density":14953.4155,"poi_density":0.4275,"poi_diversity":0.0,"gdp_density":20265.4137,"P":14953.4155,"I":0.4275,"G":20265.4137},{"stationName":"深圳上梅林(地铁站)","station_id":"深圳上梅林(地铁站)_22.57216_114.05480","lineId":"深圳地铁4号线 / 深圳地铁9号线","lat":22.57216071,"lon":114.05480460999999,"area_km2":2.56,"D":0.4875,"C":0.8914,"T":0.2666,"U1":0.3874,"U2":0.1458,"couplingDegree":0.4875,"level":"勉强协调","road_density":33.5153,"walk_accessibility":0.5133,"metro_line_density":6.4707,"station_count":4,"line_count":3,"population_density":12701.91,"poi_density":0.7812,"poi_diversity":0.6931,"gdp_density":160909.1217,"P":12701.91,"I":0.7812,"G":160909.1217},{"stationName":"深圳莲花北(地铁站)","station_id":"深圳莲花北(地铁站)_22.56325_114.05429","lineId":"深圳地铁4号线","lat":22.56325145,"lon":114.0542851,"area_km2":2.4581,"D":0.4902,"C":0.9223,"T":0.2606,"U1":0.3613,"U2":0.1598,"couplingDegree":0.4902,"level":"勉强协调","road_density":35.1172,"walk_accessibility":0.4929,"metro_line_density":4.9534,"station_count":4,"line_count":3,"population_density":20233.5148,"poi_density":0.8136,"poi_diversity":0.6931,"gdp_density":162740.1156,"P":20233.5148,"I":0.8136,"G":162740.1156},{"stationName":"深圳福民(地铁站)","station_id":"深圳福民(地铁站)_22.52669_114.06120","lineId":"深圳地铁10号线 / 深圳地铁4号线 / 深圳地铁7号线","lat":22.526694579999997,"lon":114.06120384333333,"area_km2":2.5736,"D":0.6208,"C":0.9871,"T":0.3905,"U1":0.4531,"U2":0.3278,"couplingDegree":0.6208,"level":"良好协调","road_density":34.2155,"walk_accessibility":0.516,"metro_line_density":4.6172,"station_count":5,"line_count":4,"population_density":25078.6758,"poi_density":1.9428,"poi_diversity":0.9503,"gdp_density":668434.3125,"P":25078.6758,"I":1.9428,"G":668434.3125},{"stationName":"深圳福田口岸(地铁站)","station_id":"深圳福田口岸(地铁站)_22.51815_114.06337","lineId":"深圳地铁10号线 / 深圳地铁4号线","lat":22.518145609999998,"lon":114.06336773000001,"area_km2":2.0825,"D":0.5426,"C":0.9958,"T":0.2956,"U1":0.3227,"U2":0.2686,"couplingDegree":0.5426,"level":"勉强协调","road_density":31.4197,"walk_accessibility":0.4175,"metro_line_density":3.3594,"station_count":4,"line_count":3,"population_density":5226.7781,"poi_density":0.9604,"poi_diversity":0.6931,"gdp_density":758837.0727,"P":5226.7781,"I":0.9604,"G":758837.0727},{"stationName":"深圳荔湾(地铁站)","station_id":"深圳荔湾(地铁站)_22.50087_113.88862","lineId":"深圳地铁5号线","lat":22.50087432,"lon":113.8886154,"area_km2":2.1051,"D":0.2337,"C":0.6025,"T":0.0906,"U1":0.1629,"U2":0.0183,"couplingDegree":0.2337,"level":"中度失调","road_density":26.9837,"walk_accessibility":0.4221,"metro_line_density":2.2056,"station_count":2,"line_count":2,"population_density":1556.6897,"poi_density":0.0,"poi_diversity":0.0,"gdp_density":70219.4359,"P":1556.6897,"I":0.0,"G":70219.4359},{"stationName":"深圳铁路公园(地铁站)","station_id":"深圳铁路公园(地铁站)_22.50535_113.88544","lineId":"深圳地铁15号线 / 深圳地铁5号线","lat":22.505354285,"lon":113.88543924,"area_km2":1.8439,"D":0.1001,"C":0.0956,"T":0.1047,"U1":0.2089,"U2":0.0005,"couplingDegree":0.1001,"level":"极度失调","road_density":28.9422,"walk_accessibility":0.3697,"metro_line_density":2.8306,"station_count":3,"line_count":2,"population_density":275.5086,"poi_density":0.0,"poi_diversity":0.0,"gdp_density":0.0,"P":275.5086,"I":0.0,"G":0.0},{"stationName":"深圳妈湾(地铁站)","station_id":"深圳妈湾(地铁站)_22.51095_113.88105","lineId":"深圳地铁5号线","lat":22.51095254,"lon":113.88104853,"area_km2":1.7315,"D":0.1029,"C":0.1062,"T":0.0997,"U1":0.1988,"U2":0.0006,"couplingDegree":0.1029,"level":"极度失调","road_density":27.4907,"walk_accessibility":0.3472,"metro_line_density":2.4655,"station_count":3,"line_count":2,"population_density":323.419,"poi_density":0.0,"poi_diversity":0.0,"gdp_density":0.0,"P":323.419,"I":0.0,"G":0.0},{"stationName":"深圳前湾公园(地铁站)","station_id":"深圳前湾公园(地铁站)_22.51916_113.88468","lineId":"深圳地铁5号线","lat":22.51915966,"lon":113.88467716,"area_km2":1.9336,"D":0.0639,"C":0.0366,"T":0.1115,"U1":0.223,"U2":0.0001,"couplingDegree":0.0639,"level":"极度失调","road_density":32.9354,"walk_accessibility":0.3877,"metro_line_density":1.2787,"station_count":4,"line_count":2,"population_density":42.9254,"poi_density":0.0,"poi_diversity":0.0,"gdp_density":0.0,"P":42.9254,"I":0.0,"G":0.0},{"stationName":"深圳前湾(地铁站)","station_id":"深圳前湾(地铁站)_22.52487_113.89059","lineId":"深圳地铁5号线","lat":22.52487404,"lon":113.89058584,"area_km2":3.0149,"D":0.0629,"C":0.0254,"T":0.1555,"U1":0.311,"U2":0.0001,"couplingDegree":0.0629,"level":"极度失调","road_density":43.9446,"walk_accessibility":0.6045,"metro_line_density":2.5963,"station_count":5,"line_count":2,"population_density":28.8564,"poi_density":0.0,"poi_diversity":0.0,"gdp_density":0.0,"P":28.8564,"I":0.0,"G":0.0},{"stationName":"深圳桂湾(地铁站)","station_id":"深圳桂湾(地铁站)_22.53541_113.89308","lineId":"深圳地铁5号线","lat":22.5354111,"lon":113.89307671,"area_km2":2.6405,"D":0.0626,"C":0.0249,"T":0.1569,"U1":0.3138,"U2":0.0,"couplingDegree":0.0626,"level":"极度失调","road_density":46.0641,"walk_accessibility":0.5294,"metro_line_density":4.7773,"station_count":4,"line_count":2,"population_density":28.0251,"poi_density":0.0,"poi_diversity":0.0,"gdp_density":0.0,"P":28.0251,"I":0.0,"G":0.0},{"stationName":"深圳临海(地铁站)","station_id":"深圳临海(地铁站)_22.54721_113.88445","lineId":"深圳地铁5号线","lat":22.54720951,"lon":113.88444593,"area_km2":2.3458,"D":0.2327,"C":0.3299,"T":0.1642,"U1":0.3192,"U2":0.0092,"couplingDegree":0.2327,"level":"中度失调","road_density":39.5923,"walk_accessibility":0.4703,"metro_line_density":3.8634,"station_count":5,"line_count":2,"population_density":999.2163,"poi_density":0.4263,"poi_diversity":0.0,"gdp_density":0.0,"P":999.2163,"I":0.4263,"G":0.0},{"stationName":"深圳宝华(地铁站)","station_id":"深圳宝华(地铁站)_22.55268_113.88021","lineId":"深圳地铁5号线","lat":22.55268148,"lon":113.88020597,"area_km2":3.4113,"D":0.5069,"C":0.9198,"T":0.2794,"U1":0.389,"U2":0.1698,"couplingDegree":0.5069,"level":"勉强协调","road_density":41.3346,"walk_accessibility":0.684,"metro_line_density":3.3889,"station_count":5,"line_count":3,"population_density":808.4868,"poi_density":1.4657,"poi_diversity":1.3322,"gdp_density":0.0,"P":808.4868,"I":1.4657,"G":0.0},{"stationName":"深圳翻身(地铁站)","station_id":"深圳翻身(地铁站)_22.56274_113.88836","lineId":"深圳地铁5号线","lat":22.56274124,"lon":113.88835791,"area_km2":3.2137,"D":0.4349,"C":1.0,"T":0.1891,"U1":0.1886,"U2":0.1896,"couplingDegree":0.4349,"level":"勉强协调","road_density":33.8603,"walk_accessibility":0.6443,"metro_line_density":2.3188,"station_count":2,"line_count":2,"population_density":8135.2762,"poi_density":1.5559,"poi_diversity":1.3322,"gdp_density":24897.169,"P":8135.2762,"I":1.5559,"G":24897.169},{"stationName":"深圳灵芝(地铁站)","station_id":"深圳灵芝(地铁站)_22.57202_113.89929","lineId":"深圳地铁12号线 / 深圳地铁5号线","lat":22.572015229999998,"lon":113.899293,"area_km2":2.8468,"D":0.4805,"C":0.9902,"T":0.2332,"U1":0.2658,"U2":0.2005,"couplingDegree":0.4805,"level":"勉强协调","road_density":25.4146,"walk_accessibility":0.5708,"metro_line_density":4.0645,"station_count":2,"line_count":3,"population_density":30112.715,"poi_density":1.0538,"poi_diversity":1.0986,"gdp_density":53910.9808,"P":30112.715,"I":1.0538,"G":53910.9808},{"stationName":"深圳洪浪北(地铁站)","station_id":"深圳洪浪北(地铁站)_22.57758_113.90572","lineId":"深圳地铁15号线 / 深圳地铁5号线","lat":22.577579849999996,"lon":113.90571729666665,"area_km2":2.586,"D":0.3318,"C":0.5813,"T":0.1894,"U1":0.3436,"U2":0.0353,"couplingDegree":0.3318,"level":"中度失调","road_density":22.7012,"walk_accessibility":0.5185,"metro_line_density":3.351,"station_count":3,"line_count":4,"population_density":17401.4478,"poi_density":0.0,"poi_diversity":0.0,"gdp_density":22503.9223,"P":17401.4478,"I":0.0,"G":22503.9223},{"stationName":"深圳兴东(地铁站)","station_id":"深圳兴东(地铁站)_22.58487_113.91415","lineId":"深圳地铁29号线 / 深圳地铁5号线","lat":22.58486544,"lon":113.91415042,"area_km2":2.1816,"D":0.2061,"C":0.3714,"T":0.1143,"U1":0.2205,"U2":0.0082,"couplingDegree":0.2061,"level":"中度失调","road_density":24.2991,"walk_accessibility":0.4374,"metro_line_density":2.083,"station_count":2,"line_count":3,"population_density":2665.4309,"poi_density":0.0,"poi_diversity":0.0,"gdp_density":15938.8413,"P":2665.4309,"I":0.0,"G":15938.8413},{"stationName":"深圳留仙洞(地铁站)","station_id":"深圳留仙洞(地铁站)_22.58351_113.93894","lineId":"深圳地铁13号线 / 深圳地铁5号线","lat":22.58351149666667,"lon":113.93894454999999,"area_km2":2.6291,"D":0.3392,"C":0.6775,"T":0.1699,"U1":0.2948,"U2":0.0449,"couplingDegree":0.3392,"level":"中度失调","road_density":25.9073,"walk_accessibility":0.5271,"metro_line_density":5.7878,"station_count":2,"line_count":3,"population_density":6134.7596,"poi_density":0.0,"poi_diversity":0.0,"gdp_density":154257.9767,"P":6134.7596,"I":0.0,"G":154257.9767},{"stationName":"深圳西丽(地铁站)","station_id":"深圳西丽(地铁站)_22.58367_113.94924","lineId":"深圳地铁5号线 / 深圳地铁7号线","lat":22.58366981,"lon":113.94923578000001,"area_km2":2.5219,"D":0.3712,"C":0.6806,"T":0.2025,"U1":0.3508,"U2":0.0541,"couplingDegree":0.3712,"level":"中度失调","road_density":27.6049,"walk_accessibility":0.5056,"metro_line_density":4.9431,"station_count":4,"line_count":3,"population_density":12044.8449,"poi_density":0.0,"poi_diversity":0.0,"gdp_density":149399.4364,"P":12044.8449,"I":0.0,"G":149399.4364},{"stationName":"深圳大学城(地铁站)","station_id":"深圳大学城(地铁站)_22.58491_113.96039","lineId":"深圳地铁5号线","lat":22.58490972,"lon":113.96039249,"area_km2":2.0083,"D":0.2864,"C":0.78,"T":0.1051,"U1":0.1709,"U2":0.0393,"couplingDegree":0.2864,"level":"中度失调","road_density":28.0431,"walk_accessibility":0.4027,"metro_line_density":2.6284,"station_count":2,"line_count":2,"population_density":5545.5564,"poi_density":0.0,"poi_diversity":0.0,"gdp_density":133716.7752,"P":5545.5564,"I":0.0,"G":133716.7752},{"stationName":"深圳塘朗(地铁站)","station_id":"深圳塘朗(地铁站)_22.59296_113.99467","lineId":"深圳地铁5号线","lat":22.59296016,"lon":113.99466908,"area_km2":2.2127,"D":0.2772,"C":0.5588,"T":0.1375,"U1":0.2515,"U2":0.0235,"couplingDegree":0.2772,"level":"中度失调","road_density":30.0582,"walk_accessibility":0.4436,"metro_line_density":3.3151,"station_count":2,"line_count":3,"population_density":2933.4909,"poi_density":0.0,"poi_diversity":0.0,"gdp_density":82705.1463,"P":2933.4909,"I":0.0,"G":82705.1463},{"stationName":"深圳长岭陂(地铁站)","station_id":"深圳长岭陂(地铁站)_22.60223_114.00525","lineId":"深圳地铁27号线 / 深圳地铁5号线","lat":22.60222537,"lon":114.00525025499999,"area_km2":1.6558,"D":0.2055,"C":0.506,"T":0.0834,"U1":0.1554,"U2":0.0115,"couplingDegree":0.2055,"level":"中度失调","road_density":26.0351,"walk_accessibility":0.332,"metro_line_density":4.1172,"station_count":1,"line_count":2,"population_density":657.7076,"poi_density":0.0,"poi_diversity":0.0,"gdp_density":46508.9529,"P":657.7076,"I":0.0,"G":46508.9529},{"stationName":"深圳民治(地铁站)","station_id":"深圳民治(地铁站)_22.62024_114.03581","lineId":"深圳地铁22号线 / 深圳地铁5号线","lat":22.620237545000002,"lon":114.035811585,"area_km2":2.4135,"D":0.4493,"C":0.9947,"T":0.203,"U1":0.1821,"U2":0.2238,"couplingDegree":0.4493,"level":"勉强协调","road_density":32.4725,"walk_accessibility":0.4839,"metro_line_density":4.5603,"station_count":1,"line_count":2,"population_density":17445.5241,"poi_density":1.6573,"poi_diversity":1.3863,"gdp_density":71754.7397,"P":17445.5241,"I":1.6573,"G":71754.7397},{"stationName":"深圳五和(地铁站)","station_id":"深圳五和(地铁站)_22.62954_114.05556","lineId":"深圳地铁5号线","lat":22.62953587,"lon":114.05555872,"area_km2":2.3872,"D":0.3815,"C":0.9732,"T":0.1496,"U1":0.1152,"U2":0.1839,"couplingDegree":0.3815,"level":"中度失调","road_density":23.3648,"walk_accessibility":0.4786,"metro_line_density":3.149,"station_count":2,"line_count":1,"population_density":18827.7454,"poi_density":1.6756,"poi_diversity":1.0397,"gdp_density":47150.3171,"P":18827.7454,"I":1.6756,"G":47150.3171},{"stationName":"深圳坂田(地铁站)","station_id":"深圳坂田(地铁站)_22.63017_114.06572","lineId":"深圳地铁5号线","lat":22.63017094,"lon":114.06572017,"area_km2":2.065,"D":0.3781,"C":0.9822,"T":0.1456,"U1":0.1182,"U2":0.1729,"couplingDegree":0.3781,"level":"中度失调","road_density":22.1767,"walk_accessibility":0.414,"metro_line_density":1.685,"station_count":3,"line_count":1,"population_density":9147.7116,"poi_density":1.937,"poi_diversity":1.0397,"gdp_density":52698.2524,"P":9147.7116,"I":1.937,"G":52698.2524},{"stationName":"深圳杨美(地铁站)","station_id":"深圳杨美(地铁站)_22.62946_114.07484","lineId":"深圳地铁5号线","lat":22.62945627,"lon":114.07484093,"area_km2":1.9323,"D":0.1983,"C":0.7994,"T":0.0492,"U1":0.0788,"U2":0.0196,"couplingDegree":0.1983,"level":"极度失调","road_density":24.4274,"walk_accessibility":0.3874,"metro_line_density":1.3405,"station_count":2,"line_count":1,"population_density":4240.0666,"poi_density":0.0,"poi_diversity":0.0,"gdp_density":55217.6426,"P":4240.0666,"I":0.0,"G":55217.6426},{"stationName":"深圳上水径(地铁站)","station_id":"深圳上水径(地铁站)_22.62472_114.10022","lineId":"深圳地铁5号线","lat":22.62471851,"lon":114.10021536,"area_km2":1.6323,"D":0.2557,"C":0.9955,"T":0.0657,"U1":0.0719,"U2":0.0594,"couplingDegree":0.2557,"level":"中度失调","road_density":24.4753,"walk_accessibility":0.3273,"metro_line_density":1.1573,"station_count":2,"line_count":1,"population_density":26347.5748,"poi_density":0.0,"poi_diversity":0.0,"gdp_density":61099.9254,"P":26347.5748,"I":0.0,"G":61099.9254},{"stationName":"深圳下水径(地铁站)","station_id":"深圳下水径(地铁站)_22.61751_114.10555","lineId":"深圳地铁5号线","lat":22.6175091,"lon":114.10554695,"area_km2":1.5499,"D":0.2709,"C":0.9302,"T":0.0789,"U1":0.1079,"U2":0.0499,"couplingDegree":0.2709,"level":"中度失调","road_density":20.0096,"walk_accessibility":0.3107,"metro_line_density":1.6374,"station_count":3,"line_count":1,"population_density":24308.1781,"poi_density":0.0,"poi_diversity":0.0,"gdp_density":34310.0175,"P":24308.1781,"I":0.0,"G":34310.0175},{"stationName":"深圳长龙(地铁站)","station_id":"深圳长龙(地铁站)_22.61073_114.10871","lineId":"深圳地铁5号线","lat":22.61073227,"lon":114.10871485,"area_km2":1.9698,"D":0.3449,"C":0.8051,"T":0.1478,"U1":0.2354,"U2":0.0601,"couplingDegree":0.3449,"level":"中度失调","road_density":22.8146,"walk_accessibility":0.3949,"metro_line_density":1.2315,"station_count":3,"line_count":3,"population_density":27405.7304,"poi_density":0.0,"poi_diversity":0.0,"gdp_density":55897.7145,"P":27405.7304,"I":0.0,"G":55897.7145},{"stationName":"深圳百鸽笼(地铁站)","station_id":"深圳百鸽笼(地铁站)_22.59814_114.12530","lineId":"深圳地铁5号线","lat":22.59813914,"lon":114.12529767,"area_km2":1.792,"D":0.4911,"C":0.9999,"T":0.2412,"U1":0.2453,"U2":0.2371,"couplingDegree":0.4911,"level":"勉强协调","road_density":23.3869,"walk_accessibility":0.3593,"metro_line_density":3.8049,"station_count":2,"line_count":3,"population_density":23009.1974,"poi_density":2.7902,"poi_diversity":1.3322,"gdp_density":25122.9219,"P":23009.1974,"I":2.7902,"G":25122.9219},{"stationName":"深圳布心(地铁站)","station_id":"深圳布心(地铁站)_22.58370_114.13298","lineId":"深圳地铁5号线","lat":22.58369589,"lon":114.13298186,"area_km2":1.6432,"D":0.3103,"C":0.9116,"T":0.1056,"U1":0.149,"U2":0.0622,"couplingDegree":0.3103,"level":"中度失调","road_density":31.1737,"walk_accessibility":0.3295,"metro_line_density":1.3986,"station_count":2,"line_count":2,"population_density":14598.1039,"poi_density":0.6086,"poi_diversity":0.0,"gdp_density":117689.3014,"P":14598.1039,"I":0.6086,"G":117689.3014},{"stationName":"深圳太安(地铁站)","station_id":"深圳太安(地铁站)_22.57617_114.13205","lineId":"深圳地铁5号线 / 深圳地铁7号线","lat":22.576174695,"lon":114.13205325999999,"area_km2":2.1771,"D":0.3724,"C":0.7437,"T":0.1865,"U1":0.3111,"U2":0.0618,"couplingDegree":0.3724,"level":"中度失调","road_density":33.7748,"walk_accessibility":0.4365,"metro_line_density":2.4586,"station_count":4,"line_count":3,"population_density":15078.9211,"poi_density":0.4593,"poi_diversity":0.0,"gdp_density":124039.0422,"P":15078.9211,"I":0.4593,"G":124039.0422},{"stationName":"深圳怡景(地铁站)","station_id":"深圳怡景(地铁站)_22.55857_114.13506","lineId":"深圳地铁5号线","lat":22.55857157,"lon":114.13505675,"area_km2":2.3197,"D":0.4431,"C":0.9706,"T":0.2023,"U1":0.251,"U2":0.1536,"couplingDegree":0.4431,"level":"勉强协调","road_density":29.088,"walk_accessibility":0.4651,"metro_line_density":1.3465,"station_count":3,"line_count":3,"population_density":44028.0937,"poi_density":0.4311,"poi_diversity":0.0,"gdp_density":312426.0142,"P":44028.0937,"I":0.4311,"G":312426.0142},{"stationName":"深圳东门(地铁站)","station_id":"深圳东门(地铁站)_22.54568_114.11230","lineId":"深圳地铁5号线","lat":22.54568342,"lon":114.112295115,"area_km2":3.0922,"D":0.8422,"C":0.9839,"T":0.7209,"U1":0.8499,"U2":0.5919,"couplingDegree":0.8422,"level":"优质协调","road_density":34.1867,"walk_accessibility":0.62,"metro_line_density":9.6369,"station_count":10,"line_count":6,"population_density":69340.6835,"poi_density":6.1445,"poi_diversity":2.302,"gdp_density":527743.7552,"P":69340.6835,"I":6.1445,"G":527743.7552},{"stationName":"深圳八卦岭(地铁站)","station_id":"深圳八卦岭(地铁站)_22.56414_114.08893","lineId":"深圳地铁6号线 / 深圳地铁7号线","lat":22.564140565,"lon":114.08893381,"area_km2":2.7687,"D":0.4066,"C":0.6754,"T":0.2448,"U1":0.4253,"U2":0.0643,"couplingDegree":0.4066,"level":"勉强协调","road_density":41.9028,"walk_accessibility":0.5551,"metro_line_density":5.8037,"station_count":5,"line_count":3,"population_density":21679.8637,"poi_density":0.3612,"poi_diversity":0.0,"gdp_density":91095.9875,"P":21679.8637,"I":0.3612,"G":91095.9875},{"stationName":"深圳深大丽湖(地铁站)","station_id":"深圳深大丽湖(地铁站)_22.59555_113.98454","lineId":"深圳地铁27号线 / 深圳地铁7号线","lat":22.595549903333335,"lon":113.98454029666668,"area_km2":2.2813,"D":0.2861,"C":0.5162,"T":0.1586,"U1":0.2944,"U2":0.0228,"couplingDegree":0.2861,"level":"中度失调","road_density":30.2278,"walk_accessibility":0.4574,"metro_line_density":3.6981,"station_count":3,"line_count":3,"population_density":2845.2662,"poi_density":0.0,"poi_diversity":0.0,"gdp_density":80217.7909,"P":2845.2662,"I":0.0,"G":80217.7909},{"stationName":"深圳北大(地铁站)","station_id":"深圳北大(地铁站)_22.59691_113.97338","lineId":"深圳地铁7号线","lat":22.596913283333333,"lon":113.97338153333332,"area_km2":1.2185,"D":0.2621,"C":0.5572,"T":0.1233,"U1":0.2256,"U2":0.0209,"couplingDegree":0.2621,"level":"中度失调","road_density":26.7172,"walk_accessibility":0.2443,"metro_line_density":6.3202,"station_count":2,"line_count":2,"population_density":1046.4109,"poi_density":0.0,"poi_diversity":0.0,"gdp_density":85990.767,"P":1046.4109,"I":0.0,"G":85990.767},{"stationName":"深圳西丽湖(地铁站)","station_id":"深圳西丽湖(地铁站)_22.59653_113.96073","lineId":"深圳地铁7号线","lat":22.596526474999997,"lon":113.960733545,"area_km2":2.1615,"D":0.2348,"C":0.8021,"T":0.0687,"U1":0.1098,"U2":0.0277,"couplingDegree":0.2348,"level":"中度失调","road_density":29.6348,"walk_accessibility":0.4334,"metro_line_density":4.4316,"station_count":1,"line_count":1,"population_density":1179.2786,"poi_density":0.4626,"poi_diversity":0.0,"gdp_density":79033.8732,"P":1179.2786,"I":0.4626,"G":79033.8732},{"stationName":"深圳茶光(地铁站)","station_id":"深圳茶光(地铁站)_22.57713_113.94942","lineId":"深圳地铁7号线","lat":22.57712817,"lon":113.94941739,"area_km2":2.3298,"D":0.3524,"C":0.7858,"T":0.1581,"U1":0.2559,"U2":0.0603,"couplingDegree":0.3524,"level":"中度失调","road_density":28.7747,"walk_accessibility":0.4671,"metro_line_density":5.1327,"station_count":3,"line_count":2,"population_density":3717.9474,"poi_density":0.0,"poi_diversity":0.0,"gdp_density":242480.6088,"P":3717.9474,"I":0.0,"G":242480.6088},{"stationName":"深圳珠光(地铁站)","station_id":"深圳珠光(地铁站)_22.57125_113.95565","lineId":"深圳地铁7号线","lat":22.57124634,"lon":113.95565471,"area_km2":1.7368,"D":0.3027,"C":0.8837,"T":0.1037,"U1":0.1522,"U2":0.0551,"couplingDegree":0.3027,"level":"中度失调","road_density":26.904,"walk_accessibility":0.3482,"metro_line_density":5.3608,"station_count":2,"line_count":1,"population_density":3593.9702,"poi_density":0.0,"poi_diversity":0.0,"gdp_density":220223.2309,"P":3593.9702,"I":0.0,"G":220223.2309},{"stationName":"深圳龙井(地铁站)","station_id":"深圳龙井(地铁站)_22.56695_113.96975","lineId":"深圳地铁7号线","lat":22.56695015,"lon":113.96975318,"area_km2":1.9837,"D":0.2892,"C":0.9634,"T":0.0868,"U1":0.1101,"U2":0.0636,"couplingDegree":0.2892,"level":"中度失调","road_density":26.4398,"walk_accessibility":0.3977,"metro_line_density":2.8853,"station_count":2,"line_count":1,"population_density":10258.551,"poi_density":0.0,"poi_diversity":0.0,"gdp_density":205906.7617,"P":10258.551,"I":0.0,"G":205906.7617},{"stationName":"深圳桃源村(地铁站)","station_id":"深圳桃源村(地铁站)_22.56282_113.97701","lineId":"深圳地铁7号线","lat":22.56282058,"lon":113.97701017,"area_km2":2.3101,"D":0.2581,"C":0.8946,"T":0.0745,"U1":0.1078,"U2":0.0412,"couplingDegree":0.2581,"level":"中度失调","road_density":28.552,"walk_accessibility":0.4632,"metro_line_density":2.3599,"station_count":2,"line_count":1,"population_density":5244.3418,"poi_density":0.4329,"poi_diversity":0.0,"gdp_density":110330.086,"P":5244.3418,"I":0.4329,"G":110330.086},{"stationName":"深圳深云(地铁站)","station_id":"深圳深云(地铁站)_22.55942_113.98875","lineId":"深圳地铁7号线","lat":22.55942189,"lon":113.98874705,"area_km2":1.8609,"D":0.278,"C":0.7603,"T":0.1016,"U1":0.1676,"U2":0.0356,"couplingDegree":0.278,"level":"中度失调","road_density":32.6623,"walk_accessibility":0.3731,"metro_line_density":2.1643,"station_count":2,"line_count":2,"population_density":3554.1135,"poi_density":0.0,"poi_diversity":0.0,"gdp_density":132541.1904,"P":3554.1135,"I":0.0,"G":132541.1904},{"stationName":"深圳农林(地铁站)","station_id":"深圳农林(地铁站)_22.54322_114.01310","lineId":"深圳地铁7号线","lat":22.543224029999998,"lon":114.01309501,"area_km2":2.6327,"D":0.4063,"C":0.77,"T":0.2144,"U1":0.3512,"U2":0.0776,"couplingDegree":0.4063,"level":"勉强协调","road_density":36.4198,"walk_accessibility":0.5278,"metro_line_density":4.1637,"station_count":4,"line_count":3,"population_density":22117.5332,"poi_density":0.3798,"poi_diversity":0.0,"gdp_density":146209.5887,"P":22117.5332,"I":0.3798,"G":146209.5887},{"stationName":"深圳上沙(地铁站)","station_id":"深圳上沙(地铁站)_22.52635_114.03122","lineId":"深圳地铁22号线 / 深圳地铁7号线","lat":22.526354275,"lon":114.031220315,"area_km2":2.3642,"D":0.5038,"C":0.9382,"T":0.2706,"U1":0.1769,"U2":0.3643,"couplingDegree":0.5038,"level":"勉强协调","road_density":27.2089,"walk_accessibility":0.474,"metro_line_density":2.7894,"station_count":2,"line_count":2,"population_density":48920.7419,"poi_density":1.269,"poi_diversity":1.0986,"gdp_density":627117.6286,"P":48920.7419,"I":1.269,"G":627117.6286},{"stationName":"深圳沙尾(地铁站)","station_id":"深圳沙尾(地铁站)_22.52355_114.03749","lineId":"深圳地铁7号线","lat":22.5235481,"lon":114.03748869,"area_km2":2.7217,"D":0.5745,"C":0.9992,"T":0.3303,"U1":0.3168,"U2":0.3438,"couplingDegree":0.5745,"level":"勉强协调","road_density":25.9291,"walk_accessibility":0.5457,"metro_line_density":3.0528,"station_count":4,"line_count":3,"population_density":35731.5567,"poi_density":2.5719,"poi_diversity":1.079,"gdp_density":545014.8113,"P":35731.5567,"I":2.5719,"G":545014.8113},{"stationName":"深圳皇岗村(地铁站)","station_id":"深圳皇岗村(地铁站)_22.52585_114.05471","lineId":"深圳地铁7号线","lat":22.52585215,"lon":114.05470848,"area_km2":2.8025,"D":0.6082,"C":0.9827,"T":0.3765,"U1":0.4462,"U2":0.3067,"couplingDegree":0.6082,"level":"良好协调","road_density":30.9535,"walk_accessibility":0.5619,"metro_line_density":4.3469,"station_count":5,"line_count":4,"population_density":24933.6058,"poi_density":1.4273,"poi_diversity":1.0397,"gdp_density":571981.221,"P":24933.6058,"I":1.4273,"G":571981.221},{"stationName":"深圳皇岗口岸(地铁站)","station_id":"深圳皇岗口岸(地铁站)_22.52449_114.06885","lineId":"深圳地铁7号线","lat":22.52449458,"lon":114.06884589,"area_km2":1.2877,"D":0.438,"C":0.9012,"T":0.2129,"U1":0.3051,"U2":0.1206,"couplingDegree":0.438,"level":"勉强协调","road_density":43.5636,"walk_accessibility":0.2582,"metro_line_density":1.9235,"station_count":4,"line_count":3,"population_density":11017.0364,"poi_density":1.5531,"poi_diversity":0.6931,"gdp_density":0.0,"P":11017.0364,"I":1.5531,"G":0.0},{"stationName":"深圳福邻(地铁站)","station_id":"深圳福邻(地铁站)_22.52734_114.07613","lineId":"深圳地铁7号线","lat":22.52734449,"lon":114.076134975,"area_km2":1.3237,"D":0.4391,"C":0.9875,"T":0.1952,"U1":0.1644,"U2":0.226,"couplingDegree":0.4391,"level":"勉强协调","road_density":37.9126,"walk_accessibility":0.2654,"metro_line_density":3.4654,"station_count":3,"line_count":1,"population_density":10717.5116,"poi_density":1.5109,"poi_diversity":0.6931,"gdp_density":480697.6174,"P":10717.5116,"I":1.5109,"G":480697.6174},{"stationName":"深圳赤尾(地铁站)","station_id":"深圳赤尾(地铁站)_22.53406_114.07847","lineId":"深圳地铁7号线","lat":22.53406083,"lon":114.07846996,"area_km2":2.038,"D":0.5687,"C":0.992,"T":0.326,"U1":0.3672,"U2":0.2848,"couplingDegree":0.5687,"level":"勉强协调","road_density":30.7125,"walk_accessibility":0.4086,"metro_line_density":3.9781,"station_count":5,"line_count":3,"population_density":36968.4024,"poi_density":1.9627,"poi_diversity":1.0397,"gdp_density":336713.7604,"P":36968.4024,"I":1.9627,"G":336713.7604},{"stationName":"深圳华强南(地铁站)","station_id":"深圳华强南(地铁站)_22.54052_114.08278","lineId":"深圳地铁11号线 / 深圳地铁7号线","lat":22.540516945,"lon":114.08277976,"area_km2":2.5999,"D":0.766,"C":0.9836,"T":0.5965,"U1":0.704,"U2":0.4889,"couplingDegree":0.766,"level":"良好协调","road_density":30.3212,"walk_accessibility":0.5213,"metro_line_density":6.0586,"station_count":8,"line_count":6,"population_density":76907.2696,"poi_density":6.1542,"poi_diversity":1.9601,"gdp_density":168583.6359,"P":76907.2696,"I":6.1542,"G":168583.6359},{"stationName":"深圳黄木岗(地铁站)","station_id":"深圳黄木岗(地铁站)_22.55847_114.08145","lineId":"深圳地铁7号线","lat":22.5584748,"lon":114.08145085,"area_km2":2.8203,"D":0.6112,"C":0.9937,"T":0.376,"U1":0.3338,"U2":0.4182,"couplingDegree":0.6112,"level":"良好协调","road_density":34.0921,"walk_accessibility":0.5655,"metro_line_density":5.2065,"station_count":3,"line_count":3,"population_density":57035.5742,"poi_density":4.2549,"poi_diversity":1.9073,"gdp_density":180779.7157,"P":57035.5742,"I":4.2549,"G":180779.7157},{"stationName":"深圳红岭北(地铁站)","station_id":"深圳红岭北(地铁站)_22.56474_114.09947","lineId":"深圳地铁7号线 / 深圳地铁9号线","lat":22.564735245,"lon":114.09946687,"area_km2":3.0913,"D":0.5634,"C":0.9245,"T":0.3433,"U1":0.4742,"U2":0.2124,"couplingDegree":0.5634,"level":"勉强协调","road_density":37.9758,"walk_accessibility":0.6198,"metro_line_density":5.1329,"station_count":5,"line_count":4,"population_density":31791.2317,"poi_density":0.9705,"poi_diversity":1.0986,"gdp_density":100870.1572,"P":31791.2317,"I":0.9705,"G":100870.1572},{"stationName":"深圳笋岗(地铁站)","station_id":"深圳笋岗(地铁站)_22.56638_114.10673","lineId":"深圳地铁17号线 / 深圳地铁7号线","lat":22.56638148,"lon":114.10672694,"area_km2":2.481,"D":0.5124,"C":0.9458,"T":0.2776,"U1":0.3677,"U2":0.1874,"couplingDegree":0.5124,"level":"勉强协调","road_density":35.6347,"walk_accessibility":0.4974,"metro_line_density":5.2492,"station_count":4,"line_count":3,"population_density":40818.2291,"poi_density":0.8061,"poi_diversity":0.6931,"gdp_density":126195.8846,"P":40818.2291,"I":0.8061,"G":126195.8846},{"stationName":"深圳洪湖(地铁站)","station_id":"深圳洪湖(地铁站)_22.56875_114.11737","lineId":"深圳地铁7号线","lat":22.56874771,"lon":114.11737136,"area_km2":2.6677,"D":0.5877,"C":0.9997,"T":0.3455,"U1":0.337,"U2":0.354,"couplingDegree":0.5877,"level":"勉强协调","road_density":33.7068,"walk_accessibility":0.5349,"metro_line_density":3.5739,"station_count":4,"line_count":3,"population_density":50839.485,"poi_density":3.3737,"poi_diversity":1.5811,"gdp_density":167214.8761,"P":50839.485,"I":3.3737,"G":167214.8761},{"stationName":"深圳文锦(地铁站)","station_id":"深圳文锦(地铁站)_22.54516_114.12605","lineId":"深圳地铁9号线","lat":22.54515736,"lon":114.12604705,"area_km2":2.4071,"D":0.6492,"C":0.9972,"T":0.4227,"U1":0.4542,"U2":0.3912,"couplingDegree":0.6492,"level":"良好协调","road_density":29.8894,"walk_accessibility":0.4826,"metro_line_density":5.147,"station_count":5,"line_count":4,"population_density":33701.8096,"poi_density":4.9853,"poi_diversity":1.6609,"gdp_density":303628.4905,"P":33701.8096,"I":4.9853,"G":303628.4905},{"stationName":"深圳向西村(地铁站)","station_id":"深圳向西村(地铁站)_22.54249_114.12068","lineId":"深圳地铁9号线","lat":22.54248911,"lon":114.12068105,"area_km2":2.1645,"D":0.8083,"C":0.9861,"T":0.6625,"U1":0.7728,"U2":0.5523,"couplingDegree":0.8083,"level":"优质协调","road_density":32.7814,"walk_accessibility":0.434,"metro_line_density":8.0348,"station_count":9,"line_count":6,"population_density":60091.6405,"poi_density":3.234,"poi_diversity":1.5498,"gdp_density":1013774.1395,"P":60091.6405,"I":3.234,"G":1013774.1395},{"stationName":"深圳人民南(地铁站)","station_id":"深圳人民南(地铁站)_22.53820_114.11305","lineId":"深圳地铁9号线","lat":22.53820353,"lon":114.11305445,"area_km2":2.3527,"D":0.7988,"C":0.9809,"T":0.6504,"U1":0.7768,"U2":0.524,"couplingDegree":0.7988,"level":"良好协调","road_density":36.2098,"walk_accessibility":0.4717,"metro_line_density":7.8488,"station_count":9,"line_count":6,"population_density":66079.265,"poi_density":6.3757,"poi_diversity":1.4878,"gdp_density":622029.4253,"P":66079.265,"I":6.3757,"G":622029.4253},{"stationName":"深圳鹿丹村(地铁站)","station_id":"深圳鹿丹村(地铁站)_22.53839_114.10351","lineId":"深圳地铁9号线","lat":22.53839292,"lon":114.103512,"area_km2":1.9495,"D":0.6564,"C":0.9211,"T":0.4678,"U1":0.6499,"U2":0.2857,"couplingDegree":0.6564,"level":"良好协调","road_density":38.1449,"walk_accessibility":0.3909,"metro_line_density":8.285,"station_count":7,"line_count":5,"population_density":39283.0185,"poi_density":2.5648,"poi_diversity":1.6094,"gdp_density":0.0,"P":39283.0185,"I":2.5648,"G":0.0},{"stationName":"深圳红岭南(地铁站)","station_id":"深圳红岭南(地铁站)_22.54166_114.10064","lineId":"深圳地铁11号线 / 深圳地铁9号线","lat":22.541656973333335,"lon":114.10064043333334,"area_km2":2.4704,"D":0.8212,"C":0.9868,"T":0.6833,"U1":0.7939,"U2":0.5727,"couplingDegree":0.8212,"level":"优质协调","road_density":37.755,"walk_accessibility":0.4953,"metro_line_density":7.4438,"station_count":6,"line_count":8,"population_density":74394.1226,"poi_density":5.667,"poi_diversity":2.342,"gdp_density":419938.1367,"P":74394.1226,"I":5.667,"G":419938.1367},{"stationName":"深圳园岭(地铁站)","station_id":"深圳园岭(地铁站)_22.55880_114.09938","lineId":"深圳地铁9号线","lat":22.55880294,"lon":114.09937506,"area_km2":3.1972,"D":0.6205,"C":0.9388,"T":0.4102,"U1":0.5514,"U2":0.2689,"couplingDegree":0.6205,"level":"良好协调","road_density":39.3031,"walk_accessibility":0.641,"metro_line_density":3.808,"station_count":6,"line_count":5,"population_density":50988.7251,"poi_density":1.2511,"poi_diversity":1.0397,"gdp_density":211013.3573,"P":50988.7251,"I":1.2511,"G":211013.3573},{"stationName":"深圳泥岗(地铁站)","station_id":"深圳泥岗(地铁站)_22.57048_114.09251","lineId":"深圳地铁9号线","lat":22.57048406,"lon":114.09250794,"area_km2":2.1156,"D":0.3649,"C":0.653,"T":0.2039,"U1":0.3584,"U2":0.0495,"couplingDegree":0.3649,"level":"中度失调","road_density":44.9993,"walk_accessibility":0.4242,"metro_line_density":6.1578,"station_count":3,"line_count":3,"population_density":5954.3257,"poi_density":0.4727,"poi_diversity":0.0,"gdp_density":139008.2399,"P":5954.3257,"I":0.4727,"G":139008.2399},{"stationName":"深圳孖岭(地铁站)","station_id":"深圳孖岭(地铁站)_22.57047_114.06210","lineId":"深圳地铁10号线 / 深圳地铁9号线","lat":22.570474835,"lon":114.06210177,"area_km2":2.7119,"D":0.4797,"C":0.9279,"T":0.248,"U1":0.3404,"U2":0.1555,"couplingDegree":0.4797,"level":"勉强协调","road_density":32.9118,"walk_accessibility":0.5437,"metro_line_density":5.748,"station_count":3,"line_count":3,"population_density":16224.3007,"poi_density":0.7375,"poi_diversity":0.6931,"gdp_density":180611.4094,"P":16224.3007,"I":0.7375,"G":180611.4094},{"stationName":"深圳梅村(地铁站)","station_id":"深圳梅村(地铁站)_22.57117_114.04731","lineId":"深圳地铁9号线","lat":22.57116913,"lon":114.04731465,"area_km2":2.3598,"D":0.3452,"C":0.6975,"T":0.1709,"U1":0.2934,"U2":0.0484,"couplingDegree":0.3452,"level":"中度失调","road_density":32.4301,"walk_accessibility":0.4731,"metro_line_density":4.9533,"station_count":4,"line_count":2,"population_density":9049.0159,"poi_density":0.4238,"poi_diversity":0.0,"gdp_density":113809.6811,"P":9049.0159,"I":0.4238,"G":113809.6811},{"stationName":"深圳下梅林(地铁站)","station_id":"深圳下梅林(地铁站)_22.56842_114.03668","lineId":"深圳地铁9号线","lat":22.56842138,"lon":114.03667671,"area_km2":2.2711,"D":0.5315,"C":0.8405,"T":0.336,"U1":0.154,"U2":0.5181,"couplingDegree":0.5315,"level":"勉强协调","road_density":26.9678,"walk_accessibility":0.4554,"metro_line_density":3.1429,"station_count":3,"line_count":1,"population_density":13562.0422,"poi_density":11.0078,"poi_diversity":2.6361,"gdp_density":88472.5006,"P":13562.0422,"I":11.0078,"G":88472.5006},{"stationName":"深圳梅景(地铁站)","station_id":"深圳梅景(地铁站)_22.56379_114.03285","lineId":"深圳地铁9号线","lat":22.56378698,"lon":114.03284924,"area_km2":2.6115,"D":0.6463,"C":0.9178,"T":0.4551,"U1":0.2744,"U2":0.6358,"couplingDegree":0.6463,"level":"良好协调","road_density":27.4327,"walk_accessibility":0.5236,"metro_line_density":4.1392,"station_count":4,"line_count":2,"population_density":10432.8894,"poi_density":18.3799,"poi_diversity":2.4493,"gdp_density":152902.7521,"P":10432.8894,"I":18.3799,"G":152902.7521},{"stationName":"深圳香梅(地铁站)","station_id":"深圳香梅(地铁站)_22.54825_114.03454","lineId":"深圳地铁9号线","lat":22.54824553,"lon":114.03453818,"area_km2":2.2511,"D":0.5849,"C":0.9946,"T":0.344,"U1":0.3796,"U2":0.3083,"couplingDegree":0.5849,"level":"勉强协调","road_density":25.5032,"walk_accessibility":0.4513,"metro_line_density":4.957,"station_count":5,"line_count":3,"population_density":16533.5773,"poi_density":3.5539,"poi_diversity":1.4942,"gdp_density":258089.5943,"P":16533.5773,"I":3.5539,"G":258089.5943},{"stationName":"深圳下沙(地铁站)","station_id":"深圳下沙(地铁站)_22.53179_114.01911","lineId":"深圳地铁9号线","lat":22.53179026,"lon":114.01910891,"area_km2":2.7731,"D":0.5168,"C":0.9828,"T":0.2718,"U1":0.322,"U2":0.2216,"couplingDegree":0.5168,"level":"勉强协调","road_density":33.3142,"walk_accessibility":0.556,"metro_line_density":4.6482,"station_count":3,"line_count":3,"population_density":30512.9724,"poi_density":1.0818,"poi_diversity":1.0986,"gdp_density":143395.8246,"P":30512.9724,"I":1.0818,"G":143395.8246},{"stationName":"深圳深圳湾公园(地铁站)","station_id":"深圳深圳湾公园(地铁站)_22.52448_113.98814","lineId":"深圳地铁9号线","lat":22.52448127,"lon":113.98813754,"area_km2":1.8243,"D":0.4686,"C":0.9976,"T":0.2201,"U1":0.2048,"U2":0.2355,"couplingDegree":0.4686,"level":"勉强协调","road_density":35.7042,"walk_accessibility":0.3658,"metro_line_density":4.0105,"station_count":2,"line_count":2,"population_density":1343.4988,"poi_density":3.837,"poi_diversity":1.5498,"gdp_density":0.0,"P":1343.4988,"I":3.837,"G":0.0},{"stationName":"深圳深湾(地铁站)","station_id":"深圳深湾(地铁站)_22.52601_113.97368","lineId":"深圳地铁9号线","lat":22.52601086,"lon":113.97367958,"area_km2":1.3165,"D":0.1426,"C":0.1107,"T":0.1838,"U1":0.3666,"U2":0.0011,"couplingDegree":0.1426,"level":"极度失调","road_density":31.5236,"walk_accessibility":0.264,"metro_line_density":8.2635,"station_count":3,"line_count":3,"population_density":648.6997,"poi_density":0.0,"poi_diversity":0.0,"gdp_density":0.0,"P":648.6997,"I":0.0,"G":0.0},{"stationName":"深圳红树湾南(地铁站)","station_id":"深圳红树湾南(地铁站)_22.52597_113.96699","lineId":"深圳地铁29号线 / 深圳地铁9号线","lat":22.52597433,"lon":113.96698662,"area_km2":1.432,"D":0.2545,"C":0.3243,"T":0.1997,"U1":0.3886,"U2":0.0108,"couplingDegree":0.2545,"level":"中度失调","road_density":29.8306,"walk_accessibility":0.2871,"metro_line_density":9.5544,"station_count":3,"line_count":3,"population_density":6197.5324,"poi_density":0.0,"poi_diversity":0.0,"gdp_density":0.0,"P":6197.5324,"I":0.0,"G":0.0},{"stationName":"深圳高新南(地铁站)","station_id":"深圳高新南(地铁站)_22.53580_113.94511","lineId":"深圳地铁9号线","lat":22.53579978,"lon":113.94511483,"area_km2":3.1558,"D":0.412,"C":0.6573,"T":0.2582,"U1":0.4528,"U2":0.0636,"couplingDegree":0.412,"level":"勉强协调","road_density":38.0411,"walk_accessibility":0.6327,"metro_line_density":3.8897,"station_count":5,"line_count":4,"population_density":7318.5615,"poi_density":0.3169,"poi_diversity":0.0,"gdp_density":204239.2318,"P":7318.5615,"I":0.3169,"G":204239.2318},{"stationName":"深圳粤海门(地铁站)","station_id":"深圳粤海门(地铁站)_22.53571_113.94065","lineId":"深圳地铁9号线","lat":22.53570609,"lon":113.94065196,"area_km2":3.3863,"D":0.3941,"C":0.5064,"T":0.3067,"U1":0.5712,"U2":0.0422,"couplingDegree":0.3941,"level":"中度失调","road_density":38.0486,"walk_accessibility":0.6789,"metro_line_density":4.8843,"station_count":6,"line_count":5,"population_density":4819.4724,"poi_density":0.2953,"poi_diversity":0.0,"gdp_density":129206.969,"P":4819.4724,"I":0.2953,"G":129206.969},{"stationName":"深圳深大南(地铁站)","station_id":"深圳深大南(地铁站)_22.52904_113.93081","lineId":"深圳地铁15号线 / 深圳地铁9号线","lat":22.529042513333334,"lon":113.93080615666668,"area_km2":3.2377,"D":0.7,"C":1.0,"T":0.49,"U1":0.4898,"U2":0.4902,"couplingDegree":0.7,"level":"良好协调","road_density":44.5421,"walk_accessibility":0.6491,"metro_line_density":5.3602,"station_count":5,"line_count":4,"population_density":3151.6535,"poi_density":10.5014,"poi_diversity":2.6647,"gdp_density":70559.6359,"P":3151.6535,"I":10.5014,"G":70559.6359},{"stationName":"深圳南山书城(地铁站)","station_id":"深圳南山书城(地铁站)_22.52163_113.92348","lineId":"深圳地铁9号线","lat":22.52162783,"lon":113.92347926,"area_km2":3.1694,"D":0.6695,"C":0.9916,"T":0.4521,"U1":0.3936,"U2":0.5106,"couplingDegree":0.6695,"level":"良好协调","road_density":41.4901,"walk_accessibility":0.6355,"metro_line_density":5.7439,"station_count":4,"line_count":3,"population_density":17785.8035,"poi_density":11.6742,"poi_diversity":2.4426,"gdp_density":62412.8835,"P":17785.8035,"I":11.6742,"G":62412.8835},{"stationName":"深圳南油(地铁站)","station_id":"深圳南油(地铁站)_22.51339_113.92094","lineId":"深圳地铁9号线","lat":22.51338804,"lon":113.92093612,"area_km2":2.8934,"D":0.5664,"C":0.9979,"T":0.3215,"U1":0.3008,"U2":0.3421,"couplingDegree":0.5664,"level":"勉强协调","road_density":32.2419,"walk_accessibility":0.5801,"metro_line_density":5.0238,"station_count":4,"line_count":2,"population_density":6669.3304,"poi_density":4.493,"poi_diversity":2.3517,"gdp_density":0.0,"P":6669.3304,"I":4.493,"G":0.0},{"stationName":"深圳南油西(地铁站)","station_id":"深圳南油西(地铁站)_22.51212_113.91354","lineId":"深圳地铁9号线","lat":22.51212199,"lon":113.91354313,"area_km2":2.5468,"D":0.3903,"C":0.9897,"T":0.1539,"U1":0.176,"U2":0.1319,"couplingDegree":0.3903,"level":"中度失调","road_density":29.6268,"walk_accessibility":0.5106,"metro_line_density":3.963,"station_count":3,"line_count":1,"population_density":5927.3726,"poi_density":0.7853,"poi_diversity":0.6931,"gdp_density":151145.5467,"P":5927.3726,"I":0.7853,"G":151145.5467},{"stationName":"深圳荔林(地铁站)","station_id":"深圳荔林(地铁站)_22.51496_113.90827","lineId":"深圳地铁9号线","lat":22.51495587,"lon":113.90826975,"area_km2":2.4566,"D":0.3654,"C":0.9987,"T":0.1337,"U1":0.1406,"U2":0.1268,"couplingDegree":0.3654,"level":"中度失调","road_density":29.0223,"walk_accessibility":0.4925,"metro_line_density":2.1016,"station_count":3,"line_count":1,"population_density":48852.9419,"poi_density":0.4071,"poi_diversity":0.0,"gdp_density":155715.8519,"P":48852.9419,"I":0.4071,"G":155715.8519},{"stationName":"深圳怡海(地铁站)","station_id":"深圳怡海(地铁站)_22.51799_113.89890","lineId":"深圳地铁9号线","lat":22.51798743,"lon":113.89889623,"area_km2":2.7291,"D":0.4146,"C":0.9293,"T":0.185,"U1":0.2533,"U2":0.1167,"couplingDegree":0.4146,"level":"勉强协调","road_density":35.9899,"walk_accessibility":0.5472,"metro_line_density":2.1777,"station_count":4,"line_count":2,"population_density":7591.9989,"poi_density":0.7329,"poi_diversity":0.6931,"gdp_density":73712.9077,"P":7591.9989,"I":0.7329,"G":73712.9077},{"stationName":"深圳梦海(地铁站)","station_id":"深圳梦海(地铁站)_22.52198_113.89394","lineId":"深圳地铁9号线","lat":22.52197995,"lon":113.89393962,"area_km2":2.7229,"D":0.0623,"C":0.0286,"T":0.1356,"U1":0.2712,"U2":0.0001,"couplingDegree":0.0623,"level":"极度失调","road_density":42.4812,"walk_accessibility":0.5459,"metro_line_density":2.6459,"station_count":4,"line_count":2,"population_density":31.9511,"poi_density":0.0,"poi_diversity":0.0,"gdp_density":0.0,"P":31.9511,"I":0.0,"G":0.0},{"stationName":"深圳福星(地铁站)","station_id":"深圳福星(地铁站)_22.54008_114.07641","lineId":"深圳地铁11号线","lat":22.5400758,"lon":114.07640846,"area_km2":2.6868,"D":0.6606,"C":0.9908,"T":0.4404,"U1":0.5001,"U2":0.3807,"couplingDegree":0.6606,"level":"良好协调","road_density":32.547,"walk_accessibility":0.5387,"metro_line_density":7.2987,"station_count":5,"line_count":4,"population_density":53956.4877,"poi_density":2.6053,"poi_diversity":1.5498,"gdp_density":338477.6609,"P":53956.4877,"I":2.6053,"G":338477.6609},