{"cityCode":"510100","year":2020,"stations":[{"stationName":"成都韦家碾(地铁站)","station_id":"成都韦家碾(地铁站)_30.72083_104.08385","lineId":"成都地铁1号线 / 成都成都S11号线(德阳线)(韦家碾--德阳北站)","lat":30.72082873,"lon":104.08385342,"area_km2":1.6505,"D":0.1882,"C":0.3864,"T":0.0917,"U1":0.1763,"U2":0.0071,"couplingDegree":0.1882,"level":"极度失调","road_density":27.2158,"walk_accessibility":0.3309,"metro_line_density":3.2387,"station_count":1,"line_count":2,"population_density":5589.9389,"poi_density":0.0,"poi_diversity":0.0,"gdp_density":0.0,"P":5589.9389,"I":0.0,"G":0.0},{"stationName":"成都升仙湖(地铁站)","station_id":"成都升仙湖(地铁站)_30.70701_104.08094","lineId":"成都地铁1号线","lat":30.70700627,"lon":104.08093818,"area_km2":1.1795,"D":0.0,"C":0.0,"T":0.0303,"U1":0.0607,"U2":0.0,"couplingDegree":0.0,"level":"极度失调","road_density":23.8426,"walk_accessibility":0.2365,"metro_line_density":3.6751,"station_count":1,"line_count":1,"population_density":0.0,"poi_density":0.0,"poi_diversity":0.0,"gdp_density":0.0,"P":0.0,"I":0.0,"G":0.0},{"stationName":"成都火车北站(地铁站)","station_id":"成都火车北站(地铁站)_30.69790_104.07152","lineId":"成都地铁18号线 / 成都地铁1号线","lat":30.697896765,"lon":104.07152233,"area_km2":1.4845,"D":0.5936,"C":0.8323,"T":0.4234,"U1":0.658,"U2":0.1887,"couplingDegree":0.5936,"level":"勉强协调","road_density":25.5147,"walk_accessibility":0.2976,"metro_line_density":7.746,"station_count":4,"line_count":5,"population_density":61884.572,"poi_density":2.6946,"poi_diversity":1.3863,"gdp_density":0.0,"P":61884.572,"I":2.6946,"G":0.0},{"stationName":"成都人民北路(地铁站)","station_id":"成都人民北路(地铁站)_30.68776_104.07003","lineId":"成都地铁1号线 / 成都地铁6号线","lat":30.687759030000002,"lon":104.07002592500001,"area_km2":1.984,"D":0.7806,"C":0.946,"T":0.6441,"U1":0.8529,"U2":0.4354,"couplingDegree":0.7806,"level":"良好协调","road_density":18.2711,"walk_accessibility":0.3978,"metro_line_density":13.6863,"station_count":5,"line_count":6,"population_density":96816.7145,"poi_density":22.6815,"poi_diversity":2.4155,"gdp_density":0.0,"P":96816.7145,"I":22.6815,"G":0.0},{"stationName":"成都文殊院(地铁站)","station_id":"成都文殊院(地铁站)_30.67495_104.06552","lineId":"成都地铁1号线","lat":30.67494641,"lon":104.06552465,"area_km2":3.0021,"D":0.6719,"C":1.0,"T":0.4514,"U1":0.4502,"U2":0.4526,"couplingDegree":0.6719,"level":"良好协调","road_density":22.1907,"walk_accessibility":0.6019,"metro_line_density":6.8563,"station_count":4,"line_count":3,"population_density":48912.5082,"poi_density":31.6448,"poi_diversity":2.6892,"gdp_density":0.0,"P":48912.5082,"I":31.6448,"G":0.0},{"stationName":"成都骡马市(地铁站)","station_id":"成都骡马市(地铁站)_30.66919_104.06343","lineId":"成都地铁1号线 / 成都地铁4号线","lat":30.669185919999997,"lon":104.06343204000001,"area_km2":3.106,"D":0.7345,"C":0.9451,"T":0.5708,"U1":0.7574,"U2":0.3843,"couplingDegree":0.7345,"level":"良好协调","road_density":23.4212,"walk_accessibility":0.6227,"metro_line_density":7.5328,"station_count":6,"line_count":5,"population_density":44323.8934,"poi_density":23.5032,"poi_diversity":2.5705,"gdp_density":0.0,"P":44323.8934,"I":23.5032,"G":0.0},{"stationName":"成都天府广场(地铁站)","station_id":"成都天府广场(地铁站)_30.65956_104.06338","lineId":"成都地铁1号线","lat":30.65956312,"lon":104.06338318,"area_km2":3.3311,"D":0.7463,"C":0.9692,"T":0.5747,"U1":0.7162,"U2":0.4332,"couplingDegree":0.7463,"level":"良好协调","road_density":25.6197,"walk_accessibility":0.6679,"metro_line_density":6.8245,"station_count":5,"line_count":5,"population_density":51755.1831,"poi_density":25.8173,"poi_diversity":2.9311,"gdp_density":0.0,"P":51755.1831,"I":25.8173,"G":0.0},{"stationName":"成都锦江宾馆(地铁站)","station_id":"成都锦江宾馆(地铁站)_30.65247_104.06355","lineId":"成都地铁1号线","lat":30.65247035,"lon":104.06354593,"area_km2":3.048,"D":0.6933,"C":0.9714,"T":0.4948,"U1":0.6123,"U2":0.3773,"couplingDegree":0.6933,"level":"良好协调","road_density":26.3841,"walk_accessibility":0.6111,"metro_line_density":7.2333,"station_count":5,"line_count":4,"population_density":25126.033,"poi_density":23.9505,"poi_diversity":2.7889,"gdp_density":0.0,"P":25126.033,"I":23.9505,"G":0.0},{"stationName":"成都华西坝(地铁站)","station_id":"成都华西坝(地铁站)_30.64567_104.06370","lineId":"成都地铁13号线 / 成都地铁1号线","lat":30.64567355,"lon":104.06369502999999,"area_km2":2.7431,"D":0.6837,"C":0.9486,"T":0.4928,"U1":0.6488,"U2":0.3368,"couplingDegree":0.6837,"level":"良好协调","road_density":24.3383,"walk_accessibility":0.55,"metro_line_density":7.5163,"station_count":6,"line_count":4,"population_density":48813.2466,"poi_density":14.9463,"poi_diversity":2.6337,"gdp_density":0.0,"P":48813.2466,"I":14.9463,"G":0.0},{"stationName":"成都省体育馆(地铁站)","station_id":"成都省体育馆(地铁站)_30.63588_104.06363","lineId":"成都地铁1号线 / 成都地铁3号线","lat":30.63587763,"lon":104.06363431,"area_km2":2.9869,"D":0.6684,"C":0.9298,"T":0.4805,"U1":0.6573,"U2":0.3037,"couplingDegree":0.6684,"level":"良好协调","road_density":23.5813,"walk_accessibility":0.5989,"metro_line_density":6.0711,"station_count":4,"line_count":5,"population_density":25694.9572,"poi_density":10.3786,"poi_diversity":3.0425,"gdp_density":0.0,"P":25694.9572,"I":10.3786,"G":0.0},{"stationName":"成都倪家桥(地铁站)","station_id":"成都倪家桥(地铁站)_30.62727_104.06399","lineId":"成都地铁18号线 / 成都地铁1号线 / 成都地铁8号线","lat":30.627269593333335,"lon":104.06398988333335,"area_km2":3.0066,"D":0.6433,"C":0.9553,"T":0.4332,"U1":0.5613,"U2":0.3051,"couplingDegree":0.6433,"level":"良好协调","road_density":26.3134,"walk_accessibility":0.6028,"metro_line_density":6.4117,"station_count":4,"line_count":4,"population_density":16799.5519,"poi_density":16.9625,"poi_diversity":2.567,"gdp_density":0.0,"P":16799.5519,"I":16.9625,"G":0.0},{"stationName":"成都桐梓林(地铁站)","station_id":"成都桐梓林(地铁站)_30.61775_104.06461","lineId":"成都地铁1号线","lat":30.61774792,"lon":104.06460685,"area_km2":2.6405,"D":0.5976,"C":0.9415,"T":0.3793,"U1":0.5072,"U2":0.2514,"couplingDegree":0.5976,"level":"勉强协调","road_density":27.1106,"walk_accessibility":0.5294,"metro_line_density":5.5028,"station_count":3,"line_count":4,"population_density":13244.2066,"poi_density":13.2552,"poi_diversity":2.2006,"gdp_density":0.0,"P":13244.2066,"I":13.2552,"G":0.0},{"stationName":"成都火车南站(地铁站)","station_id":"成都火车南站(地铁站)_30.60723_104.06476","lineId":"成都地铁18号线 / 成都地铁1号线 / 成都地铁7号线","lat":30.60723415,"lon":104.064760252,"area_km2":2.51,"D":0.5432,"C":0.9193,"T":0.321,"U1":0.4473,"U2":0.1947,"couplingDegree":0.5432,"level":"勉强协调","road_density":30.1828,"walk_accessibility":0.5032,"metro_line_density":5.3094,"station_count":4,"line_count":3,"population_density":10560.3678,"poi_density":4.781,"poi_diversity":2.2539,"gdp_density":0.0,"P":10560.3678,"I":4.781,"G":0.0},{"stationName":"成都高新(地铁站)","station_id":"成都高新(地铁站)_30.59682_104.06135","lineId":"成都地铁1号线","lat":30.59681777,"lon":104.06134696,"area_km2":3.108,"D":0.5765,"C":0.9266,"T":0.3586,"U1":0.4935,"U2":0.2238,"couplingDegree":0.5765,"level":"勉强协调","road_density":29.8077,"walk_accessibility":0.6232,"metro_line_density":2.773,"station_count":3,"line_count":4,"population_density":8526.916,"poi_density":7.0784,"poi_diversity":2.5001,"gdp_density":0.0,"P":8526.916,"I":7.0784,"G":0.0},{"stationName":"成都金融城(地铁站)","station_id":"成都金融城(地铁站)_30.58503_104.06165","lineId":"成都地铁1号线","lat":30.58503344,"lon":104.06164534,"area_km2":2.7404,"D":0.457,"C":0.953,"T":0.2191,"U1":0.2855,"U2":0.1527,"couplingDegree":0.457,"level":"勉强协调","road_density":30.0402,"walk_accessibility":0.5494,"metro_line_density":3.6115,"station_count":3,"line_count":2,"population_density":5359.4877,"poi_density":3.6491,"poi_diversity":1.8344,"gdp_density":0.0,"P":5359.4877,"I":3.6491,"G":0.0},{"stationName":"成都孵化园(地铁站)","station_id":"成都孵化园(地铁站)_30.57818_104.06286","lineId":"成都地铁1号线 / 成都地铁9号线","lat":30.578179115,"lon":104.06286249499999,"area_km2":2.9676,"D":0.4324,"C":0.8527,"T":0.2193,"U1":0.3338,"U2":0.1047,"couplingDegree":0.4324,"level":"勉强协调","road_density":32.4125,"walk_accessibility":0.595,"metro_line_density":3.3401,"station_count":4,"line_count":2,"population_density":3106.5839,"poi_density":1.3479,"poi_diversity":1.3863,"gdp_density":0.0,"P":3106.5839,"I":1.3479,"G":0.0},{"stationName":"成都锦城广场(地铁站)","station_id":"成都锦城广场(地铁站)_30.57018_104.06402","lineId":"成都地铁1号线","lat":30.57017806,"lon":104.06402315,"area_km2":2.2024,"D":0.3903,"C":0.8358,"T":0.1823,"U1":0.2824,"U2":0.0822,"couplingDegree":0.3903,"level":"中度失调","road_density":37.4084,"walk_accessibility":0.4416,"metro_line_density":2.2433,"station_count":3,"line_count":2,"population_density":284.6887,"poi_density":1.3621,"poi_diversity":1.0986,"gdp_density":0.0,"P":284.6887,"I":1.3621,"G":0.0},{"stationName":"成都世纪城(地铁站)","station_id":"成都世纪城(地铁站)_30.55733_104.06642","lineId":"成都地铁1号线","lat":30.55732774,"lon":104.06642126,"area_km2":2.9438,"D":0.3572,"C":0.9995,"T":0.1276,"U1":0.1237,"U2":0.1315,"couplingDegree":0.3572,"level":"中度失调","road_density":30.259,"walk_accessibility":0.5902,"metro_line_density":1.8623,"station_count":2,"line_count":1,"population_density":717.0919,"poi_density":4.0763,"poi_diversity":1.5607,"gdp_density":0.0,"P":717.0919,"I":4.0763,"G":0.0},{"stationName":"成都天府三街(地铁站)","station_id":"成都天府三街(地铁站)_30.54866_104.06670","lineId":"成都地铁1号线","lat":30.54866303,"lon":104.0666959,"area_km2":3.1711,"D":0.5013,"C":0.9188,"T":0.2735,"U1":0.1656,"U2":0.3814,"couplingDegree":0.5013,"level":"勉强协调","road_density":29.3473,"walk_accessibility":0.6358,"metro_line_density":1.7032,"station_count":3,"line_count":1,"population_density":977.8862,"poi_density":5.3609,"poi_diversity":2.0993,"gdp_density":76394.9571,"P":977.8862,"I":5.3609,"G":76394.9571},{"stationName":"成都天府五街(地铁站)","station_id":"成都天府五街(地铁站)_30.53957_104.06700","lineId":"成都地铁1号线","lat":30.53956871,"lon":104.0670019,"area_km2":2.3727,"D":0.3488,"C":0.9931,"T":0.1225,"U1":0.1081,"U2":0.137,"couplingDegree":0.3488,"level":"中度失调","road_density":24.8404,"walk_accessibility":0.4757,"metro_line_density":2.3158,"station_count":2,"line_count":1,"population_density":1124.025,"poi_density":2.5287,"poi_diversity":1.7918,"gdp_density":0.0,"P":1124.025,"I":2.5287,"G":0.0},{"stationName":"成都华府大道(地铁站)","station_id":"成都华府大道(地铁站)_30.52821_104.06733","lineId":"成都地铁1号线","lat":30.52821079,"lon":104.06732647,"area_km2":1.7385,"D":0.2755,"C":0.9626,"T":0.0788,"U1":0.1002,"U2":0.0575,"couplingDegree":0.2755,"level":"中度失调","road_density":21.9298,"walk_accessibility":0.3486,"metro_line_density":3.0561,"station_count":2,"line_count":1,"population_density":3065.8001,"poi_density":1.1504,"poi_diversity":0.6931,"gdp_density":0.0,"P":3065.8001,"I":1.1504,"G":0.0},{"stationName":"成都四河(地铁站)","station_id":"成都四河(地铁站)_30.51860_104.06762","lineId":"成都地铁1号线","lat":30.51860022,"lon":104.06761676,"area_km2":2.2315,"D":0.1227,"C":0.204,"T":0.0738,"U1":0.146,"U2":0.0016,"couplingDegree":0.1227,"level":"极度失调","road_density":22.5903,"walk_accessibility":0.4474,"metro_line_density":2.5681,"station_count":3,"line_count":1,"population_density":1217.1111,"poi_density":0.0,"poi_diversity":0.0,"gdp_density":0.0,"P":1217.1111,"I":0.0,"G":0.0},{"stationName":"成都广都(地铁站)","station_id":"成都广都(地铁站)_30.51322_104.07320","lineId":"成都地铁1号线","lat":30.513215459999998,"lon":104.07319614,"area_km2":2.2549,"D":0.1154,"C":0.1865,"T":0.0714,"U1":0.1415,"U2":0.0013,"couplingDegree":0.1154,"level":"极度失调","road_density":22.5927,"walk_accessibility":0.4521,"metro_line_density":2.0679,"station_count":3,"line_count":1,"population_density":982.7659,"poi_density":0.0,"poi_diversity":0.0,"gdp_density":0.0,"P":982.7659,"I":0.0,"G":0.0},{"stationName":"成都五根松(地铁站)","station_id":"成都五根松(地铁站)_30.50450_104.07885","lineId":"成都地铁1号线","lat":30.50450227,"lon":104.0788457,"area_km2":1.8097,"D":0.1113,"C":0.2729,"T":0.0454,"U1":0.0891,"U2":0.0017,"couplingDegree":0.1113,"level":"极度失调","road_density":23.4426,"walk_accessibility":0.3628,"metro_line_density":1.431,"station_count":2,"line_count":1,"population_density":1352.709,"poi_density":0.0,"poi_diversity":0.0,"gdp_density":0.0,"P":1352.709,"I":0.0,"G":0.0},{"stationName":"成都龙泉驿(地铁站)","station_id":"成都龙泉驿(地铁站)_30.56272_104.26558","lineId":"成都地铁2号线","lat":30.56272345,"lon":104.26558174,"area_km2":2.6595,"D":0.2328,"C":0.9744,"T":0.0556,"U1":0.0431,"U2":0.0681,"couplingDegree":0.2328,"level":"中度失调","road_density":19.6324,"walk_accessibility":0.5332,"metro_line_density":0.8101,"station_count":1,"line_count":1,"population_density":13501.1819,"poi_density":0.752,"poi_diversity":0.6931,"gdp_density":0.0,"P":13501.1819,"I":0.752,"G":0.0},{"stationName":"成都龙平路(地铁站)","station_id":"成都龙平路(地铁站)_30.57554_104.25661","lineId":"成都地铁2号线","lat":30.57553663,"lon":104.25661269,"area_km2":2.0118,"D":0.1512,"C":0.652,"T":0.0351,"U1":0.0617,"U2":0.0085,"couplingDegree":0.1512,"level":"极度失调","road_density":22.7275,"walk_accessibility":0.4034,"metro_line_density":2.9013,"station_count":1,"line_count":1,"population_density":6655.3905,"poi_density":0.0,"poi_diversity":0.0,"gdp_density":0.0,"P":6655.3905,"I":0.0,"G":0.0},{"stationName":"成都书房(地铁站)","station_id":"成都书房(地铁站)_30.57824_104.23977","lineId":"成都地铁2号线","lat":30.57823786,"lon":104.23976595,"area_km2":1.5713,"D":0.0996,"C":0.318,"T":0.0312,"U1":0.0607,"U2":0.0016,"couplingDegree":0.0996,"level":"极度失调","road_density":21.7449,"walk_accessibility":0.315,"metro_line_density":3.6449,"station_count":1,"line_count":1,"population_density":1269.6861,"poi_density":0.0,"poi_diversity":0.0,"gdp_density":0.0,"P":1269.6861,"I":0.0,"G":0.0},{"stationName":"成都界牌(地铁站)","station_id":"成都界牌(地铁站)_30.58540_104.22276","lineId":"成都地铁2号线","lat":30.58540211,"lon":104.22275954,"area_km2":1.4885,"D":0.2358,"C":0.9865,"T":0.0563,"U1":0.0656,"U2":0.0471,"couplingDegree":0.2358,"level":"中度失调","road_density":23.5996,"walk_accessibility":0.2984,"metro_line_density":3.8199,"station_count":1,"line_count":1,"population_density":124.9594,"poi_density":0.0,"poi_diversity":0.0,"gdp_density":17474.8305,"P":124.9594,"I":0.0,"G":17474.8305},{"stationName":"成都连山坡(地铁站)","station_id":"成都连山坡(地铁站)_30.59017_104.21037","lineId":"成都地铁2号线","lat":30.590165265,"lon":104.210370055,"area_km2":1.9664,"D":0.274,"C":0.9432,"T":0.0796,"U1":0.106,"U2":0.0531,"couplingDegree":0.274,"level":"中度失调","road_density":23.8381,"walk_accessibility":0.3943,"metro_line_density":2.8972,"station_count":2,"line_count":1,"population_density":352.9343,"poi_density":1.0171,"poi_diversity":0.6931,"gdp_density":0.0,"P":352.9343,"I":1.0171,"G":0.0},{"stationName":"成都大面铺(地铁站)","station_id":"成都大面铺(地铁站)_30.59497_104.19890","lineId":"成都地铁2号线","lat":30.59496629,"lon":104.19889628,"area_km2":1.4382,"D":0.0674,"C":0.094,"T":0.0484,"U1":0.0965,"U2":0.0002,"couplingDegree":0.0674,"level":"极度失调","road_density":20.1684,"walk_accessibility":0.2884,"metro_line_density":3.5067,"station_count":2,"line_count":1,"population_density":168.2624,"poi_density":0.0,"poi_diversity":0.0,"gdp_density":0.0,"P":168.2624,"I":0.0,"G":0.0},{"stationName":"成都成都行政学院(地铁站)","station_id":"成都成都行政学院(地铁站)_30.59963_104.16823","lineId":"成都地铁2号线","lat":30.59962531,"lon":104.168233705,"area_km2":2.264,"D":0.1394,"C":0.7016,"T":0.0277,"U1":0.0475,"U2":0.008,"couplingDegree":0.1394,"level":"极度失调","road_density":20.5102,"walk_accessibility":0.4539,"metro_line_density":1.6008,"station_count":1,"line_count":1,"population_density":6252.6774,"poi_density":0.0,"poi_diversity":0.0,"gdp_density":0.0,"P":6252.6774,"I":0.0,"G":0.0},{"stationName":"成都洪河(地铁站)","station_id":"成都洪河(地铁站)_30.60750_104.15503","lineId":"成都地铁2号线","lat":30.60749849,"lon":104.15502838,"area_km2":2.0288,"D":0.2449,"C":0.5349,"T":0.1121,"U1":0.2068,"U2":0.0174,"couplingDegree":0.2449,"level":"中度失调","road_density":23.4923,"walk_accessibility":0.4068,"metro_line_density":2.3623,"station_count":2,"line_count":2,"population_density":13645.84,"poi_density":0.0,"poi_diversity":0.0,"gdp_density":0.0,"P":13645.84,"I":0.0,"G":0.0},{"stationName":"成都惠王陵(地铁站)","station_id":"成都惠王陵(地铁站)_30.61496_104.14989","lineId":"成都地铁2号线 / 成都地铁30号线","lat":30.614963966666664,"lon":104.14989259666667,"area_km2":1.8069,"D":0.2684,"C":0.5954,"T":0.121,"U1":0.2182,"U2":0.0238,"couplingDegree":0.2684,"level":"中度失调","road_density":23.5768,"walk_accessibility":0.3623,"metro_line_density":3.8443,"station_count":2,"line_count":2,"population_density":18670.6118,"poi_density":0.0,"poi_diversity":0.0,"gdp_density":0.0,"P":18670.6118,"I":0.0,"G":0.0},{"stationName":"成都成渝立交(地铁站)","station_id":"成都成渝立交(地铁站)_30.62728_104.14493","lineId":"成都地铁2号线","lat":30.62727881,"lon":104.14493221,"area_km2":2.4707,"D":0.2063,"C":0.672,"T":0.0633,"U1":0.1102,"U2":0.0164,"couplingDegree":0.2063,"level":"中度失调","road_density":26.0069,"walk_accessibility":0.4954,"metro_line_density":2.1175,"station_count":2,"line_count":1,"population_density":8629.3798,"poi_density":0.8095,"poi_diversity":0.0,"gdp_density":0.0,"P":8629.3798,"I":0.8095,"G":0.0},{"stationName":"成都成都东客站(地铁站)","station_id":"成都成都东客站(地铁站)_30.63177_104.13744","lineId":"成都地铁2号线","lat":30.63177323,"lon":104.13743786,"area_km2":2.6723,"D":0.3751,"C":0.7295,"T":0.1929,"U1":0.3249,"U2":0.061,"couplingDegree":0.3751,"level":"中度失调","road_density":29.3821,"walk_accessibility":0.5358,"metro_line_density":3.5332,"station_count":4,"line_count":2,"population_density":8876.997,"poi_density":1.1226,"poi_diversity":0.6365,"gdp_density":0.0,"P":8876.997,"I":1.1226,"G":0.0},{"stationName":"成都塔子山公园(地铁站)","station_id":"成都塔子山公园(地铁站)_30.63189_104.12039","lineId":"成都地铁2号线","lat":30.63188768,"lon":104.12039026,"area_km2":2.0958,"D":0.2214,"C":0.8489,"T":0.0577,"U1":0.0883,"U2":0.0272,"couplingDegree":0.2214,"level":"中度失调","road_density":20.1528,"walk_accessibility":0.4202,"metro_line_density":1.7417,"station_count":2,"line_count":1,"population_density":18851.6009,"poi_density":0.4771,"poi_diversity":0.0,"gdp_density":0.0,"P":18851.6009,"I":0.4771,"G":0.0},{"stationName":"成都东大路(地铁站)","station_id":"成都东大路(地铁站)_30.63623_104.10963","lineId":"成都地铁2号线","lat":30.63622797,"lon":104.10963337,"area_km2":2.3597,"D":0.3762,"C":0.9891,"T":0.1431,"U1":0.1642,"U2":0.122,"couplingDegree":0.3762,"level":"中度失调","road_density":22.7602,"walk_accessibility":0.4731,"metro_line_density":4.2607,"station_count":3,"line_count":1,"population_density":31983.9526,"poi_density":1.2714,"poi_diversity":1.0986,"gdp_density":0.0,"P":31983.9526,"I":1.2714,"G":0.0},{"stationName":"成都牛市口(地铁站)","station_id":"成都牛市口(地铁站)_30.64032_104.10512","lineId":"成都地铁2号线","lat":30.64031993,"lon":104.10512122,"area_km2":2.3246,"D":0.6026,"C":0.9988,"T":0.3635,"U1":0.381,"U2":0.346,"couplingDegree":0.6026,"level":"良好协调","road_density":25.4637,"walk_accessibility":0.4661,"metro_line_density":4.2042,"station_count":3,"line_count":3,"population_density":33780.2254,"poi_density":2.5811,"poi_diversity":1.7918,"gdp_density":62165.0789,"P":33780.2254,"I":2.5811,"G":62165.0789},{"stationName":"成都牛王庙(地铁站)","station_id":"成都牛王庙(地铁站)_30.64715_104.09080","lineId":"成都地铁2号线 / 成都地铁6号线","lat":30.64715388,"lon":104.09079618333334,"area_km2":2.7475,"D":0.6026,"C":0.9884,"T":0.3674,"U1":0.4231,"U2":0.3117,"couplingDegree":0.6026,"level":"良好协调","road_density":20.5153,"walk_accessibility":0.5509,"metro_line_density":4.7759,"station_count":4,"line_count":3,"population_density":40294.0717,"poi_density":14.5588,"poi_diversity":2.4587,"gdp_density":0.0,"P":40294.0717,"I":14.5588,"G":0.0},{"stationName":"成都东门大桥(地铁站)","station_id":"成都东门大桥(地铁站)_30.65060_104.08477","lineId":"成都地铁2号线","lat":30.65059639,"lon":104.08477173,"area_km2":3.0341,"D":0.6958,"C":0.9965,"T":0.4859,"U1":0.5265,"U2":0.4453,"couplingDegree":0.6958,"level":"良好协调","road_density":22.965,"walk_accessibility":0.6083,"metro_line_density":3.5342,"station_count":4,"line_count":4,"population_density":46472.6758,"poi_density":30.9809,"poi_diversity":2.692,"gdp_density":0.0,"P":46472.6758,"I":30.9809,"G":0.0},{"stationName":"成都春熙路(地铁站)","station_id":"成都春熙路(地铁站)_30.65573_104.07696","lineId":"成都地铁2号线 / 成都地铁3号线","lat":30.65572677,"lon":104.076964855,"area_km2":3.348,"D":0.6903,"C":0.9953,"T":0.4787,"U1":0.5249,"U2":0.4325,"couplingDegree":0.6903,"level":"良好协调","road_density":23.0828,"walk_accessibility":0.6713,"metro_line_density":2.9044,"station_count":4,"line_count":4,"population_density":35283.341,"poi_density":32.2585,"poi_diversity":2.5853,"gdp_density":0.0,"P":35283.341,"I":32.2585,"G":0.0},{"stationName":"成都人民公园(地铁站)","station_id":"成都人民公园(地铁站)_30.66214_104.05383","lineId":"成都地铁10号线 / 成都地铁2号线","lat":30.662142340000003,"lon":104.05383298333334,"area_km2":3.1708,"D":0.7961,"C":0.9366,"T":0.6767,"U1":0.9139,"U2":0.4395,"couplingDegree":0.7961,"level":"良好协调","road_density":23.9826,"walk_accessibility":0.6357,"metro_line_density":8.1762,"station_count":7,"line_count":6,"population_density":48944.6876,"poi_density":28.0682,"poi_diversity":2.8535,"gdp_density":0.0,"P":48944.6876,"I":28.0682,"G":0.0},{"stationName":"成都通惠门(地铁站)","station_id":"成都通惠门(地铁站)_30.66454_104.04606","lineId":"成都地铁2号线","lat":30.664538370000002,"lon":104.04605502000001,"area_km2":3.0922,"D":0.7526,"C":0.9163,"T":0.6181,"U1":0.8656,"U2":0.3706,"couplingDegree":0.7526,"level":"良好协调","road_density":26.2632,"walk_accessibility":0.62,"metro_line_density":7.1169,"station_count":6,"line_count":6,"population_density":45312.2585,"poi_density":20.3741,"poi_diversity":2.6618,"gdp_density":0.0,"P":45312.2585,"I":20.3741,"G":0.0},{"stationName":"成都中医大·省医院(地铁站)","station_id":"成都中医大·省医院(地铁站)_30.66857_104.03817","lineId":"成都地铁2号线 / 成都地铁4号线","lat":30.66857235,"lon":104.03816534,"area_km2":3.1212,"D":0.6529,"C":0.8947,"T":0.4765,"U1":0.6894,"U2":0.2637,"couplingDegree":0.6529,"level":"良好协调","road_density":27.0499,"walk_accessibility":0.6258,"metro_line_density":6.1549,"station_count":7,"line_count":4,"population_density":48288.8702,"poi_density":6.7282,"poi_diversity":2.3724,"gdp_density":0.0,"P":48288.8702,"I":6.7282,"G":0.0},{"stationName":"成都白果林(地铁站)","station_id":"成都白果林(地铁站)_30.67633_104.03085","lineId":"成都地铁2号线","lat":30.67633217,"lon":104.03085332,"area_km2":2.3443,"D":0.5306,"C":0.8933,"T":0.3152,"U1":0.4569,"U2":0.1735,"couplingDegree":0.5306,"level":"勉强协调","road_density":19.7804,"walk_accessibility":0.47,"metro_line_density":4.5949,"station_count":5,"line_count":3,"population_density":39971.6744,"poi_density":2.9859,"poi_diversity":1.5498,"gdp_density":0.0,"P":39971.6744,"I":2.9859,"G":0.0},{"stationName":"成都蜀汉路东(地铁站)","station_id":"成都蜀汉路东(地铁站)_30.68536_104.02664","lineId":"成都地铁2号线","lat":30.68535648,"lon":104.02663788,"area_km2":2.7866,"D":0.429,"C":0.9526,"T":0.1932,"U1":0.2519,"U2":0.1344,"couplingDegree":0.429,"level":"勉强协调","road_density":19.7852,"walk_accessibility":0.5587,"metro_line_density":2.4966,"station_count":3,"line_count":2,"population_density":13129.7288,"poi_density":2.1532,"poi_diversity":1.5607,"gdp_density":0.0,"P":13129.7288,"I":2.1532,"G":0.0},{"stationName":"成都一品天下(地铁站)","station_id":"成都一品天下(地铁站)_30.69151_104.01796","lineId":"成都地铁2号线 / 成都地铁7号线","lat":30.69151318,"lon":104.017957805,"area_km2":1.9833,"D":0.2894,"C":0.4266,"T":0.1964,"U1":0.374,"U2":0.0188,"couplingDegree":0.2894,"level":"中度失调","road_density":17.3123,"walk_accessibility":0.3977,"metro_line_density":5.8931,"station_count":3,"line_count":3,"population_density":14731.7525,"poi_density":0.0,"poi_diversity":0.0,"gdp_density":0.0,"P":14731.7525,"I":0.0,"G":0.0},{"stationName":"成都羊犀立交(地铁站)","station_id":"成都羊犀立交(地铁站)_30.69588_104.00971","lineId":"成都地铁27号线 / 成都地铁2号线","lat":30.695884693333337,"lon":104.00971202,"area_km2":2.3643,"D":0.2767,"C":0.4449,"T":0.1721,"U1":0.3263,"U2":0.018,"couplingDegree":0.2767,"level":"中度失调","road_density":19.4351,"walk_accessibility":0.474,"metro_line_density":4.3132,"station_count":2,"line_count":3,"population_density":14106.1751,"poi_density":0.0,"poi_diversity":0.0,"gdp_density":0.0,"P":14106.1751,"I":0.0,"G":0.0},{"stationName":"成都茶店子客运站(地铁站)","station_id":"成都茶店子客运站(地铁站)_30.70851_104.01133","lineId":"成都地铁2号线","lat":30.70850695,"lon":104.01133333,"area_km2":2.0727,"D":0.4593,"C":0.823,"T":0.2563,"U1":0.1107,"U2":0.4019,"couplingDegree":0.4593,"level":"勉强协调","road_density":27.6862,"walk_accessibility":0.4156,"metro_line_density":2.3167,"station_count":2,"line_count":1,"population_density":18634.5904,"poi_density":6.7545,"poi_diversity":2.342,"gdp_density":66200.9455,"P":18634.5904,"I":6.7545,"G":66200.9455},{"stationName":"成都迎宾大道(地铁站)","station_id":"成都迎宾大道(地铁站)_30.71569_104.01117","lineId":"成都地铁2号线","lat":30.71568668,"lon":104.01116917,"area_km2":1.7924,"D":0.423,"C":0.9661,"T":0.1852,"U1":0.1374,"U2":0.233,"couplingDegree":0.423,"level":"勉强协调","road_density":21.7608,"walk_accessibility":0.3594,"metro_line_density":2.4678,"station_count":3,"line_count":1,"population_density":22556.551,"poi_density":7.2529,"poi_diversity":2.3517,"gdp_density":0.0,"P":22556.551,"I":7.2529,"G":0.0},{"stationName":"成都金科北路(地铁站)","station_id":"成都金科北路(地铁站)_30.72330_104.00430","lineId":"成都地铁2号线","lat":30.72329698,"lon":104.00430181,"area_km2":2.406,"D":0.3569,"C":0.9995,"T":0.1274,"U1":0.1313,"U2":0.1236,"couplingDegree":0.3569,"level":"中度失调","road_density":18.0143,"walk_accessibility":0.4824,"metro_line_density":1.8889,"station_count":3,"line_count":1,"population_density":16235.8748,"poi_density":1.6625,"poi_diversity":1.3863,"gdp_density":0.0,"P":16235.8748,"I":1.6625,"G":0.0},{"stationName":"成都金周路(地铁站)","station_id":"成都金周路(地铁站)_30.72420_103.99388","lineId":"成都地铁2号线","lat":30.72420352,"lon":103.99388075,"area_km2":1.4044,"D":0.2263,"C":0.8616,"T":0.0595,"U1":0.0896,"U2":0.0293,"couplingDegree":0.2263,"level":"中度失调","road_density":18.1747,"walk_accessibility":0.2816,"metro_line_density":3.3131,"station_count":2,"line_count":1,"population_density":19231.4929,"poi_density":0.712,"poi_diversity":0.0,"gdp_density":0.0,"P":19231.4929,"I":0.712,"G":0.0},{"stationName":"成都百草路(地铁站)","station_id":"成都百草路(地铁站)_30.73567_103.97709","lineId":"成都地铁2号线","lat":30.73567269,"lon":103.97709239,"area_km2":1.5693,"D":0.162,"C":0.8328,"T":0.0315,"U1":0.049,"U2":0.0141,"couplingDegree":0.162,"level":"极度失调","road_density":20.6069,"walk_accessibility":0.3146,"metro_line_density":2.688,"station_count":1,"line_count":1,"population_density":11043.3554,"poi_density":0.0,"poi_diversity":0.0,"gdp_density":0.0,"P":11043.3554,"I":0.0,"G":0.0},{"stationName":"成都天河路(地铁站)","station_id":"成都天河路(地铁站)_30.74850_103.97394","lineId":"成都地铁2号线","lat":30.74849582,"lon":103.97393786,"area_km2":1.4297,"D":0.1876,"C":0.9521,"T":0.037,"U1":0.0483,"U2":0.0257,"couplingDegree":0.1876,"level":"极度失调","road_density":20.6984,"walk_accessibility":0.2867,"metro_line_density":2.7848,"station_count":1,"line_count":1,"population_density":16449.8215,"poi_density":0.6994,"poi_diversity":0.0,"gdp_density":0.0,"P":16449.8215,"I":0.6994,"G":0.0},{"stationName":"成都犀浦(地铁站)","station_id":"成都犀浦(地铁站)_30.76058_103.96839","lineId":"成都地铁2号线 / 成都地铁6号线","lat":30.76058166,"lon":103.96838909499999,"area_km2":2.1856,"D":0.3432,"C":0.8346,"T":0.1411,"U1":0.2188,"U2":0.0634,"couplingDegree":0.3432,"level":"中度失调","road_density":23.3171,"walk_accessibility":0.4382,"metro_line_density":3.4485,"station_count":2,"line_count":2,"population_density":8921.5162,"poi_density":0.9151,"poi_diversity":0.6931,"gdp_density":0.0,"P":8921.5162,"I":0.9151,"G":0.0},{"stationName":"成都文庙广场(地铁站)","station_id":"成都文庙广场(地铁站)_31.12872_104.39022","lineId":"成都地铁3号线 / 成都成都S11号线(德阳线)(韦家碾--德阳北站)","lat":31.12872157,"lon":104.390223495,"area_km2":1.7579,"D":0.1684,"C":0.2645,"T":0.1072,"U1":0.2106,"U2":0.0038,"couplingDegree":0.1684,"level":"极度失调","road_density":20.1874,"walk_accessibility":0.3525,"metro_line_density":3.9284,"station_count":2,"line_count":2,"population_density":0.0,"poi_density":0.5689,"poi_diversity":0.0,"gdp_density":0.0,"P":0.0,"I":0.5689,"G":0.0},{"stationName":"成都体育场站(地铁站)","station_id":"成都体育场站(地铁站)_31.12451_104.39223","lineId":"成都地铁3号线","lat":31.12451337,"lon":104.3922292,"area_km2":1.3384,"D":0.2166,"C":0.4089,"T":0.1147,"U1":0.2194,"U2":0.01,"couplingDegree":0.2166,"level":"中度失调","road_density":19.0337,"walk_accessibility":0.2683,"metro_line_density":5.7102,"station_count":2,"line_count":2,"population_density":0.0,"poi_density":1.4944,"poi_diversity":0.0,"gdp_density":0.0,"P":0.0,"I":1.4944,"G":0.0},{"stationName":"成都五洲广场站(地铁站)","station_id":"成都五洲广场站(地铁站)_31.10360_104.38596","lineId":"成都地铁3号线","lat":31.10360215,"lon":104.38595837,"area_km2":1.3336,"D":0.0,"C":0.0,"T":0.0347,"U1":0.0693,"U2":0.0,"couplingDegree":0.0,"level":"极度失调","road_density":16.6851,"walk_accessibility":0.2674,"metro_line_density":6.0945,"station_count":1,"line_count":1,"population_density":0.0,"poi_density":0.0,"poi_diversity":0.0,"gdp_density":0.0,"P":0.0,"I":0.0,"G":0.0},{"stationName":"成都四川建院北(地铁站)","station_id":"成都四川建院北(地铁站)_31.08802_104.38480","lineId":"成都地铁3号线","lat":31.08802206,"lon":104.3847956,"area_km2":1.0623,"D":0.0,"C":0.0,"T":0.0459,"U1":0.0919,"U2":0.0,"couplingDegree":0.0,"level":"极度失调","road_density":19.4227,"walk_accessibility":0.213,"metro_line_density":8.1727,"station_count":1,"line_count":1,"population_density":0.0,"poi_density":0.0,"poi_diversity":0.0,"gdp_density":0.0,"P":0.0,"I":0.0,"G":0.0},{"stationName":"成都成都医学院(地铁站)","station_id":"成都成都医学院(地铁站)_30.81914_104.19434","lineId":"成都地铁3号线","lat":30.81913814,"lon":104.19433703,"area_km2":2.1245,"D":0.2711,"C":0.8593,"T":0.0856,"U1":0.1293,"U2":0.0418,"couplingDegree":0.2711,"level":"中度失调","road_density":21.9331,"walk_accessibility":0.4259,"metro_line_density":1.1247,"station_count":3,"line_count":1,"population_density":843.0405,"poi_density":0.0,"poi_diversity":0.0,"gdp_density":15153.5477,"P":843.0405,"I":0.0,"G":15153.5477},{"stationName":"成都双流西站(地铁站)","station_id":"成都双流西站(地铁站)_30.54610_103.91518","lineId":"成都地铁3号线","lat":30.54609533,"lon":103.91518066,"area_km2":0.9891,"D":0.1302,"C":0.3367,"T":0.0503,"U1":0.0977,"U2":0.0029,"couplingDegree":0.1302,"level":"极度失调","road_density":22.2317,"walk_accessibility":0.1983,"metro_line_density":3.7504,"station_count":2,"line_count":1,"population_density":2306.1898,"poi_density":0.0,"poi_diversity":0.0,"gdp_density":0.0,"P":2306.1898,"I":0.0,"G":0.0},{"stationName":"成都三里坝(地铁站)","station_id":"成都三里坝(地铁站)_30.55637_103.91249","lineId":"成都地铁3号线","lat":30.5563689,"lon":103.91249006,"area_km2":1.3573,"D":0.0909,"C":0.2129,"T":0.0388,"U1":0.0767,"U2":0.0009,"couplingDegree":0.0909,"level":"极度失调","road_density":18.3536,"walk_accessibility":0.2721,"metro_line_density":1.9823,"station_count":2,"line_count":1,"population_density":698.458,"poi_density":0.0,"poi_diversity":0.0,"gdp_density":0.0,"P":698.458,"I":0.0,"G":0.0},{"stationName":"成都双流广场(地铁站)","station_id":"成都双流广场(地铁站)_30.56707_103.91811","lineId":"成都地铁3号线","lat":30.56706823,"lon":103.91811481,"area_km2":1.9035,"D":0.1656,"C":0.6133,"T":0.0447,"U1":0.08,"U2":0.0094,"couplingDegree":0.1656,"level":"极度失调","road_density":18.9206,"walk_accessibility":0.3817,"metro_line_density":1.4368,"station_count":2,"line_count":1,"population_density":7374.1226,"poi_density":0.0,"poi_diversity":0.0,"gdp_density":0.0,"P":7374.1226,"I":0.0,"G":0.0},{"stationName":"成都东升(地铁站)","station_id":"成都东升(地铁站)_30.57401_103.92323","lineId":"成都地铁3号线","lat":30.57401116,"lon":103.92322624,"area_km2":1.9739,"D":0.1872,"C":0.7415,"T":0.0473,"U1":0.079,"U2":0.0156,"couplingDegree":0.1872,"level":"极度失调","road_density":18.5762,"walk_accessibility":0.3958,"metro_line_density":1.3143,"station_count":2,"line_count":1,"population_density":9538.4264,"poi_density":0.5066,"poi_diversity":0.0,"gdp_density":0.0,"P":9538.4264,"I":0.5066,"G":0.0},{"stationName":"成都迎春桥(地铁站)","station_id":"成都迎春桥(地铁站)_30.58342_103.93282","lineId":"成都地铁3号线","lat":30.5834247,"lon":103.93281604,"area_km2":1.9998,"D":0.1748,"C":0.6585,"T":0.0464,"U1":0.0813,"U2":0.0115,"couplingDegree":0.1748,"level":"极度失调","road_density":19.6815,"walk_accessibility":0.401,"metro_line_density":1.2577,"station_count":2,"line_count":1,"population_density":9010.4854,"poi_density":0.0,"poi_diversity":0.0,"gdp_density":0.0,"P":9010.4854,"I":0.0,"G":0.0},{"stationName":"成都航都大街(地铁站)","station_id":"成都航都大街(地铁站)_30.59409_103.93476","lineId":"成都地铁3号线","lat":30.59409283,"lon":103.93476488,"area_km2":1.485,"D":0.1272,"C":0.4224,"T":0.0383,"U1":0.073,"U2":0.0036,"couplingDegree":0.1272,"level":"极度失调","road_density":17.3775,"walk_accessibility":0.2977,"metro_line_density":1.6499,"station_count":2,"line_count":1,"population_density":2813.5226,"poi_density":0.0,"poi_diversity":0.0,"gdp_density":0.0,"P":2813.5226,"I":0.0,"G":0.0},{"stationName":"成都龙桥路(地铁站)","station_id":"成都龙桥路(地铁站)_30.60669_103.94202","lineId":"成都地铁3号线","lat":30.60668762,"lon":103.94202382,"area_km2":1.9147,"D":0.1752,"C":0.8887,"T":0.0345,"U1":0.0504,"U2":0.0187,"couplingDegree":0.1752,"level":"极度失调","road_density":25.8954,"walk_accessibility":0.3839,"metro_line_density":1.089,"station_count":1,"line_count":1,"population_density":11933.1774,"poi_density":0.5223,"poi_diversity":0.0,"gdp_density":0.0,"P":11933.1774,"I":0.5223,"G":0.0},{"stationName":"成都双凤桥(地铁站)","station_id":"成都双凤桥(地铁站)_30.61865_103.96701","lineId":"成都地铁3号线","lat":30.61864839,"lon":103.96700784,"area_km2":1.8497,"D":0.172,"C":0.9135,"T":0.0324,"U1":0.0456,"U2":0.0192,"couplingDegree":0.172,"level":"极度失调","road_density":22.323,"walk_accessibility":0.3709,"metro_line_density":1.5345,"station_count":1,"line_count":1,"population_density":15079.5312,"poi_density":0.0,"poi_diversity":0.0,"gdp_density":0.0,"P":15079.5312,"I":0.0,"G":0.0},{"stationName":"成都武青南路(地铁站)","station_id":"成都武青南路(地铁站)_30.62512_103.98288","lineId":"成都地铁3号线 / 成都地铁9号线","lat":30.62511545,"lon":103.98287674,"area_km2":2.5951,"D":0.5062,"C":0.9909,"T":0.2586,"U1":0.2238,"U2":0.2934,"couplingDegree":0.5062,"level":"勉强协调","road_density":23.8794,"walk_accessibility":0.5203,"metro_line_density":3.2701,"station_count":2,"line_count":2,"population_density":12298.2742,"poi_density":0.0,"poi_diversity":0.0,"gdp_density":103346.735,"P":12298.2742,"I":0.0,"G":103346.735},{"stationName":"成都武侯立交(地铁站)","station_id":"成都武侯立交(地铁站)_30.62958_103.99114","lineId":"成都地铁3号线","lat":30.62957648,"lon":103.99113943,"area_km2":2.2004,"D":0.2144,"C":0.4164,"T":0.1104,"U1":0.2107,"U2":0.01,"couplingDegree":0.2144,"level":"中度失调","road_density":25.921,"walk_accessibility":0.4412,"metro_line_density":1.9521,"station_count":2,"line_count":2,"population_density":7866.459,"poi_density":0.0,"poi_diversity":0.0,"gdp_density":0.0,"P":7866.459,"I":0.0,"G":0.0},{"stationName":"成都川藏立交(地铁站)","station_id":"成都川藏立交(地铁站)_30.62551_104.00414","lineId":"成都地铁3号线","lat":30.62551363,"lon":104.00413527,"area_km2":2.2368,"D":0.1999,"C":0.9374,"T":0.0426,"U1":0.0575,"U2":0.0278,"couplingDegree":0.1999,"level":"极度失调","road_density":25.2173,"walk_accessibility":0.4485,"metro_line_density":1.555,"station_count":1,"line_count":1,"population_density":21816.0942,"poi_density":0.0,"poi_diversity":0.0,"gdp_density":0.0,"P":21816.0942,"I":0.0,"G":0.0},{"stationName":"成都太平园(地铁站)","station_id":"成都太平园(地铁站)_30.62799_104.01894","lineId":"成都地铁10号线 / 成都地铁3号线 / 成都地铁7号线","lat":30.6279949075,"lon":104.0189373425,"area_km2":2.0652,"D":0.4302,"C":0.8946,"T":0.2069,"U1":0.2993,"U2":0.1145,"couplingDegree":0.4302,"level":"勉强协调","road_density":18.4507,"walk_accessibility":0.4141,"metro_line_density":6.5858,"station_count":1,"line_count":3,"population_density":25125.0395,"poi_density":1.4526,"poi_diversity":1.0986,"gdp_density":0.0,"P":25125.0395,"I":1.4526,"G":0.0},{"stationName":"成都红牌楼(地铁站)","station_id":"成都红牌楼(地铁站)_30.63748_104.02785","lineId":"成都地铁10号线 / 成都地铁3号线","lat":30.637480183333334,"lon":104.02785185666666,"area_km2":2.6509,"D":0.5135,"C":0.9815,"T":0.2687,"U1":0.3201,"U2":0.2173,"couplingDegree":0.5135,"level":"勉强协调","road_density":19.0697,"walk_accessibility":0.5315,"metro_line_density":3.3542,"station_count":2,"line_count":3,"population_density":24086.7284,"poi_density":5.6585,"poi_diversity":2.246,"gdp_density":0.0,"P":24086.7284,"I":5.6585,"G":0.0},{"stationName":"成都高升桥(地铁站)","station_id":"成都高升桥(地铁站)_30.64302_104.03952","lineId":"成都地铁10号线 / 成都地铁3号线 / 成都地铁5号线","lat":30.643020619999998,"lon":104.03951983,"area_km2":2.4762,"D":0.7585,"C":0.997,"T":0.577,"U1":0.5321,"U2":0.6219,"couplingDegree":0.7585,"level":"良好协调","road_density":20.1693,"walk_accessibility":0.4965,"metro_line_density":5.5657,"station_count":4,"line_count":4,"population_density":32541.9866,"poi_density":21.4034,"poi_diversity":2.5023,"gdp_density":100937.0188,"P":32541.9866,"I":21.4034,"G":100937.0188},{"stationName":"成都衣冠庙(地铁站)","station_id":"成都衣冠庙(地铁站)_30.63694_104.04967","lineId":"成都地铁3号线","lat":30.6369407,"lon":104.04966796,"area_km2":2.8479,"D":0.6279,"C":0.9482,"T":0.4158,"U1":0.5479,"U2":0.2836,"couplingDegree":0.6279,"level":"良好协调","road_density":21.9305,"walk_accessibility":0.571,"metro_line_density":1.8266,"station_count":5,"line_count":4,"population_density":24455.4153,"poi_density":11.5874,"poi_diversity":2.6405,"gdp_density":0.0,"P":24455.4153,"I":11.5874,"G":0.0},{"stationName":"成都磨子桥(地铁站)","station_id":"成都磨子桥(地铁站)_30.63984_104.07341","lineId":"成都地铁3号线","lat":30.63983939,"lon":104.07341086,"area_km2":2.7311,"D":0.6943,"C":0.9862,"T":0.4888,"U1":0.408,"U2":0.5696,"couplingDegree":0.6943,"level":"良好协调","road_density":22.797,"walk_accessibility":0.5476,"metro_line_density":2.6566,"station_count":4,"line_count":3,"population_density":46837.9712,"poi_density":10.6184,"poi_diversity":2.6405,"gdp_density":98206.6886,"P":46837.9712,"I":10.6184,"G":98206.6886},{"stationName":"成都新南门(地铁站)","station_id":"成都新南门(地铁站)_30.64669_104.07304","lineId":"成都地铁13号线 / 成都地铁3号线","lat":30.646688775,"lon":104.07303531,"area_km2":3.3511,"D":0.7722,"C":0.9995,"T":0.5967,"U1":0.6156,"U2":0.5777,"couplingDegree":0.7722,"level":"良好协调","road_density":21.5275,"walk_accessibility":0.6719,"metro_line_density":3.885,"station_count":6,"line_count":4,"population_density":30775.1268,"poi_density":22.6795,"poi_diversity":2.5869,"gdp_density":80038.7849,"P":30775.1268,"I":22.6795,"G":80038.7849},{"stationName":"成都市二医院(地铁站)","station_id":"成都市二医院(地铁站)_30.66294_104.08191","lineId":"成都地铁3号线 / 成都地铁4号线","lat":30.662936025,"lon":104.08190766,"area_km2":3.2968,"D":0.6204,"C":0.9995,"T":0.3852,"U1":0.3728,"U2":0.3976,"couplingDegree":0.6204,"level":"良好协调","road_density":21.4023,"walk_accessibility":0.661,"metro_line_density":2.9781,"station_count":3,"line_count":3,"population_density":51351.5899,"poi_density":23.659,"poi_diversity":2.6198,"gdp_density":0.0,"P":51351.5899,"I":23.659,"G":0.0},{"stationName":"成都红星桥(地铁站)","station_id":"成都红星桥(地铁站)_30.67457_104.08877","lineId":"成都地铁17号线 / 成都地铁3号线","lat":30.67456579,"lon":104.088768155,"area_km2":2.7776,"D":0.6179,"C":0.9991,"T":0.3821,"U1":0.3984,"U2":0.3659,"couplingDegree":0.6179,"level":"良好协调","road_density":22.7079,"walk_accessibility":0.5569,"metro_line_density":6.0621,"station_count":3,"line_count":3,"population_density":38218.3014,"poi_density":24.4816,"poi_diversity":2.3107,"gdp_density":0.0,"P":38218.3014,"I":24.4816,"G":0.0},{"stationName":"成都前锋路(地铁站)","station_id":"成都前锋路(地铁站)_30.68079_104.08995","lineId":"成都地铁3号线 / 成都地铁6号线","lat":30.680792335,"lon":104.08994505,"area_km2":2.3627,"D":0.6857,"C":0.9943,"T":0.473,"U1":0.5235,"U2":0.4224,"couplingDegree":0.6857,"level":"良好协调","road_density":22.0768,"walk_accessibility":0.4737,"metro_line_density":6.5481,"station_count":6,"line_count":3,"population_density":26534.5401,"poi_density":34.7056,"poi_diversity":2.3524,"gdp_density":0.0,"P":26534.5401,"I":34.7056,"G":0.0},{"stationName":"成都李家沱(地铁站)","station_id":"成都李家沱(地铁站)_30.69178_104.09199","lineId":"成都地铁3号线","lat":30.69177644,"lon":104.09198632,"area_km2":2.1854,"D":0.5581,"C":0.9918,"T":0.314,"U1":0.3541,"U2":0.274,"couplingDegree":0.5581,"level":"勉强协调","road_density":22.0902,"walk_accessibility":0.4382,"metro_line_density":2.3834,"station_count":3,"line_count":3,"population_density":54910.778,"poi_density":9.1516,"poi_diversity":2.1548,"gdp_density":0.0,"P":54910.778,"I":9.1516,"G":0.0},{"stationName":"成都驷马桥(地铁站)","station_id":"成都驷马桥(地铁站)_30.69796_104.09145","lineId":"成都地铁3号线 / 成都地铁7号线","lat":30.697962609999998,"lon":104.09145316499999,"area_km2":2.1304,"D":0.4189,"C":0.9403,"T":0.1866,"U1":0.2501,"U2":0.1231,"couplingDegree":0.4189,"level":"勉强协调","road_density":19.689,"walk_accessibility":0.4271,"metro_line_density":3.2304,"station_count":3,"line_count":2,"population_density":32118.7109,"poi_density":1.4082,"poi_diversity":1.0986,"gdp_density":0.0,"P":32118.7109,"I":1.4082,"G":0.0},{"stationName":"成都昭觉寺南路(地铁站)","station_id":"成都昭觉寺南路(地铁站)_30.70530_104.09428","lineId":"成都地铁3号线","lat":30.70530009,"lon":104.0942784,"area_km2":2.5417,"D":0.4016,"C":0.9854,"T":0.1636,"U1":0.1915,"U2":0.1358,"couplingDegree":0.4016,"level":"勉强协调","road_density":18.812,"walk_accessibility":0.5096,"metro_line_density":1.1813,"station_count":2,"line_count":2,"population_density":13085.4891,"poi_density":2.3606,"poi_diversity":1.5607,"gdp_density":0.0,"P":13085.4891,"I":2.3606,"G":0.0},{"stationName":"成都动物园(地铁站)","station_id":"成都动物园(地铁站)_30.71602_104.10060","lineId":"成都地铁3号线","lat":30.71602154,"lon":104.10059647,"area_km2":2.6464,"D":0.3078,"C":0.8512,"T":0.1113,"U1":0.0529,"U2":0.1697,"couplingDegree":0.3078,"level":"中度失调","road_density":22.8759,"walk_accessibility":0.5306,"metro_line_density":1.074,"station_count":1,"line_count":1,"population_density":10047.3318,"poi_density":11.3363,"poi_diversity":1.2219,"gdp_density":0.0,"P":10047.3318,"I":11.3363,"G":0.0},{"stationName":"成都熊猫大道(熊猫基地南大门)(地铁站)","station_id":"成都熊猫大道(熊猫基地南大门)(地铁站)_30.72782_104.10546","lineId":"成都地铁3号线","lat":30.72781505,"lon":104.10545688,"area_km2":2.0594,"D":0.1671,"C":0.8144,"T":0.0343,"U1":0.0542,"U2":0.0144,"couplingDegree":0.1671,"level":"极度失调","road_density":25.5702,"walk_accessibility":0.4129,"metro_line_density":1.366,"station_count":1,"line_count":1,"population_density":11294.7263,"poi_density":0.0,"poi_diversity":0.0,"gdp_density":0.0,"P":11294.7263,"I":0.0,"G":0.0},{"stationName":"成都军区总医院(熊猫基地西大门)(地铁站)","station_id":"成都军区总医院(熊猫基地西大门)(地铁站)_30.74711_104.11162","lineId":"成都地铁3号线","lat":30.74710952,"lon":104.11162359,"area_km2":1.8045,"D":0.247,"C":0.9246,"T":0.066,"U1":0.0409,"U2":0.0911,"couplingDegree":0.247,"level":"中度失调","road_density":20.2413,"walk_accessibility":0.3618,"metro_line_density":1.6036,"station_count":1,"line_count":1,"population_density":5717.8652,"poi_density":1.6625,"poi_diversity":1.0986,"gdp_density":0.0,"P":5717.8652,"I":1.6625,"G":0.0},{"stationName":"成都植物园(地铁站)","station_id":"成都植物园(地铁站)_30.76571_104.11876","lineId":"成都地铁3号线","lat":30.76571474,"lon":104.11876123,"area_km2":1.5319,"D":0.2577,"C":0.9893,"T":0.0671,"U1":0.0769,"U2":0.0573,"couplingDegree":0.2577,"level":"中度失调","road_density":18.282,"walk_accessibility":0.3071,"metro_line_density":1.7773,"station_count":2,"line_count":1,"population_density":2116.3082,"poi_density":1.3056,"poi_diversity":0.6931,"gdp_density":0.0,"P":2116.3082,"I":1.3056,"G":0.0},{"stationName":"成都金华寺东路(地铁站)","station_id":"成都金华寺东路(地铁站)_30.77277_104.12291","lineId":"成都地铁3号线","lat":30.77276643,"lon":104.12291195,"area_km2":1.7396,"D":0.1524,"C":0.4909,"T":0.0473,"U1":0.0885,"U2":0.0061,"couplingDegree":0.1524,"level":"极度失调","road_density":23.2676,"walk_accessibility":0.3488,"metro_line_density":1.5071,"station_count":2,"line_count":1,"population_density":1754.3986,"poi_density":0.5748,"poi_diversity":0.0,"gdp_density":0.0,"P":1754.3986,"I":0.5748,"G":0.0},{"stationName":"成都三河场(地铁站)","station_id":"成都三河场(地铁站)_30.78706_104.13639","lineId":"成都地铁3号线","lat":30.78705787,"lon":104.13639035,"area_km2":1.8033,"D":0.167,"C":0.9074,"T":0.0307,"U1":0.0436,"U2":0.0178,"couplingDegree":0.167,"level":"极度失调","road_density":21.9232,"walk_accessibility":0.3616,"metro_line_density":1.4913,"station_count":1,"line_count":1,"population_density":13978.8481,"poi_density":0.0,"poi_diversity":0.0,"gdp_density":0.0,"P":13978.8481,"I":0.0,"G":0.0},{"stationName":"成都锦水河(地铁站)","station_id":"成都锦水河(地铁站)_30.79984_104.15081","lineId":"成都地铁3号线","lat":30.79983806,"lon":104.15081191,"area_km2":1.3027,"D":0.1202,"C":0.3157,"T":0.0458,"U1":0.0892,"U2":0.0023,"couplingDegree":0.1202,"level":"极度失调","road_density":24.0999,"walk_accessibility":0.2612,"metro_line_density":1.9781,"station_count":2,"line_count":1,"population_density":1836.9181,"poi_density":0.0,"poi_diversity":0.0,"gdp_density":0.0,"P":1836.9181,"I":0.0,"G":0.0},{"stationName":"成都团结新区(地铁站)","station_id":"成都团结新区(地铁站)_30.80678_104.15628","lineId":"成都地铁3号线","lat":30.80677767,"lon":104.15628123,"area_km2":1.383,"D":0.1423,"C":0.3,"T":0.0675,"U1":0.1319,"U2":0.0031,"couplingDegree":0.1423,"level":"极度失调","road_density":23.8424,"walk_accessibility":0.2773,"metro_line_density":1.9521,"station_count":3,"line_count":1,"population_density":2440.2843,"poi_density":0.0,"poi_diversity":0.0,"gdp_density":0.0,"P":2440.2843,"I":0.0,"G":0.0},{"stationName":"成都马超西路(地铁站)","station_id":"成都马超西路(地铁站)_30.81554_104.16224","lineId":"成都地铁3号线","lat":30.81554174,"lon":104.16223731,"area_km2":2.1081,"D":0.1668,"C":0.584,"T":0.0476,"U1":0.0863,"U2":0.009,"couplingDegree":0.1668,"level":"极度失调","road_density":20.6954,"walk_accessibility":0.4227,"metro_line_density":1.3881,"station_count":2,"line_count":1,"population_density":7038.2579,"poi_density":0.0,"poi_diversity":0.0,"gdp_density":0.0,"P":7038.2579,"I":0.0,"G":0.0},{"stationName":"成都钟楼(地铁站)","station_id":"成都钟楼(地铁站)_30.82338_104.17286","lineId":"成都地铁3号线","lat":30.82337562,"lon":104.17285571,"area_km2":2.2653,"D":0.2662,"C":0.9697,"T":0.0731,"U1":0.0909,"U2":0.0552,"couplingDegree":0.2662,"level":"中度失调","road_density":22.3823,"walk_accessibility":0.4542,"metro_line_density":1.249,"station_count":2,"line_count":1,"population_density":4820.8894,"poi_density":1.7657,"poi_diversity":0.5623,"gdp_density":0.0,"P":4820.8894,"I":1.7657,"G":0.0},{"stationName":"成都石油大学(地铁站)","station_id":"成都石油大学(地铁站)_30.82119_104.18416","lineId":"成都地铁3号线","lat":30.82118837,"lon":104.18416346,"area_km2":2.6108,"D":0.3697,"C":0.9656,"T":0.1416,"U1":0.1784,"U2":0.1047,"couplingDegree":0.3697,"level":"中度失调","road_density":22.4684,"walk_accessibility":0.5235,"metro_line_density":1.0238,"station_count":4,"line_count":1,"population_density":957.1738,"poi_density":3.4472,"poi_diversity":1.2149,"gdp_density":0.0,"P":957.1738,"I":3.4472,"G":0.0},{"stationName":"成都成都医学院(新都校区)(地铁站)","station_id":"成都成都医学院(新都校区)(地铁站)_30.81936_104.19226","lineId":"成都地铁3号线","lat":30.81936327,"lon":104.19225861,"area_km2":2.2834,"D":0.2672,"C":0.84,"T":0.085,"U1":0.1311,"U2":0.0389,"couplingDegree":0.2672,"level":"中度失调","road_density":21.6523,"walk_accessibility":0.4578,"metro_line_density":1.1661,"station_count":3,"line_count":1,"population_density":784.3545,"poi_density":0.0,"poi_diversity":0.0,"gdp_density":14098.6745,"P":784.3545,"I":0.0,"G":14098.6745},{"stationName":"成都西河(地铁站)","station_id":"成都西河(地铁站)_30.64985_104.21792","lineId":"成都地铁4号线","lat":30.649845605,"lon":104.2179158,"area_km2":1.4865,"D":0.0864,"C":0.3126,"T":0.0239,"U1":0.0466,"U2":0.0012,"couplingDegree":0.0864,"level":"极度失调","road_density":24.3319,"walk_accessibility":0.298,"metro_line_density":1.6572,"station_count":1,"line_count":1,"population_density":940.4581,"poi_density":0.0,"poi_diversity":0.0,"gdp_density":0.0,"P":940.4581,"I":0.0,"G":0.0},{"stationName":"成都明蜀王陵(地铁站)","station_id":"成都明蜀王陵(地铁站)_30.65071_104.19393","lineId":"成都地铁4号线","lat":30.65071365,"lon":104.19393318,"area_km2":2.5818,"D":0.1004,"C":0.3191,"T":0.0316,"U1":0.0616,"U2":0.0017,"couplingDegree":0.1004,"level":"极度失调","road_density":22.6017,"walk_accessibility":0.5176,"metro_line_density":2.141,"station_count":1,"line_count":1,"population_density":1297.5459,"poi_density":0.0,"poi_diversity":0.0,"gdp_density":0.0,"P":1297.5459,"I":0.0,"G":0.0},{"stationName":"成都成都大学(地铁站)","station_id":"成都成都大学(地铁站)_30.64920_104.17874","lineId":"成都地铁4号线","lat":30.64919995,"lon":104.17874374,"area_km2":1.8118,"D":0.1497,"C":0.3957,"T":0.0566,"U1":0.1086,"U2":0.0046,"couplingDegree":0.1497,"level":"极度失调","road_density":24.6702,"walk_accessibility":0.3633,"metro_line_density":3.1797,"station_count":2,"line_count":1,"population_density":720.2588,"poi_density":0.5519,"poi_diversity":0.0,"gdp_density":0.0,"P":720.2588,"I":0.5519,"G":0.0},{"stationName":"成都十陵(地铁站)","station_id":"成都十陵(地铁站)_30.64832_104.16998","lineId":"成都地铁4号线","lat":30.64832224,"lon":104.16998306,"area_km2":2.1226,"D":0.3215,"C":0.9379,"T":0.1102,"U1":0.1485,"U2":0.072,"couplingDegree":0.3215,"level":"中度失调","road_density":23.6622,"walk_accessibility":0.4256,"metro_line_density":2.7208,"station_count":3,"line_count":1,"population_density":8998.4174,"poi_density":0.0,"poi_diversity":0.0,"gdp_density":22522.4263,"P":8998.4174,"I":0.0,"G":22522.4263},{"stationName":"成都来龙(地铁站)","station_id":"成都来龙(地铁站)_30.64934_104.16201","lineId":"成都地铁4号线","lat":30.6493378,"lon":104.16200508,"area_km2":1.7307,"D":0.3111,"C":0.9817,"T":0.0986,"U1":0.1173,"U2":0.0798,"couplingDegree":0.3111,"level":"中度失调","road_density":28.5105,"walk_accessibility":0.347,"metro_line_density":3.2798,"station_count":2,"line_count":1,"population_density":4390.7842,"poi_density":0.0,"poi_diversity":0.0,"gdp_density":27622.8226,"P":4390.7842,"I":0.0,"G":27622.8226},{"stationName":"成都槐树店(地铁站)","station_id":"成都槐树店(地铁站)_30.65218_104.13688","lineId":"成都地铁4号线 / 成都地铁7号线","lat":30.652177445,"lon":104.13687785,"area_km2":2.1905,"D":0.2329,"C":0.4576,"T":0.1185,"U1":0.2239,"U2":0.0131,"couplingDegree":0.2329,"level":"中度失调","road_density":18.865,"walk_accessibility":0.4392,"metro_line_density":5.0449,"station_count":2,"line_count":2,"population_density":10311.2863,"poi_density":0.0,"poi_diversity":0.0,"gdp_density":0.0,"P":10311.2863,"I":0.0,"G":0.0},{"stationName":"成都万年场(地铁站)","station_id":"成都万年场(地铁站)_30.64664_104.11665","lineId":"成都地铁4号线","lat":30.64664325,"lon":104.1166529,"area_km2":1.9809,"D":0.478,"C":0.978,"T":0.2336,"U1":0.2823,"U2":0.1849,"couplingDegree":0.478,"level":"勉强协调","road_density":27.126,"walk_accessibility":0.3972,"metro_line_density":5.0171,"station_count":3,"line_count":2,"population_density":15048.4281,"poi_density":4.5433,"poi_diversity":2.0432,"gdp_density":0.0,"P":15048.4281,"I":4.5433,"G":0.0},{"stationName":"成都双桥路(地铁站)","station_id":"成都双桥路(地铁站)_30.64865_104.11104","lineId":"成都地铁4号线 / 成都地铁8号线","lat":30.648653503333335,"lon":104.11104311000001,"area_km2":2.5177,"D":0.5757,"C":0.9661,"T":0.343,"U1":0.4316,"U2":0.2545,"couplingDegree":0.5757,"level":"勉强协调","road_density":27.6107,"walk_accessibility":0.5048,"metro_line_density":4.267,"station_count":4,"line_count":3,"population_density":25483.0589,"poi_density":7.1493,"poi_diversity":2.6303,"gdp_density":0.0,"P":25483.0589,"I":7.1493,"G":0.0},{"stationName":"成都玉双路(地铁站)","station_id":"成都玉双路(地铁站)_30.65613_104.09642","lineId":"成都地铁4号线 / 成都地铁6号线","lat":30.656125045,"lon":104.09642392500001,"area_km2":2.7555,"D":0.5217,"C":0.9489,"T":0.2868,"U1":0.3773,"U2":0.1963,"couplingDegree":0.5217,"level":"勉强协调","road_density":21.1065,"walk_accessibility":0.5525,"metro_line_density":4.2721,"station_count":3,"line_count":3,"population_density":25018.2723,"poi_density":5.0807,"poi_diversity":1.9702,"gdp_density":0.0,"P":25018.2723,"I":5.0807,"G":0.0},{"stationName":"成都太升南路(地铁站)","station_id":"成都太升南路(地铁站)_30.66717_104.07405","lineId":"成都地铁4号线","lat":30.66717257,"lon":104.07405275,"area_km2":2.7426,"D":0.7032,"C":0.9794,"T":0.5048,"U1":0.403,"U2":0.6067,"couplingDegree":0.7032,"level":"良好协调","road_density":20.2363,"walk_accessibility":0.5499,"metro_line_density":2.7374,"station_count":4,"line_count":3,"population_density":54195.8533,"poi_density":23.3354,"poi_diversity":2.2603,"gdp_density":86142.449,"P":54195.8533,"I":23.3354,"G":86142.449},{"stationName":"成都宽窄巷子(地铁站)","station_id":"成都宽窄巷子(地铁站)_30.66783_104.04820","lineId":"成都地铁4号线","lat":30.66782543,"lon":104.04820444,"area_km2":3.3737,"D":0.8012,"C":0.9613,"T":0.6677,"U1":0.8516,"U2":0.4838,"couplingDegree":0.8012,"level":"优质协调","road_density":25.1639,"walk_accessibility":0.6764,"metro_line_density":5.5323,"station_count":6,"line_count":6,"population_density":44994.8728,"poi_density":19.2666,"poi_diversity":2.6559,"gdp_density":45187.835,"P":44994.8728,"I":19.2666,"G":45187.835},{"stationName":"成都草堂北路(地铁站)","station_id":"成都草堂北路(地铁站)_30.67159_104.02578","lineId":"成都地铁4号线","lat":30.67159127,"lon":104.02577701,"area_km2":2.3482,"D":0.469,"C":0.9348,"T":0.2353,"U1":0.3188,"U2":0.1517,"couplingDegree":0.469,"level":"勉强协调","road_density":22.4179,"walk_accessibility":0.4708,"metro_line_density":5.0201,"station_count":4,"line_count":2,"population_density":22886.6127,"poi_density":2.981,"poi_diversity":1.5498,"gdp_density":0.0,"P":22886.6127,"I":2.981,"G":0.0},{"stationName":"成都西南财大(地铁站)","station_id":"成都西南财大(地铁站)_30.67299_104.01774","lineId":"成都地铁4号线","lat":30.67298897,"lon":104.01773865,"area_km2":2.3656,"D":0.6002,"C":0.9885,"T":0.3645,"U1":0.3094,"U2":0.4195,"couplingDegree":0.6002,"level":"良好协调","road_density":25.1243,"walk_accessibility":0.4743,"metro_line_density":3.3614,"station_count":4,"line_count":2,"population_density":25279.2081,"poi_density":1.6909,"poi_diversity":1.3863,"gdp_density":105779.536,"P":25279.2081,"I":1.6909,"G":105779.536},{"stationName":"成都文化宫(地铁站)","station_id":"成都文化宫(地铁站)_30.67437_104.00708","lineId":"成都地铁4号线 / 成都地铁7号线","lat":30.67437221,"lon":104.007083225,"area_km2":2.6628,"D":0.6503,"C":0.995,"T":0.425,"U1":0.4675,"U2":0.3826,"couplingDegree":0.6503,"level":"良好协调","road_density":24.5464,"walk_accessibility":0.5339,"metro_line_density":4.1158,"station_count":5,"line_count":3,"population_density":9144.4904,"poi_density":2.2533,"poi_diversity":1.5607,"gdp_density":93972.3139,"P":9144.4904,"I":2.2533,"G":93972.3139},{"stationName":"成都清江西路(地铁站)","station_id":"成都清江西路(地铁站)_30.67918_103.99629","lineId":"成都地铁4号线","lat":30.679184735,"lon":103.99628643,"area_km2":2.4313,"D":0.3434,"C":0.8334,"T":0.1415,"U1":0.2197,"U2":0.0633,"couplingDegree":0.3434,"level":"中度失调","road_density":24.274,"walk_accessibility":0.4875,"metro_line_density":2.973,"station_count":2,"line_count":2,"population_density":10118.5011,"poi_density":1.2339,"poi_diversity":0.6365,"gdp_density":0.0,"P":10118.5011,"I":1.2339,"G":0.0},{"stationName":"成都成都西站(地铁站)","station_id":"成都成都西站(地铁站)_30.68650_103.97376","lineId":"成都地铁4号线 / 成都地铁9号线","lat":30.686503635,"lon":103.973755705,"area_km2":2.129,"D":0.2088,"C":0.4361,"T":0.1,"U1":0.19,"U2":0.01,"couplingDegree":0.2088,"level":"中度失调","road_density":25.5707,"walk_accessibility":0.4269,"metro_line_density":4.4181,"station_count":1,"line_count":2,"population_density":5385.194,"poi_density":0.4697,"poi_diversity":0.0,"gdp_density":0.0,"P":5385.194,"I":0.4697,"G":0.0},{"stationName":"成都中坝(地铁站)","station_id":"成都中坝(地铁站)_30.67617_103.96193","lineId":"成都地铁4号线","lat":30.67617114,"lon":103.96192691,"area_km2":1.7046,"D":0.3272,"C":0.7667,"T":0.1396,"U1":0.05,"U2":0.2293,"couplingDegree":0.3272,"level":"中度失调","road_density":21.109,"walk_accessibility":0.3418,"metro_line_density":2.4891,"station_count":1,"line_count":1,"population_density":5499.2692,"poi_density":0.0,"poi_diversity":0.0,"gdp_density":82706.6858,"P":5499.2692,"I":0.0,"G":82706.6858},{"stationName":"成都蔡桥(地铁站)","station_id":"成都蔡桥(地铁站)_30.67220_103.94296","lineId":"成都地铁4号线","lat":30.67219904,"lon":103.94295843,"area_km2":2.0803,"D":0.0942,"C":0.3186,"T":0.0279,"U1":0.0543,"U2":0.0015,"couplingDegree":0.0942,"level":"极度失调","road_density":19.5072,"walk_accessibility":0.4171,"metro_line_density":2.8113,"station_count":1,"line_count":1,"population_density":1140.2011,"poi_density":0.0,"poi_diversity":0.0,"gdp_density":0.0,"P":1140.2011,"I":0.0,"G":0.0},{"stationName":"成都非遗博览园(地铁站)","station_id":"成都非遗博览园(地铁站)_30.67684_103.92039","lineId":"成都地铁4号线","lat":30.67684068,"lon":103.92038963,"area_km2":1.4513,"D":0.3803,"C":0.9224,"T":0.1568,"U1":0.0962,"U2":0.2173,"couplingDegree":0.3803,"level":"中度失调","road_density":17.9862,"walk_accessibility":0.291,"metro_line_density":3.9878,"station_count":2,"line_count":1,"population_density":229.4569,"poi_density":0.0,"poi_diversity":0.0,"gdp_density":80766.7572,"P":229.4569,"I":0.0,"G":80766.7572},{"stationName":"成都马厂坝(地铁站)","station_id":"成都马厂坝(地铁站)_30.68018_103.91172","lineId":"成都地铁4号线","lat":30.6801823,"lon":103.91172082,"area_km2":1.5366,"D":0.0701,"C":0.1121,"T":0.0438,"U1":0.0874,"U2":0.0003,"couplingDegree":0.0701,"level":"极度失调","road_density":14.919,"walk_accessibility":0.3081,"metro_line_density":3.6813,"station_count":2,"line_count":1,"population_density":216.707,"poi_density":0.0,"poi_diversity":0.0,"gdp_density":0.0,"P":216.707,"I":0.0,"G":0.0},{"stationName":"成都凤凰大街(地铁站)","station_id":"成都凤凰大街(地铁站)_30.67970_103.88744","lineId":"成都地铁4号线","lat":30.67970298,"lon":103.88743571,"area_km2":1.3535,"D":0.146,"C":0.634,"T":0.0336,"U1":0.0596,"U2":0.0076,"couplingDegree":0.146,"level":"极度失调","road_density":20.9101,"walk_accessibility":0.2714,"metro_line_density":4.0327,"station_count":1,"line_count":1,"population_density":5985.1775,"poi_density":0.0,"poi_diversity":0.0,"gdp_density":0.0,"P":5985.1775,"I":0.0,"G":0.0},{"stationName":"成都涌泉(地铁站)","station_id":"成都涌泉(地铁站)_30.68115_103.87098","lineId":"成都地铁4号线","lat":30.6811497,"lon":103.87097941,"area_km2":1.5913,"D":0.1016,"C":0.308,"T":0.0335,"U1":0.0654,"U2":0.0016,"couplingDegree":0.1016,"level":"极度失调","road_density":25.3045,"walk_accessibility":0.3191,"metro_line_density":3.2551,"station_count":1,"line_count":1,"population_density":1279.4238,"poi_density":0.0,"poi_diversity":0.0,"gdp_density":0.0,"P":1279.4238,"I":0.0,"G":0.0},{"stationName":"成都光华公园(地铁站)","station_id":"成都光华公园(地铁站)_30.68704_103.85845","lineId":"成都地铁4号线","lat":30.68704152,"lon":103.85844658,"area_km2":1.7659,"D":0.1173,"C":0.2572,"T":0.0535,"U1":0.1052,"U2":0.0018,"couplingDegree":0.1173,"level":"极度失调","road_density":24.1679,"walk_accessibility":0.3541,"metro_line_density":3.0035,"station_count":2,"line_count":1,"population_density":1412.8858,"poi_density":0.0,"poi_diversity":0.0,"gdp_density":0.0,"P":1412.8858,"I":0.0,"G":0.0},{"stationName":"成都南熏大道(地铁站)","station_id":"成都南熏大道(地铁站)_30.69228_103.84966","lineId":"成都地铁4号线","lat":30.69227966,"lon":103.84965866,"area_km2":1.7384,"D":0.1252,"C":0.2217,"T":0.0707,"U1":0.1396,"U2":0.0018,"couplingDegree":0.1252,"level":"极度失调","road_density":21.1846,"walk_accessibility":0.3486,"metro_line_density":2.9136,"station_count":3,"line_count":1,"population_density":1379.9812,"poi_density":0.0,"poi_diversity":0.0,"gdp_density":0.0,"P":1379.9812,"I":0.0,"G":0.0},{"stationName":"成都凤溪河(地铁站)","station_id":"成都凤溪河(地铁站)_30.68881_103.84091","lineId":"成都地铁4号线","lat":30.68880503,"lon":103.84090562,"area_km2":1.6906,"D":0.2146,"C":0.7888,"T":0.0584,"U1":0.0942,"U2":0.0225,"couplingDegree":0.2146,"level":"中度失调","road_density":18.7123,"walk_accessibility":0.339,"metro_line_density":3.274,"station_count":2,"line_count":1,"population_density":17657.1968,"poi_density":0.0,"poi_diversity":0.0,"gdp_density":0.0,"P":17657.1968,"I":0.0,"G":0.0},{"stationName":"成都杨柳河(地铁站)","station_id":"成都杨柳河(地铁站)_30.68358_103.82894","lineId":"成都地铁4号线","lat":30.68358179,"lon":103.8289404,"area_km2":2.501,"D":0.2559,"C":0.9741,"T":0.0672,"U1":0.052,"U2":0.0824,"couplingDegree":0.2559,"level":"中度失调","road_density":19.5139,"walk_accessibility":0.5014,"metro_line_density":1.9926,"station_count":1,"line_count":1,"population_density":1314.6814,"poi_density":1.1995,"poi_diversity":1.0986,"gdp_density":0.0,"P":1314.6814,"I":1.1995,"G":0.0},{"stationName":"成都万盛(地铁站)","station_id":"成都万盛(地铁站)_30.67801_103.81670","lineId":"成都地铁4号线","lat":30.67801303,"lon":103.81670294,"area_km2":2.0766,"D":0.0765,"C":0.3096,"T":0.0189,"U1":0.0369,"U2":0.0009,"couplingDegree":0.0765,"level":"极度失调","road_density":18.4856,"walk_accessibility":0.4164,"metro_line_density":1.2395,"station_count":1,"line_count":1,"population_density":729.5457,"poi_density":0.0,"poi_diversity":0.0,"gdp_density":0.0,"P":729.5457,"I":0.0,"G":0.0},{"stationName":"成都秦皇寺(地铁站)","station_id":"成都秦皇寺(地铁站)_30.42699_104.05935","lineId":"成都地铁6号线 / 成都成都S5号线(眉山线)(红莲--眉山东站)","lat":30.426986755,"lon":104.05934739,"area_km2":1.9963,"D":0.1747,"C":0.3208,"T":0.0951,"U1":0.1852,"U2":0.005,"couplingDegree":0.1747,"level":"极度失调","road_density":25.1765,"walk_accessibility":0.4002,"metro_line_density":4.1939,"station_count":1,"line_count":2,"population_density":1307.4299,"poi_density":0.5009,"poi_diversity":0.0,"gdp_density":0.0,"P":1307.4299,"I":0.5009,"G":0.0},{"stationName":"成都华桂路(地铁站)","station_id":"成都华桂路(地铁站)_30.82744_104.09576","lineId":"成都地铁5号线","lat":30.82744126,"lon":104.09576454,"area_km2":0.9311,"D":0.163,"C":0.5773,"T":0.046,"U1":0.0836,"U2":0.0084,"couplingDegree":0.163,"level":"极度失调","road_density":19.9325,"walk_accessibility":0.1867,"metro_line_density":2.9053,"station_count":2,"line_count":1,"population_density":969.8439,"poi_density":1.074,"poi_diversity":0.0,"gdp_density":0.0,"P":969.8439,"I":1.074,"G":0.0},{"stationName":"成都柏水场(地铁站)","station_id":"成都柏水场(地铁站)_30.81783_104.09168","lineId":"成都地铁5号线","lat":30.81782722,"lon":104.0916845,"area_km2":1.6952,"D":0.1612,"C":0.36,"T":0.0722,"U1":0.1396,"U2":0.0048,"couplingDegree":0.1612,"level":"极度失调","road_density":19.7034,"walk_accessibility":0.3399,"metro_line_density":3.3328,"station_count":3,"line_count":1,"population_density":693.1258,"poi_density":0.5899,"poi_diversity":0.0,"gdp_density":0.0,"P":693.1258,"I":0.5899,"G":0.0},{"stationName":"成都廖家湾(地铁站)","station_id":"成都廖家湾(地铁站)_30.81069_104.08841","lineId":"成都地铁5号线","lat":30.81068565,"lon":104.0884137,"area_km2":1.908,"D":0.3414,"C":0.9829,"T":0.1186,"U1":0.0968,"U2":0.1405,"couplingDegree":0.3414,"level":"中度失调","road_density":18.9116,"walk_accessibility":0.3826,"metro_line_density":3.1926,"station_count":2,"line_count":1,"population_density":615.8202,"poi_density":3.1446,"poi_diversity":1.7918,"gdp_density":0.0,"P":615.8202,"I":3.1446,"G":0.0},{"stationName":"成都北部商贸城(地铁站)","station_id":"成都北部商贸城(地铁站)_30.79342_104.08642","lineId":"成都地铁5号线","lat":30.79342341,"lon":104.08641729,"area_km2":1.2436,"D":0.0626,"C":0.2008,"T":0.0195,"U1":0.0386,"U2":0.0004,"couplingDegree":0.0626,"level":"极度失调","road_density":17.8773,"walk_accessibility":0.2493,"metro_line_density":2.7114,"station_count":1,"line_count":1,"population_density":311.9889,"poi_density":0.0,"poi_diversity":0.0,"gdp_density":0.0,"P":311.9889,"I":0.0,"G":0.0},{"stationName":"成都幸福桥(地铁站)","station_id":"成都幸福桥(地铁站)_30.77929_104.08572","lineId":"成都地铁5号线","lat":30.77929324,"lon":104.08571958,"area_km2":1.7752,"D":0.0957,"C":0.2111,"T":0.0434,"U1":0.0857,"U2":0.001,"couplingDegree":0.0957,"level":"极度失调","road_density":20.9285,"walk_accessibility":0.3559,"metro_line_density":1.7309,"station_count":2,"line_count":1,"population_density":766.6695,"poi_density":0.0,"poi_diversity":0.0,"gdp_density":0.0,"P":766.6695,"I":0.0,"G":0.0},{"stationName":"成都九道堰(凤凰山体育公园东)(地铁站)","station_id":"成都九道堰(凤凰山体育公园东)(地铁站)_30.77394_104.08036","lineId":"成都地铁5号线","lat":30.77393662,"lon":104.0803578,"area_km2":1.6513,"D":0.1275,"C":0.1287,"T":0.1263,"U1":0.2515,"U2":0.001,"couplingDegree":0.1275,"level":"极度失调","road_density":25.6103,"walk_accessibility":0.3311,"metro_line_density":2.6106,"station_count":3,"line_count":2,"population_density":824.2094,"poi_density":0.0,"poi_diversity":0.0,"gdp_density":0.0,"P":824.2094,"I":0.0,"G":0.0},{"stationName":"成都杜家碾(凤凰山体育公园西)(地铁站)","station_id":"成都杜家碾(凤凰山体育公园西)(地铁站)_30.77377_104.07278","lineId":"成都地铁5号线 / 成都成都S11号线(德阳线)(韦家碾--德阳北站)","lat":30.773771495,"lon":104.072777055,"area_km2":1.2944,"D":0.105,"C":0.0733,"T":0.1504,"U1":0.3003,"U2":0.0004,"couplingDegree":0.105,"level":"极度失调","road_density":28.7789,"walk_accessibility":0.2595,"metro_line_density":7.4528,"station_count":3,"line_count":2,"population_density":317.5186,"poi_density":0.0,"poi_diversity":0.0,"gdp_density":0.0,"P":317.5186,"I":0.0,"G":0.0},{"stationName":"成都大丰(地铁站)","station_id":"成都大丰(地铁站)_30.77398_104.06260","lineId":"成都地铁5号线","lat":30.77398217,"lon":104.06259667,"area_km2":1.9866,"D":0.1804,"C":0.3108,"T":0.1047,"U1":0.2043,"U2":0.0052,"couplingDegree":0.1804,"level":"极度失调","road_density":21.4234,"walk_accessibility":0.3983,"metro_line_density":2.6537,"station_count":2,"line_count":2,"population_density":1420.5317,"poi_density":0.5034,"poi_diversity":0.0,"gdp_density":0.0,"P":1420.5317,"I":0.5034,"G":0.0},{"stationName":"成都石犀公园(地铁站)","station_id":"成都石犀公园(地铁站)_30.76266_104.05727","lineId":"成都地铁5号线","lat":30.76266028,"lon":104.05726891,"area_km2":2.1961,"D":0.283,"C":0.9843,"T":0.0813,"U1":0.0957,"U2":0.067,"couplingDegree":0.283,"level":"中度失调","road_density":23.3173,"walk_accessibility":0.4403,"metro_line_density":1.6225,"station_count":2,"line_count":1,"population_density":11782.7346,"poi_density":0.9107,"poi_diversity":0.6931,"gdp_density":0.0,"P":11782.7346,"I":0.9107,"G":0.0},{"stationName":"成都皇花园(地铁站)","station_id":"成都皇花园(地铁站)_30.75472_104.05722","lineId":"成都地铁5号线","lat":30.75471737,"lon":104.05722109,"area_km2":1.7232,"D":0.2291,"C":0.675,"T":0.0778,"U1":0.1352,"U2":0.0204,"couplingDegree":0.2291,"level":"中度失调","road_density":21.4375,"walk_accessibility":0.3455,"metro_line_density":2.4114,"station_count":3,"line_count":1,"population_density":12953.0617,"poi_density":0.5803,"poi_diversity":0.0,"gdp_density":0.0,"P":12953.0617,"I":0.5803,"G":0.0},{"stationName":"成都陆家桥(地铁站)","station_id":"成都陆家桥(地铁站)_30.74441_104.05657","lineId":"成都地铁5号线","lat":30.744414135,"lon":104.056574765,"area_km2":1.1586,"D":0.2088,"C":0.8869,"T":0.0491,"U1":0.0718,"U2":0.0264,"couplingDegree":0.2088,"level":"中度失调","road_density":18.6468,"walk_accessibility":0.2323,"metro_line_density":1.6712,"station_count":2,"line_count":1,"population_density":16208.5441,"poi_density":0.8631,"poi_diversity":0.0,"gdp_density":0.0,"P":16208.5441,"I":0.8631,"G":0.0},{"stationName":"成都泉水路(地铁站)","station_id":"成都泉水路(地铁站)_30.73277_104.05588","lineId":"成都地铁5号线","lat":30.73276842,"lon":104.05587875,"area_km2":1.5393,"D":0.2591,"C":0.5855,"T":0.1146,"U1":0.2076,"U2":0.0217,"couplingDegree":0.2591,"level":"中度失调","road_density":22.3681,"walk_accessibility":0.3086,"metro_line_density":3.3865,"station_count":2,"line_count":2,"population_density":17033.2403,"poi_density":0.0,"poi_diversity":0.0,"gdp_density":0.0,"P":17033.2403,"I":0.0,"G":0.0},{"stationName":"成都洞子口(地铁站)","station_id":"成都洞子口(地铁站)_30.72422_104.05656","lineId":"成都地铁27号线 / 成都地铁5号线","lat":30.724219356666666,"lon":104.05656139333333,"area_km2":2.2725,"D":0.3672,"C":0.7696,"T":0.1752,"U1":0.2871,"U2":0.0633,"couplingDegree":0.3672,"level":"中度失调","road_density":27.0444,"walk_accessibility":0.4556,"metro_line_density":5.1389,"station_count":3,"line_count":2,"population_density":9068.3396,"poi_density":0.8801,"poi_diversity":0.6931,"gdp_density":0.0,"P":9068.3396,"I":0.8801,"G":0.0},{"stationName":"成都福宁路(地铁站)","station_id":"成都福宁路(地铁站)_30.71694_104.05733","lineId":"成都地铁5号线","lat":30.71694134,"lon":104.05732857,"area_km2":1.7132,"D":0.3788,"C":0.8317,"T":0.1725,"U1":0.2683,"U2":0.0767,"couplingDegree":0.3788,"level":"中度失调","road_density":24.1347,"walk_accessibility":0.3435,"metro_line_density":4.6363,"station_count":3,"line_count":2,"population_density":18066.861,"poi_density":1.1674,"poi_diversity":0.6931,"gdp_density":0.0,"P":18066.861,"I":1.1674,"G":0.0},{"stationName":"成都五块石(地铁站)","station_id":"成都五块石(地铁站)_30.70978_104.06205","lineId":"成都地铁5号线","lat":30.70977973,"lon":104.06204724,"area_km2":1.8942,"D":0.3196,"C":0.9496,"T":0.1076,"U1":0.1413,"U2":0.0738,"couplingDegree":0.3196,"level":"中度失调","road_density":20.5044,"walk_accessibility":0.3798,"metro_line_density":3.0446,"station_count":3,"line_count":1,"population_density":16402.0633,"poi_density":1.0559,"poi_diversity":0.6931,"gdp_density":0.0,"P":16402.0633,"I":1.0559,"G":0.0},{"stationName":"成都赛云台(地铁站)","station_id":"成都赛云台(地铁站)_30.70300_104.06399","lineId":"成都地铁5号线","lat":30.7030014,"lon":104.0639932,"area_km2":1.7468,"D":0.5056,"C":0.7552,"T":0.3385,"U1":0.5604,"U2":0.1166,"couplingDegree":0.5056,"level":"勉强协调","road_density":22.1003,"walk_accessibility":0.3502,"metro_line_density":4.6142,"station_count":5,"line_count":4,"population_density":25487.069,"poi_density":2.2898,"poi_diversity":1.0397,"gdp_density":0.0,"P":25487.069,"I":2.2898,"G":0.0},{"stationName":"成都北站西二路(地铁站)","station_id":"成都北站西二路(地铁站)_30.69659_104.06371","lineId":"成都地铁5号线 / 成都地铁7号线","lat":30.696590954999998,"lon":104.06370926,"area_km2":2.3794,"D":0.6154,"C":0.8207,"T":0.4615,"U1":0.7252,"U2":0.1978,"couplingDegree":0.6154,"level":"良好协调","road_density":21.3179,"walk_accessibility":0.4771,"metro_line_density":5.6638,"station_count":6,"line_count":5,"population_density":40262.095,"poi_density":3.7825,"poi_diversity":1.831,"gdp_density":0.0,"P":40262.095,"I":3.7825,"G":0.0},{"stationName":"成都西北桥(地铁站)","station_id":"成都西北桥(地铁站)_30.68805_104.05566","lineId":"成都地铁5号线","lat":30.68805366,"lon":104.05565981,"area_km2":2.4388,"D":0.5235,"C":0.8635,"T":0.3174,"U1":0.4774,"U2":0.1573,"couplingDegree":0.5235,"level":"勉强协调","road_density":20.4635,"walk_accessibility":0.489,"metro_line_density":6.4537,"station_count":5,"line_count":3,"population_density":11070.0074,"poi_density":4.1005,"poi_diversity":1.7481,"gdp_density":0.0,"P":11070.0074,"I":4.1005,"G":0.0},{"stationName":"成都花牌坊(地铁站)","station_id":"成都花牌坊(地铁站)_30.68592_104.04537","lineId":"成都地铁5号线","lat":30.68592103,"lon":104.04537314,"area_km2":2.2722,"D":0.5177,"C":0.8754,"T":0.3061,"U1":0.454,"U2":0.1581,"couplingDegree":0.5177,"level":"勉强协调","road_density":20.952,"walk_accessibility":0.4556,"metro_line_density":4.1105,"station_count":5,"line_count":3,"population_density":17159.7807,"poi_density":2.6406,"poi_diversity":1.7918,"gdp_density":0.0,"P":17159.7807,"I":2.6406,"G":0.0},{"stationName":"成都抚琴(地铁站)","station_id":"成都抚琴(地铁站)_30.67977_104.03965","lineId":"成都地铁5号线","lat":30.67977185,"lon":104.0396536,"area_km2":2.9238,"D":0.6329,"C":1.0,"T":0.4006,"U1":0.4023,"U2":0.399,"couplingDegree":0.6329,"level":"良好协调","road_density":21.5543,"walk_accessibility":0.5862,"metro_line_density":2.0942,"station_count":4,"line_count":3,"population_density":40316.0273,"poi_density":5.1302,"poi_diversity":2.6156,"gdp_density":52140.507,"P":40316.0273,"I":5.1302,"G":52140.507},{"stationName":"成都青羊宫(地铁站)","station_id":"成都青羊宫(地铁站)_30.66173_104.03845","lineId":"成都地铁13号线 / 成都地铁5号线","lat":30.661733796666667,"lon":104.03844585,"area_km2":2.9317,"D":0.6687,"C":0.8998,"T":0.497,"U1":0.7139,"U2":0.2801,"couplingDegree":0.6687,"level":"良好协调","road_density":24.5785,"walk_accessibility":0.5878,"metro_line_density":7.383,"station_count":5,"line_count":5,"population_density":36267.9278,"poi_density":10.2331,"poi_diversity":2.4973,"gdp_density":0.0,"P":36267.9278,"I":10.2331,"G":0.0},{"stationName":"成都省骨科医院(地铁站)","station_id":"成都省骨科医院(地铁站)_30.65424_104.03862","lineId":"成都地铁17号线 / 成都地铁5号线","lat":30.654238409999998,"lon":104.038624865,"area_km2":2.779,"D":0.6752,"C":0.8871,"T":0.514,"U1":0.7513,"U2":0.2767,"couplingDegree":0.6752,"level":"良好协调","road_density":20.8156,"walk_accessibility":0.5572,"metro_line_density":7.97,"station_count":6,"line_count":5,"population_density":38347.6621,"poi_density":11.8746,"poi_diversity":2.2389,"gdp_density":0.0,"P":38347.6621,"I":11.8746,"G":0.0},{"stationName":"成都科园(地铁站)","station_id":"成都科园(地铁站)_30.63053_104.03539","lineId":"成都地铁5号线","lat":30.63053267,"lon":104.03539309,"area_km2":2.5777,"D":0.5824,"C":0.8022,"T":0.4229,"U1":0.6753,"U2":0.1704,"couplingDegree":0.5824,"level":"勉强协调","road_density":23.564,"walk_accessibility":0.5168,"metro_line_density":4.0747,"station_count":5,"line_count":5,"population_density":28430.3204,"poi_density":2.3277,"poi_diversity":1.7918,"gdp_density":0.0,"P":28430.3204,"I":2.3277,"G":0.0},{"stationName":"成都九兴大道(地铁站)","station_id":"成都九兴大道(地铁站)_30.62383_104.03642","lineId":"成都地铁5号线 / 成都地铁8号线","lat":30.623833564999998,"lon":104.03641721,"area_km2":2.1357,"D":0.3373,"C":0.4859,"T":0.2341,"U1":0.4388,"U2":0.0295,"couplingDegree":0.3373,"level":"中度失调","road_density":27.3977,"walk_accessibility":0.4282,"metro_line_density":5.5954,"station_count":4,"line_count":3,"population_density":20682.6567,"poi_density":0.4682,"poi_diversity":0.0,"gdp_density":0.0,"P":20682.6567,"I":0.4682,"G":0.0},{"stationName":"成都神仙树(地铁站)","station_id":"成都神仙树(地铁站)_30.61215_104.04514","lineId":"成都地铁5号线 / 成都地铁7号线","lat":30.612149925,"lon":104.0451391,"area_km2":1.8548,"D":0.5717,"C":0.8749,"T":0.3735,"U1":0.1926,"U2":0.5545,"couplingDegree":0.5717,"level":"勉强协调","road_density":26.6095,"walk_accessibility":0.3719,"metro_line_density":4.8197,"station_count":1,"line_count":2,"population_density":9526.0484,"poi_density":7.0088,"poi_diversity":2.1384,"gdp_density":131650.7545,"P":9526.0484,"I":7.0088,"G":131650.7545},{"stationName":"成都石羊立交(地铁站)","station_id":"成都石羊立交(地铁站)_30.59766_104.04837","lineId":"成都地铁5号线","lat":30.59765532,"lon":104.04837103,"area_km2":1.9843,"D":0.3952,"C":0.6986,"T":0.2236,"U1":0.3836,"U2":0.0636,"couplingDegree":0.3952,"level":"中度失调","road_density":30.7502,"walk_accessibility":0.3978,"metro_line_density":3.6634,"station_count":3,"line_count":3,"population_density":8902.9622,"poi_density":1.5119,"poi_diversity":0.6365,"gdp_density":0.0,"P":8902.9622,"I":1.5119,"G":0.0},{"stationName":"成都市一医院(地铁站)","station_id":"成都市一医院(地铁站)_30.59136_104.04870","lineId":"成都地铁30号线 / 成都地铁5号线","lat":30.591362655,"lon":104.04869672000001,"area_km2":1.9615,"D":0.6101,"C":0.9595,"T":0.388,"U1":0.2786,"U2":0.4973,"couplingDegree":0.6101,"level":"良好协调","road_density":24.4628,"walk_accessibility":0.3933,"metro_line_density":5.3029,"station_count":3,"line_count":2,"population_density":9006.4339,"poi_density":3.0589,"poi_diversity":1.0114,"gdp_density":148261.0122,"P":9006.4339,"I":3.0589,"G":148261.0122},{"stationName":"成都交子大道(地铁站)","station_id":"成都交子大道(地铁站)_30.58433_104.04774","lineId":"成都地铁5号线","lat":30.58433217,"lon":104.04774073,"area_km2":2.1267,"D":0.6478,"C":0.9945,"T":0.422,"U1":0.3777,"U2":0.4662,"couplingDegree":0.6478,"level":"良好协调","road_density":23.7849,"walk_accessibility":0.4264,"metro_line_density":4.5338,"station_count":3,"line_count":3,"population_density":10356.4919,"poi_density":2.3511,"poi_diversity":1.0549,"gdp_density":136744.2506,"P":10356.4919,"I":2.3511,"G":136744.2506},{"stationName":"成都锦城大道(地铁站)","station_id":"成都锦城大道(地铁站)_30.57721_104.04786","lineId":"成都地铁5号线 / 成都地铁9号线","lat":30.577205445,"lon":104.04786006500001,"area_km2":2.5142,"D":0.5278,"C":0.9889,"T":0.2817,"U1":0.2398,"U2":0.3237,"couplingDegree":0.5278,"level":"勉强协调","road_density":27.5987,"walk_accessibility":0.5041,"metro_line_density":4.1666,"station_count":2,"line_count":2,"population_density":7998.3288,"poi_density":0.3977,"poi_diversity":0.0,"gdp_density":115670.0972,"P":7998.3288,"I":0.3977,"G":115670.0972},{"stationName":"成都锦城湖(地铁站)","station_id":"成都锦城湖(地铁站)_30.56625_104.04368","lineId":"成都地铁5号线","lat":30.56625285,"lon":104.04367672,"area_km2":2.6615,"D":0.1548,"C":0.636,"T":0.0377,"U1":0.0668,"U2":0.0086,"couplingDegree":0.1548,"level":"极度失调","road_density":25.5097,"walk_accessibility":0.5336,"metro_line_density":1.8732,"station_count":1,"line_count":1,"population_density":4772.8112,"poi_density":0.3757,"poi_diversity":0.0,"gdp_density":0.0,"P":4772.8112,"I":0.3757,"G":0.0},{"stationName":"成都大源(地铁站)","station_id":"成都大源(地铁站)_30.55232_104.04377","lineId":"成都地铁5号线","lat":30.55232448,"lon":104.04376832,"area_km2":2.0374,"D":0.4547,"C":0.7994,"T":0.2587,"U1":0.1033,"U2":0.4141,"couplingDegree":0.4547,"level":"勉强协调","road_density":23.6906,"walk_accessibility":0.4085,"metro_line_density":2.5425,"station_count":2,"line_count":1,"population_density":595.3672,"poi_density":1.4725,"poi_diversity":1.0986,"gdp_density":123082.4753,"P":595.3672,"I":1.4725,"G":123082.4753},{"stationName":"成都民乐(地铁站)","station_id":"成都民乐(地铁站)_30.54285_104.04406","lineId":"成都地铁5号线","lat":30.54285006,"lon":104.04406351,"area_km2":2.3823,"D":0.1658,"C":0.4984,"T":0.0552,"U1":0.103,"U2":0.0073,"couplingDegree":0.1658,"level":"极度失调","road_density":22.044,"walk_accessibility":0.4776,"metro_line_density":2.4358,"station_count":2,"line_count":1,"population_density":3549.5033,"poi_density":0.4198,"poi_diversity":0.0,"gdp_density":0.0,"P":3549.5033,"I":0.4198,"G":0.0},{"stationName":"成都骑龙(地铁站)","station_id":"成都骑龙(地铁站)_30.52808_104.04190","lineId":"成都地铁5号线","lat":30.52807542,"lon":104.04189533,"area_km2":2.1286,"D":0.2174,"C":0.9832,"T":0.0481,"U1":0.0568,"U2":0.0393,"couplingDegree":0.2174,"level":"中度失调","road_density":20.7202,"walk_accessibility":0.4268,"metro_line_density":2.7187,"station_count":1,"line_count":1,"population_density":687.299,"poi_density":0.4698,"poi_diversity":0.0,"gdp_density":13113.176,"P":687.299,"I":0.4698,"G":13113.176},{"stationName":"成都警官学院(地铁站)","station_id":"成都警官学院(地铁站)_30.51483_104.03725","lineId":"成都地铁5号线","lat":30.51482975,"lon":104.03725331,"area_km2":2.3023,"D":0.1006,"C":0.3349,"T":0.0302,"U1":0.0587,"U2":0.0017,"couplingDegree":0.1006,"level":"极度失调","road_density":21.6249,"walk_accessibility":0.4616,"metro_line_density":2.4625,"station_count":1,"line_count":1,"population_density":1371.2359,"poi_density":0.0,"poi_diversity":0.0,"gdp_density":0.0,"P":1371.2359,"I":0.0,"G":0.0},{"stationName":"成都二江寺(地铁站)","station_id":"成都二江寺(地铁站)_30.50215_104.03330","lineId":"成都地铁5号线","lat":30.5021541,"lon":104.03330269,"area_km2":1.4704,"D":0.0928,"C":0.2705,"T":0.0318,"U1":0.0624,"U2":0.0012,"couplingDegree":0.0928,"level":"极度失调","road_density":22.1664,"walk_accessibility":0.2948,"metro_line_density":3.8614,"station_count":1,"line_count":1,"population_density":931.0166,"poi_density":0.0,"poi_diversity":0.0,"gdp_density":0.0,"P":931.0166,"I":0.0,"G":0.0},{"stationName":"成都南湖立交(地铁站)","station_id":"成都南湖立交(地铁站)_30.49102_104.03069","lineId":"成都地铁5号线","lat":30.49101985,"lon":104.03069021,"area_km2":1.5911,"D":0.1027,"C":0.32,"T":0.0329,"U1":0.0641,"U2":0.0017,"couplingDegree":0.1027,"level":"极度失调","road_density":23.8865,"walk_accessibility":0.319,"metro_line_density":3.4596,"station_count":1,"line_count":1,"population_density":1359.4252,"poi_density":0.0,"poi_diversity":0.0,"gdp_density":0.0,"P":1359.4252,"I":0.0,"G":0.0},{"stationName":"成都怡心湖(地铁站)","station_id":"成都怡心湖(地铁站)_30.47376_104.02439","lineId":"成都地铁5号线","lat":30.47375577,"lon":104.02439132,"area_km2":1.5513,"D":0.1158,"C":0.4405,"T":0.0304,"U1":0.0578,"U2":0.0031,"couplingDegree":0.1158,"level":"极度失调","road_density":21.4471,"walk_accessibility":0.311,"metro_line_density":3.4341,"station_count":1,"line_count":1,"population_density":2443.0547,"poi_density":0.0,"poi_diversity":0.0,"gdp_density":0.0,"P":2443.0547,"I":0.0,"G":0.0},{"stationName":"成都龙马路(地铁站)","station_id":"成都龙马路(地铁站)_30.46024_104.01717","lineId":"成都地铁5号线","lat":30.46024398,"lon":104.01716514,"area_km2":1.3551,"D":0.2295,"C":0.9922,"T":0.0531,"U1":0.0597,"U2":0.0464,"couplingDegree":0.2295,"level":"中度失调","road_density":22.3193,"walk_accessibility":0.2717,"metro_line_density":3.6956,"station_count":1,"line_count":1,"population_density":12635.9844,"poi_density":0.0,"poi_diversity":0.0,"gdp_density":11289.9565,"P":12635.9844,"I":0.0,"G":11289.9565},{"stationName":"成都回龙(地铁站)","station_id":"成都回龙(地铁站)_30.44694_104.00983","lineId":"成都地铁5号线 / 成都地铁6号线","lat":30.446944759999997,"lon":104.00982760666666,"area_km2":0.6882,"D":0.0,"C":0.0,"T":0.1016,"U1":0.2033,"U2":0.0,"couplingDegree":0.0,"level":"极度失调","road_density":33.9535,"walk_accessibility":0.138,"metro_line_density":5.7698,"station_count":1,"line_count":2,"population_density":0.0,"poi_density":0.0,"poi_diversity":0.0,"gdp_density":0.0,"P":0.0,"I":0.0,"G":0.0},{"stationName":"成都兰家沟(地铁站)","station_id":"成都兰家沟(地铁站)_30.44595_103.99433","lineId":"成都地铁6号线","lat":30.445954685,"lon":103.994328395,"area_km2":1.0741,"D":0.0,"C":0.0,"T":0.0191,"U1":0.0381,"U2":0.0,"couplingDegree":0.0,"level":"极度失调","road_density":25.9439,"walk_accessibility":0.2153,"metro_line_density":0.9456,"station_count":1,"line_count":1,"population_density":0.0,"poi_density":0.0,"poi_diversity":0.0,"gdp_density":0.0,"P":0.0,"I":0.0,"G":0.0},{"stationName":"成都钓鱼嘴(地铁站)","station_id":"成都钓鱼嘴(地铁站)_30.43898_104.03013","lineId":"成都地铁6号线","lat":30.43898364,"lon":104.03012568,"area_km2":1.0095,"D":0.1643,"C":0.6546,"T":0.0412,"U1":0.0724,"U2":0.0101,"couplingDegree":0.1643,"level":"极度失调","road_density":14.0606,"walk_accessibility":0.2024,"metro_line_density":3.0363,"station_count":2,"line_count":1,"population_density":7895.905,"poi_density":0.0,"poi_diversity":0.0,"gdp_density":0.0,"P":7895.905,"I":0.0,"G":0.0},{"stationName":"成都芦角(地铁站)","station_id":"成都芦角(地铁站)_30.43413_104.03529","lineId":"成都地铁6号线","lat":30.43412799,"lon":104.03528777,"area_km2":0.9251,"D":0.3043,"C":0.9097,"T":0.1018,"U1":0.1441,"U2":0.0595,"couplingDegree":0.3043,"level":"中度失调","road_density":16.7051,"walk_accessibility":0.1855,"metro_line_density":5.5796,"station_count":3,"line_count":1,"population_density":8616.8105,"poi_density":0.0,"poi_diversity":0.0,"gdp_density":18069.2495,"P":8616.8105,"I":0.0,"G":18069.2495},{"stationName":"成都松林(地铁站)","station_id":"成都松林(地铁站)_30.42836_104.04413","lineId":"成都地铁6号线","lat":30.42835819,"lon":104.0441273,"area_km2":1.4398,"D":0.2354,"C":0.8588,"T":0.0646,"U1":0.0976,"U2":0.0315,"couplingDegree":0.2354,"level":"中度失调","road_density":18.9069,"walk_accessibility":0.2887,"metro_line_density":3.9255,"station_count":2,"line_count":1,"population_density":222.9463,"poi_density":0.0,"poi_diversity":0.0,"gdp_density":11609.1843,"P":222.9463,"I":0.0,"G":11609.1843},{"stationName":"成都西博城(地铁站)","station_id":"成都西博城(地铁站)_30.42725_104.07332","lineId":"成都地铁6号线","lat":30.42724928,"lon":104.07331567,"area_km2":2.2801,"D":0.2372,"C":0.7546,"T":0.0745,"U1":0.1234,"U2":0.0256,"couplingDegree":0.2372,"level":"中度失调","road_density":32.4526,"walk_accessibility":0.4572,"metro_line_density":2.2139,"station_count":2,"line_count":1,"population_density":186.8329,"poi_density":0.4386,"poi_diversity":0.0,"gdp_density":8353.0951,"P":186.8329,"I":0.4386,"G":8353.0951},{"stationName":"成都天府商务区(地铁站)","station_id":"成都天府商务区(地铁站)_30.43249_104.08373","lineId":"成都地铁6号线","lat":30.43249314,"lon":104.08373358,"area_km2":2.6624,"D":0.2345,"C":0.6441,"T":0.0854,"U1":0.1507,"U2":0.0201,"couplingDegree":0.2345,"level":"中度失调","road_density":24.1498,"walk_accessibility":0.5338,"metro_line_density":2.0998,"station_count":3,"line_count":1,"population_density":667.0743,"poi_density":0.0,"poi_diversity":0.0,"gdp_density":7153.7706,"P":667.0743,"I":0.0,"G":7153.7706},{"stationName":"成都杭州路(地铁站)","station_id":"成都杭州路(地铁站)_30.44136_104.08680","lineId":"成都地铁6号线","lat":30.44136244,"lon":104.08679869,"area_km2":2.5371,"D":0.1177,"C":0.186,"T":0.0745,"U1":0.1477,"U2":0.0013,"couplingDegree":0.1177,"level":"极度失调","road_density":25.002,"walk_accessibility":0.5087,"metro_line_density":1.7518,"station_count":3,"line_count":1,"population_density":1020.8605,"poi_density":0.0,"poi_diversity":0.0,"gdp_density":0.0,"P":1020.8605,"I":0.0,"G":0.0},{"stationName":"成都昌公堰(地铁站)","station_id":"成都昌公堰(地铁站)_30.45094_104.09181","lineId":"成都地铁6号线","lat":30.45093942,"lon":104.09181365,"area_km2":2.1764,"D":0.1175,"C":0.2761,"T":0.05,"U1":0.098,"U2":0.0019,"couplingDegree":0.1175,"level":"极度失调","road_density":23.1046,"walk_accessibility":0.4364,"metro_line_density":1.9418,"station_count":2,"line_count":1,"population_density":1524.5359,"poi_density":0.0,"poi_diversity":0.0,"gdp_density":0.0,"P":1524.5359,"I":0.0,"G":0.0},{"stationName":"成都青岛路(法务区)(地铁站)","station_id":"成都青岛路(法务区)(地铁站)_30.46137_104.09944","lineId":"成都地铁6号线","lat":30.46136641,"lon":104.09943805,"area_km2":2.3905,"D":0.218,"C":0.8138,"T":0.0584,"U1":0.0923,"U2":0.0245,"couplingDegree":0.218,"level":"中度失调","road_density":18.2257,"walk_accessibility":0.4793,"metro_line_density":2.2276,"station_count":2,"line_count":1,"population_density":4148.9168,"poi_density":0.0,"poi_diversity":0.0,"gdp_density":7131.9704,"P":4148.9168,"I":0.0,"G":7131.9704},{"stationName":"成都沈阳路(地铁站)","station_id":"成都沈阳路(地铁站)_30.46981_104.09897","lineId":"成都地铁6号线","lat":30.46981277,"lon":104.09897033,"area_km2":2.5345,"D":0.215,"C":0.7919,"T":0.0584,"U1":0.094,"U2":0.0227,"couplingDegree":0.215,"level":"中度失调","road_density":18.8146,"walk_accessibility":0.5082,"metro_line_density":2.0642,"station_count":2,"line_count":1,"population_density":3649.1733,"poi_density":0.0,"poi_diversity":0.0,"gdp_density":6726.6467,"P":3649.1733,"I":0.0,"G":6726.6467},{"stationName":"成都麓山大道(地铁站)","station_id":"成都麓山大道(地铁站)_30.48549_104.10088","lineId":"成都地铁6号线","lat":30.48548747,"lon":104.10088368,"area_km2":1.7746,"D":0.0957,"C":0.2955,"T":0.031,"U1":0.0606,"U2":0.0014,"couplingDegree":0.0957,"level":"极度失调","road_density":22.0879,"walk_accessibility":0.3558,"metro_line_density":3.2689,"station_count":1,"line_count":1,"population_density":1086.4236,"poi_density":0.0,"poi_diversity":0.0,"gdp_density":0.0,"P":1086.4236,"I":0.0,"G":0.0},{"stationName":"成都万安(地铁站)","station_id":"成都万安(地铁站)_30.49732_104.09692","lineId":"成都地铁6号线","lat":30.49732111,"lon":104.09691573,"area_km2":1.9758,"D":0.0825,"C":0.1485,"T":0.0458,"U1":0.0912,"U2":0.0005,"couplingDegree":0.0825,"level":"极度失调","road_density":17.5964,"walk_accessibility":0.3961,"metro_line_density":2.829,"station_count":2,"line_count":1,"population_density":398.8227,"poi_density":0.0,"poi_diversity":0.0,"gdp_density":0.0,"P":398.8227,"I":0.0,"G":0.0},{"stationName":"成都蒲草塘(地铁站)","station_id":"成都蒲草塘(地铁站)_30.50409_104.09592","lineId":"成都地铁6号线","lat":30.504088905,"lon":104.09591516500001,"area_km2":2.1351,"D":0.0784,"C":0.0927,"T":0.0663,"U1":0.1323,"U2":0.0003,"couplingDegree":0.0784,"level":"极度失调","road_density":17.2023,"walk_accessibility":0.4281,"metro_line_density":2.5688,"station_count":3,"line_count":1,"population_density":224.3507,"poi_density":0.0,"poi_diversity":0.0,"gdp_density":0.0,"P":224.3507,"I":0.0,"G":0.0},{"stationName":"成都龙灯山(地铁站)","station_id":"成都龙灯山(地铁站)_30.51148_104.09868","lineId":"成都地铁6号线","lat":30.51147575,"lon":104.09867639000001,"area_km2":2.331,"D":0.1102,"C":0.1735,"T":0.07,"U1":0.1389,"U2":0.0011,"couplingDegree":0.1102,"level":"极度失调","road_density":19.6053,"walk_accessibility":0.4674,"metro_line_density":2.405,"station_count":3,"line_count":1,"population_density":832.6845,"poi_density":0.0,"poi_diversity":0.0,"gdp_density":0.0,"P":832.6845,"I":0.0,"G":0.0},{"stationName":"成都新川路(地铁站)","station_id":"成都新川路(地铁站)_30.51811_104.09797","lineId":"成都地铁6号线","lat":30.51811456,"lon":104.0979665,"area_km2":2.5075,"D":0.1066,"C":0.1629,"T":0.0697,"U1":0.1385,"U2":0.0009,"couplingDegree":0.1066,"level":"极度失调","road_density":19.1615,"walk_accessibility":0.5028,"metro_line_density":2.2312,"station_count":3,"line_count":1,"population_density":730.6001,"poi_density":0.0,"poi_diversity":0.0,"gdp_density":0.0,"P":730.6001,"I":0.0,"G":0.0},{"stationName":"成都新通大道(地铁站)","station_id":"成都新通大道(地铁站)_30.52438_104.09591","lineId":"成都地铁6号线","lat":30.52437624,"lon":104.09590883,"area_km2":2.8014,"D":0.2154,"C":0.61,"T":0.076,"U1":0.1363,"U2":0.0158,"couplingDegree":0.2154,"level":"中度失调","road_density":17.882,"walk_accessibility":0.5617,"metro_line_density":1.9028,"station_count":3,"line_count":1,"population_density":260.9415,"poi_density":0.0,"poi_diversity":0.0,"gdp_density":5749.6373,"P":260.9415,"I":0.0,"G":5749.6373},{"stationName":"成都观东(地铁站)","station_id":"成都观东(地铁站)_30.53337_104.09584","lineId":"成都地铁6号线","lat":30.53336678,"lon":104.09583687,"area_km2":2.0971,"D":0.0982,"C":0.1413,"T":0.0682,"U1":0.1357,"U2":0.0007,"couplingDegree":0.0982,"level":"极度失调","road_density":18.5371,"walk_accessibility":0.4205,"metro_line_density":2.6557,"station_count":3,"line_count":1,"population_density":536.9243,"poi_density":0.0,"poi_diversity":0.0,"gdp_density":0.0,"P":536.9243,"I":0.0,"G":0.0},{"stationName":"成都陆肖(地铁站)","station_id":"成都陆肖(地铁站)_30.54024_104.09583","lineId":"成都地铁6号线","lat":30.54024028,"lon":104.09582869,"area_km2":2.2993,"D":0.1083,"C":0.238,"T":0.0493,"U1":0.0972,"U2":0.0014,"couplingDegree":0.1083,"level":"极度失调","road_density":19.8165,"walk_accessibility":0.461,"metro_line_density":2.4847,"station_count":2,"line_count":1,"population_density":1112.5085,"poi_density":0.0,"poi_diversity":0.0,"gdp_density":0.0,"P":1112.5085,"I":0.0,"G":0.0},{"stationName":"成都张家寺(地铁站)","station_id":"成都张家寺(地铁站)_30.55257_104.09584","lineId":"成都地铁6号线","lat":30.552574375,"lon":104.09584287,"area_km2":2.4043,"D":0.105,"C":0.2056,"T":0.0536,"U1":0.1061,"U2":0.0011,"couplingDegree":0.105,"level":"极度失调","road_density":23.3935,"walk_accessibility":0.4821,"metro_line_density":2.4133,"station_count":2,"line_count":1,"population_density":900.0472,"poi_density":0.0,"poi_diversity":0.0,"gdp_density":0.0,"P":900.0472,"I":0.0,"G":0.0},{"stationName":"成都中和(地铁站)","station_id":"成都中和(地铁站)_30.56099_104.09354","lineId":"成都地铁6号线","lat":30.56099405,"lon":104.09353615,"area_km2":2.0036,"D":0.1266,"C":0.3534,"T":0.0454,"U1":0.0878,"U2":0.0029,"couplingDegree":0.1266,"level":"极度失调","road_density":17.9773,"walk_accessibility":0.4017,"metro_line_density":2.3431,"station_count":2,"line_count":1,"population_density":2297.4109,"poi_density":0.0,"poi_diversity":0.0,"gdp_density":0.0,"P":2297.4109,"I":0.0,"G":0.0},{"stationName":"成都金融城东(地铁站)","station_id":"成都金融城东(地铁站)_30.58177_104.08233","lineId":"成都地铁6号线 / 成都地铁9号线","lat":30.581768843333332,"lon":104.08232776666667,"area_km2":2.9427,"D":0.4657,"C":0.9956,"T":0.2179,"U1":0.2382,"U2":0.1975,"couplingDegree":0.4657,"level":"勉强协调","road_density":30.9955,"walk_accessibility":0.59,"metro_line_density":2.5956,"station_count":2,"line_count":2,"population_density":5670.9988,"poi_density":0.3398,"poi_diversity":0.0,"gdp_density":69959.0831,"P":5670.9988,"I":0.3398,"G":69959.0831},{"stationName":"成都金石路(地铁站)","station_id":"成都金石路(地铁站)_30.59272_104.08664","lineId":"成都地铁30号线 / 成都地铁6号线","lat":30.592715655,"lon":104.08664116,"area_km2":2.2459,"D":0.233,"C":0.5107,"T":0.1063,"U1":0.1977,"U2":0.0149,"couplingDegree":0.233,"level":"中度失调","road_density":28.0822,"walk_accessibility":0.4503,"metro_line_density":4.4541,"station_count":1,"line_count":2,"population_density":7006.5533,"poi_density":0.8905,"poi_diversity":0.0,"gdp_density":0.0,"P":7006.5533,"I":0.8905,"G":0.0},{"stationName":"成都琉三路(地铁站)","station_id":"成都琉三路(地铁站)_30.60277_104.09563","lineId":"成都地铁6号线","lat":30.60277283,"lon":104.09563281,"area_km2":2.0677,"D":0.2362,"C":0.4738,"T":0.1177,"U1":0.2214,"U2":0.0141,"couplingDegree":0.2362,"level":"中度失调","road_density":20.0345,"walk_accessibility":0.4146,"metro_line_density":4.6737,"station_count":2,"line_count":2,"population_density":8481.0689,"poi_density":0.4836,"poi_diversity":0.0,"gdp_density":0.0,"P":8481.0689,"I":0.4836,"G":0.0},{"stationName":"成都琉璃场(地铁站)","station_id":"成都琉璃场(地铁站)_30.61000_104.09724","lineId":"成都地铁6号线 / 成都地铁7号线","lat":30.610002585,"lon":104.0972442,"area_km2":2.035,"D":0.5334,"C":0.9627,"T":0.2955,"U1":0.2155,"U2":0.3755,"couplingDegree":0.5334,"level":"勉强协调","road_density":16.4097,"walk_accessibility":0.408,"metro_line_density":4.9776,"station_count":2,"line_count":2,"population_density":6622.6929,"poi_density":1.4742,"poi_diversity":1.0986,"gdp_density":105858.4162,"P":6622.6929,"I":1.4742,"G":105858.4162},{"stationName":"成都东光(地铁站)","station_id":"成都东光(地铁站)_30.62202_104.09537","lineId":"成都地铁6号线 / 成都地铁8号线","lat":30.622017595,"lon":104.095367275,"area_km2":2.3497,"D":0.4803,"C":0.8396,"T":0.2747,"U1":0.4239,"U2":0.1255,"couplingDegree":0.4803,"level":"勉强协调","road_density":20.379,"walk_accessibility":0.4711,"metro_line_density":5.4376,"station_count":4,"line_count":3,"population_density":16479.8427,"poi_density":2.9792,"poi_diversity":1.277,"gdp_density":0.0,"P":16479.8427,"I":2.9792,"G":0.0},{"stationName":"成都三官堂(地铁站)","station_id":"成都三官堂(地铁站)_30.63091_104.09248","lineId":"成都地铁13号线 / 成都地铁6号线","lat":30.630913536666668,"lon":104.09247771333334,"area_km2":2.7388,"D":0.4946,"C":0.828,"T":0.2955,"U1":0.4612,"U2":0.1298,"couplingDegree":0.4946,"level":"勉强协调","road_density":21.0858,"walk_accessibility":0.5491,"metro_line_density":4.1867,"station_count":5,"line_count":3,"population_density":11808.6673,"poi_density":2.5559,"poi_diversity":1.4751,"gdp_density":0.0,"P":11808.6673,"I":2.5559,"G":0.0},{"stationName":"成都顺江路(地铁站)","station_id":"成都顺江路(地铁站)_30.63798_104.09042","lineId":"成都地铁6号线","lat":30.63797636,"lon":104.09041849,"area_km2":2.9773,"D":0.5639,"C":0.987,"T":0.3221,"U1":0.374,"U2":0.2703,"couplingDegree":0.5639,"level":"勉强协调","road_density":19.5046,"walk_accessibility":0.5969,"metro_line_density":3.9997,"station_count":3,"line_count":3,"population_density":29436.3853,"poi_density":9.4044,"poi_diversity":2.5643,"gdp_density":0.0,"P":29436.3853,"I":9.4044,"G":0.0},{"stationName":"成都新鸿路(地铁站)","station_id":"成都新鸿路(地铁站)_30.66521_104.09962","lineId":"成都地铁6号线","lat":30.66521468,"lon":104.09962311,"area_km2":2.6684,"D":0.5935,"C":0.9996,"T":0.3524,"U1":0.3621,"U2":0.3426,"couplingDegree":0.5935,"level":"勉强协调","road_density":20.6023,"walk_accessibility":0.535,"metro_line_density":2.9209,"station_count":3,"line_count":3,"population_density":40868.8364,"poi_density":20.6115,"poi_diversity":2.2999,"gdp_density":0.0,"P":40868.8364,"I":20.6115,"G":0.0},{"stationName":"成都电子科大建设北路(地铁站)","station_id":"成都电子科大建设北路(地铁站)_30.67454_104.09702","lineId":"成都地铁17号线 / 成都地铁6号线","lat":30.674544636666667,"lon":104.09701737333334,"area_km2":2.6077,"D":0.6611,"C":0.9942,"T":0.4396,"U1":0.4867,"U2":0.3924,"couplingDegree":0.6611,"level":"良好协调","road_density":23.7977,"walk_accessibility":0.5228,"metro_line_density":6.3936,"station_count":5,"line_count":3,"population_density":47488.5078,"poi_density":27.9937,"poi_diversity":2.1762,"gdp_density":0.0,"P":47488.5078,"I":27.9937,"G":0.0},{"stationName":"成都梁家巷(地铁站)","station_id":"成都梁家巷(地铁站)_30.68474_104.08080","lineId":"成都地铁6号线","lat":30.684739,"lon":104.0808023,"area_km2":2.2991,"D":0.7119,"C":0.9994,"T":0.5072,"U1":0.5246,"U2":0.4897,"couplingDegree":0.7119,"level":"良好协调","road_density":18.7288,"walk_accessibility":0.461,"metro_line_density":5.3655,"station_count":4,"line_count":4,"population_density":69257.586,"poi_density":33.056,"poi_diversity":2.7147,"gdp_density":0.0,"P":69257.586,"I":33.056,"G":0.0},{"stationName":"成都沙湾(地铁站)","station_id":"成都沙湾(地铁站)_30.69163_104.04861","lineId":"成都地铁6号线","lat":30.69163281,"lon":104.04860798,"area_km2":2.3894,"D":0.5019,"C":0.8317,"T":0.3028,"U1":0.471,"U2":0.1347,"couplingDegree":0.5019,"level":"勉强协调","road_density":21.1979,"walk_accessibility":0.4791,"metro_line_density":5.6661,"station_count":5,"line_count":3,"population_density":24909.7975,"poi_density":1.6741,"poi_diversity":1.3863,"gdp_density":0.0,"P":24909.7975,"I":1.6741,"G":0.0},{"stationName":"成都西南交大(地铁站)","station_id":"成都西南交大(地铁站)_30.69716_104.04672","lineId":"成都地铁6号线 / 成都地铁7号线","lat":30.697160330000003,"lon":104.04671795,"area_km2":2.8368,"D":0.6134,"C":0.9609,"T":0.3916,"U1":0.5,"U2":0.2831,"couplingDegree":0.6134,"level":"良好协调","road_density":20.8592,"walk_accessibility":0.5688,"metro_line_density":3.7281,"station_count":6,"line_count":3,"population_density":17868.0502,"poi_density":2.8201,"poi_diversity":1.7329,"gdp_density":47180.705,"P":17868.0502,"I":2.8201,"G":47180.705},{"stationName":"成都星河(地铁站)","station_id":"成都星河(地铁站)_30.70475_104.04165","lineId":"成都地铁6号线","lat":30.7047546,"lon":104.04165365,"area_km2":2.8153,"D":0.56,"C":0.9664,"T":0.3245,"U1":0.4079,"U2":0.241,"couplingDegree":0.56,"level":"勉强协调","road_density":17.9165,"walk_accessibility":0.5645,"metro_line_density":3.7136,"station_count":4,"line_count":3,"population_density":10378.3766,"poi_density":1.776,"poi_diversity":1.3322,"gdp_density":47541.3333,"P":10378.3766,"I":1.776,"G":47541.3333},{"stationName":"成都金府(地铁站)","station_id":"成都金府(地铁站)_30.71421_104.03473","lineId":"成都地铁27号线 / 成都地铁6号线","lat":30.714212855,"lon":104.034725435,"area_km2":2.5472,"D":0.2763,"C":0.5183,"T":0.1473,"U1":0.2732,"U2":0.0213,"couplingDegree":0.2763,"level":"中度失调","road_density":22.9883,"walk_accessibility":0.5107,"metro_line_density":4.2809,"station_count":3,"line_count":2,"population_density":14669.5531,"poi_density":0.3926,"poi_diversity":0.0,"gdp_density":0.0,"P":14669.5531,"I":0.3926,"G":0.0},{"stationName":"成都西华大道(地铁站)","station_id":"成都西华大道(地铁站)_30.72089_104.02906","lineId":"成都地铁6号线","lat":30.72089124,"lon":104.02906246,"area_km2":1.6016,"D":0.2078,"C":0.3062,"T":0.1411,"U1":0.2753,"U2":0.0068,"couplingDegree":0.2078,"level":"中度失调","road_density":27.6205,"walk_accessibility":0.3211,"metro_line_density":4.6885,"station_count":3,"line_count":2,"population_density":5316.5316,"poi_density":0.0,"poi_diversity":0.0,"gdp_density":0.0,"P":5316.5316,"I":0.0,"G":0.0},{"stationName":"成都青杠(地铁站)","station_id":"成都青杠(地铁站)_30.72803_104.02352","lineId":"成都地铁6号线","lat":30.72802769,"lon":104.02352356,"area_km2":1.5744,"D":0.2382,"C":0.6943,"T":0.0817,"U1":0.1405,"U2":0.0229,"couplingDegree":0.2382,"level":"中度失调","road_density":19.9676,"walk_accessibility":0.3157,"metro_line_density":3.532,"station_count":3,"line_count":1,"population_density":17982.0955,"poi_density":0.0,"poi_diversity":0.0,"gdp_density":0.0,"P":17982.0955,"I":0.0,"G":0.0},{"stationName":"成都兴盛(地铁站)","station_id":"成都兴盛(地铁站)_30.73327_104.01910","lineId":"成都地铁6号线","lat":30.73327305,"lon":104.01910112,"area_km2":1.7791,"D":0.3798,"C":0.9026,"T":0.1598,"U1":0.091,"U2":0.2286,"couplingDegree":0.3798,"level":"中度失调","road_density":19.2741,"walk_accessibility":0.3567,"metro_line_density":2.6776,"station_count":2,"line_count":1,"population_density":25532.9712,"poi_density":0.0,"poi_diversity":0.0,"gdp_density":72953.7554,"P":25532.9712,"I":0.0,"G":72953.7554},{"stationName":"成都侯家桥(地铁站)","station_id":"成都侯家桥(地铁站)_30.73956_104.00234","lineId":"成都地铁6号线","lat":30.73955952,"lon":104.00234333,"area_km2":1.4379,"D":0.1942,"C":0.9352,"T":0.0403,"U1":0.0546,"U2":0.0261,"couplingDegree":0.1942,"level":"极度失调","road_density":20.3331,"walk_accessibility":0.2883,"metro_line_density":3.5281,"station_count":1,"line_count":1,"population_density":20451.3201,"poi_density":0.0,"poi_diversity":0.0,"gdp_density":0.0,"P":20451.3201,"I":0.0,"G":0.0},{"stationName":"成都梓潼宫(地铁站)","station_id":"成都梓潼宫(地铁站)_30.75049_103.99103","lineId":"成都地铁6号线","lat":30.75048865,"lon":103.99103485,"area_km2":1.2144,"D":0.1145,"C":0.4474,"T":0.0293,"U1":0.0555,"U2":0.0031,"couplingDegree":0.1145,"level":"极度失调","road_density":16.6254,"walk_accessibility":0.2435,"metro_line_density":4.8217,"station_count":1,"line_count":1,"population_density":2429.945,"poi_density":0.0,"poi_diversity":0.0,"gdp_density":0.0,"P":2429.945,"I":0.0,"G":0.0},{"stationName":"成都交大兴业北街(地铁站)","station_id":"成都交大兴业北街(地铁站)_30.76129_103.98107","lineId":"成都地铁6号线","lat":30.76128706,"lon":103.98106506,"area_km2":2.648,"D":0.4758,"C":0.9993,"T":0.2265,"U1":0.2183,"U2":0.2348,"couplingDegree":0.4758,"level":"勉强协调","road_density":24.9038,"walk_accessibility":0.5309,"metro_line_density":2.3782,"station_count":2,"line_count":2,"population_density":4133.2708,"poi_density":10.9516,"poi_diversity":1.9416,"gdp_density":10250.6626,"P":4133.2708,"I":10.9516,"G":10250.6626},{"stationName":"成都天宇路(地铁站)","station_id":"成都天宇路(地铁站)_30.75679_103.95236","lineId":"成都地铁6号线","lat":30.75679379,"lon":103.95236156,"area_km2":1.8437,"D":0.2313,"C":0.9978,"T":0.0536,"U1":0.05,"U2":0.0572,"couplingDegree":0.2313,"level":"中度失调","road_density":20.3161,"walk_accessibility":0.3697,"metro_line_density":2.493,"station_count":1,"line_count":1,"population_density":6372.0728,"poi_density":1.0848,"poi_diversity":0.0,"gdp_density":15553.7589,"P":6372.0728,"I":1.0848,"G":15553.7589},{"stationName":"成都红高路(地铁站)","station_id":"成都红高路(地铁站)_30.77211_103.93499","lineId":"成都地铁6号线","lat":30.77211093,"lon":103.93499185,"area_km2":2.0847,"D":0.1078,"C":0.3829,"T":0.0303,"U1":0.0584,"U2":0.0023,"couplingDegree":0.1078,"level":"极度失调","road_density":22.6761,"walk_accessibility":0.418,"metro_line_density":2.4677,"station_count":1,"line_count":1,"population_density":1815.1537,"poi_density":0.0,"poi_diversity":0.0,"gdp_density":0.0,"P":1815.1537,"I":0.0,"G":0.0},{"stationName":"成都尚锦路(地铁站)","station_id":"成都尚锦路(地铁站)_30.78004_103.92132","lineId":"成都地铁6号线","lat":30.78003988,"lon":103.921324795,"area_km2":1.3787,"D":0.143,"C":0.3857,"T":0.053,"U1":0.102,"U2":0.0041,"couplingDegree":0.143,"level":"极度失调","road_density":20.1079,"walk_accessibility":0.2764,"metro_line_density":4.1746,"station_count":2,"line_count":1,"population_density":3221.167,"poi_density":0.0,"poi_diversity":0.0,"gdp_density":0.0,"P":3221.167,"I":0.0,"G":0.0},{"stationName":"成都檬梓(地铁站)","station_id":"成都檬梓(地铁站)_30.78730_103.91233","lineId":"成都地铁6号线","lat":30.7872978,"lon":103.91233495,"area_km2":1.0511,"D":0.1279,"C":0.2694,"T":0.0607,"U1":0.1191,"U2":0.0022,"couplingDegree":0.1279,"level":"极度失调","road_density":24.2342,"walk_accessibility":0.2108,"metro_line_density":5.4318,"station_count":2,"line_count":1,"population_density":1761.8985,"poi_density":0.0,"poi_diversity":0.0,"gdp_density":0.0,"P":1761.8985,"I":0.0,"G":0.0},