{"cityCode":"440100","year":2010,"stations":[{"stationName":"广州西塱(地铁站)","station_id":"广州西塱(地铁站)_23.06821_113.22651","lineId":"广州地铁10号线 / 广州地铁1号线 / 广州地铁22号线 / 广州广州广佛线(新城东--沥滘)","lat":23.068209426000003,"lon":113.226507804,"area_km2":1.6968,"D":0.4137,"C":0.8157,"T":0.2098,"U1":0.3312,"U2":0.0885,"couplingDegree":0.4137,"level":"勉强协调","road_density":26.3285,"walk_accessibility":0.3402,"metro_line_density":6.9731,"station_count":1,"line_count":4,"population_density":22975.6144,"poi_density":0.0,"poi_diversity":0.0,"gdp_density":0.0,"P":22975.6144,"I":0.0,"G":0.0},{"stationName":"广州坑口(地铁站)","station_id":"广州坑口(地铁站)_23.08157_113.22717","lineId":"广州地铁1号线","lat":23.08157413,"lon":113.22717253,"area_km2":2.5888,"D":0.2819,"C":0.7606,"T":0.1045,"U1":0.1723,"U2":0.0367,"couplingDegree":0.2819,"level":"中度失调","road_density":29.5079,"walk_accessibility":0.519,"metro_line_density":3.535,"station_count":2,"line_count":1,"population_density":9520.3568,"poi_density":0.0,"poi_diversity":0.0,"gdp_density":0.0,"P":9520.3568,"I":0.0,"G":0.0},{"stationName":"广州花地湾(地铁站)","station_id":"广州花地湾(地铁站)_23.08975_113.22871","lineId":"广州地铁1号线","lat":23.08974785,"lon":113.22870587,"area_km2":2.6639,"D":0.3017,"C":0.7753,"T":0.1174,"U1":0.1915,"U2":0.0433,"couplingDegree":0.3017,"level":"中度失调","road_density":33.1286,"walk_accessibility":0.5341,"metro_line_density":4.8753,"station_count":2,"line_count":1,"population_density":11236.0616,"poi_density":0.0,"poi_diversity":0.0,"gdp_density":0.0,"P":11236.0616,"I":0.0,"G":0.0},{"stationName":"广州芳村(地铁站)","station_id":"广州芳村(地铁站)_23.10157_113.23069","lineId":"广州地铁11号线 / 广州地铁1号线 / 广州地铁22号线","lat":23.101569972,"lon":113.230690944,"area_km2":2.4325,"D":0.4247,"C":0.9216,"T":0.1957,"U1":0.2717,"U2":0.1197,"couplingDegree":0.4247,"level":"勉强协调","road_density":29.65,"walk_accessibility":0.4877,"metro_line_density":6.7234,"station_count":1,"line_count":3,"population_density":31102.8382,"poi_density":0.0,"poi_diversity":0.0,"gdp_density":0.0,"P":31102.8382,"I":0.0,"G":0.0},{"stationName":"广州黄沙(地铁站)","station_id":"广州黄沙(地铁站)_23.11242_113.23510","lineId":"广州地铁1号线 / 广州地铁6号线","lat":23.112418535000003,"lon":113.235100905,"area_km2":2.1562,"D":0.3603,"C":0.7928,"T":0.1637,"U1":0.2635,"U2":0.064,"couplingDegree":0.3603,"level":"中度失调","road_density":32.1177,"walk_accessibility":0.4323,"metro_line_density":5.4232,"station_count":2,"line_count":2,"population_density":16611.359,"poi_density":0.0,"poi_diversity":0.0,"gdp_density":0.0,"P":16611.359,"I":0.0,"G":0.0},{"stationName":"广州长寿路(地铁站)","station_id":"广州长寿路(地铁站)_23.12109_113.23695","lineId":"广州地铁1号线","lat":23.12108553,"lon":113.23694782499999,"area_km2":3.1815,"D":0.4997,"C":0.9616,"T":0.2596,"U1":0.3309,"U2":0.1884,"couplingDegree":0.4997,"level":"勉强协调","road_density":28.0217,"walk_accessibility":0.6379,"metro_line_density":2.2972,"station_count":3,"line_count":2,"population_density":48926.3049,"poi_density":0.0,"poi_diversity":0.0,"gdp_density":0.0,"P":48926.3049,"I":0.0,"G":0.0},{"stationName":"广州陈家祠(地铁站)","station_id":"广州陈家祠(地铁站)_23.12841_113.24111","lineId":"广州地铁1号线","lat":23.12840889,"lon":113.24111492,"area_km2":3.0666,"D":0.4359,"C":0.9558,"T":0.1988,"U1":0.2573,"U2":0.1403,"couplingDegree":0.4359,"level":"勉强协调","road_density":30.341,"walk_accessibility":0.6148,"metro_line_density":2.8115,"station_count":3,"line_count":1,"population_density":36451.6262,"poi_density":0.0,"poi_diversity":0.0,"gdp_density":0.0,"P":36451.6262,"I":0.0,"G":0.0},{"stationName":"广州西门口(地铁站)","station_id":"广州西门口(地铁站)_23.12790_113.25050","lineId":"广州地铁1号线","lat":23.127900420000003,"lon":113.25050498,"area_km2":3.5231,"D":0.5866,"C":0.8656,"T":0.3975,"U1":0.5965,"U2":0.1985,"couplingDegree":0.5866,"level":"勉强协调","road_density":32.1814,"walk_accessibility":0.7064,"metro_line_density":3.6105,"station_count":4,"line_count":4,"population_density":51558.4029,"poi_density":0.0,"poi_diversity":0.0,"gdp_density":0.0,"P":51558.4029,"I":0.0,"G":0.0},{"stationName":"广州公园前(地铁站)","station_id":"广州公园前(地铁站)_23.12810_113.25885","lineId":"广州地铁1号线","lat":23.12809794,"lon":113.25885318,"area_km2":3.2838,"D":0.5346,"C":0.6605,"T":0.4328,"U1":0.7577,"U2":0.1078,"couplingDegree":0.5346,"level":"勉强协调","road_density":31.5047,"walk_accessibility":0.6584,"metro_line_density":5.1549,"station_count":5,"line_count":5,"population_density":28011.8824,"poi_density":0.0,"poi_diversity":0.0,"gdp_density":0.0,"P":28011.8824,"I":0.0,"G":0.0},{"stationName":"广州农讲所(地铁站)","station_id":"广州农讲所(地铁站)_23.12929_113.27026","lineId":"广州地铁1号线","lat":23.12929255,"lon":113.27026288,"area_km2":3.2668,"D":0.6568,"C":0.983,"T":0.4389,"U1":0.3583,"U2":0.5195,"couplingDegree":0.6568,"level":"良好协调","road_density":32.2013,"walk_accessibility":0.655,"metro_line_density":4.7849,"station_count":3,"line_count":2,"population_density":59478.2954,"poi_density":0.0,"poi_diversity":0.0,"gdp_density":5268.954,"P":59478.2954,"I":0.0,"G":5268.954},{"stationName":"广州烈士陵园(地铁站)","station_id":"广州烈士陵园(地铁站)_23.12867_113.28080","lineId":"广州地铁12号线 / 广州地铁1号线","lat":23.12866966,"lon":113.28079735,"area_km2":2.9241,"D":0.6139,"C":0.8411,"T":0.4481,"U1":0.6904,"U2":0.2057,"couplingDegree":0.6139,"level":"良好协调","road_density":34.1382,"walk_accessibility":0.5863,"metro_line_density":6.8814,"station_count":4,"line_count":5,"population_density":53442.2491,"poi_density":0.0,"poi_diversity":0.0,"gdp_density":0.0,"P":53442.2491,"I":0.0,"G":0.0},{"stationName":"广州东山口(地铁站)","station_id":"广州东山口(地铁站)_23.12652_113.29043","lineId":"广州地铁1号线 / 广州地铁6号线","lat":23.126521175,"lon":113.2904276,"area_km2":3.0671,"D":0.585,"C":0.9131,"T":0.3748,"U1":0.5276,"U2":0.222,"couplingDegree":0.585,"level":"勉强协调","road_density":30.7666,"walk_accessibility":0.6149,"metro_line_density":7.5123,"station_count":3,"line_count":4,"population_density":57670.5358,"poi_density":0.0,"poi_diversity":0.0,"gdp_density":0.0,"P":57670.5358,"I":0.0,"G":0.0},{"stationName":"广州杨箕(地铁站)","station_id":"广州杨箕(地铁站)_23.13014_113.30283","lineId":"广州地铁1号线 / 广州地铁5号线","lat":23.130141115,"lon":113.30282725500001,"area_km2":2.2657,"D":0.5285,"C":0.8848,"T":0.3156,"U1":0.4627,"U2":0.1686,"couplingDegree":0.5285,"level":"勉强协调","road_density":38.3154,"walk_accessibility":0.4543,"metro_line_density":9.104,"station_count":3,"line_count":3,"population_density":43782.9372,"poi_density":0.0,"poi_diversity":0.0,"gdp_density":0.0,"P":43782.9372,"I":0.0,"G":0.0},{"stationName":"广州体育西路(地铁站)","station_id":"广州体育西路(地铁站)_23.13542_113.31711","lineId":"广州地铁10号线 / 广州地铁1号线","lat":23.135422016666666,"lon":113.31710547333334,"area_km2":2.8779,"D":0.6962,"C":0.9846,"T":0.4923,"U1":0.5785,"U2":0.4062,"couplingDegree":0.6962,"level":"良好协调","road_density":45.0716,"walk_accessibility":0.577,"metro_line_density":9.8035,"station_count":3,"line_count":4,"population_density":19989.2373,"poi_density":0.0,"poi_diversity":0.0,"gdp_density":5972.2455,"P":19989.2373,"I":0.0,"G":5972.2455},{"stationName":"广州体育中心(地铁站)","station_id":"广州体育中心(地铁站)_23.13715_113.32295","lineId":"广州地铁1号线","lat":23.13715107,"lon":113.32294731,"area_km2":3.1275,"D":0.7014,"C":0.9908,"T":0.4965,"U1":0.5638,"U2":0.4293,"couplingDegree":0.7014,"level":"良好协调","road_density":41.9356,"walk_accessibility":0.6271,"metro_line_density":7.9619,"station_count":3,"line_count":4,"population_density":32819.0585,"poi_density":0.0,"poi_diversity":0.0,"gdp_density":5495.6416,"P":32819.0585,"I":0.0,"G":5495.6416},{"stationName":"广州广州东站(地铁站)","station_id":"广州广州东站(地铁站)_23.15339_113.31958","lineId":"广州地铁11号线 / 广州地铁18号线 / 广州地铁1号线 / 广州地铁3号线","lat":23.1533919375,"lon":113.3195788075,"area_km2":1.5228,"D":0.5357,"C":0.7811,"T":0.3674,"U1":0.5968,"U2":0.138,"couplingDegree":0.5357,"level":"勉强协调","road_density":34.2442,"walk_accessibility":0.3053,"metro_line_density":8.5864,"station_count":3,"line_count":5,"population_density":35847.4031,"poi_density":0.0,"poi_diversity":0.0,"gdp_density":0.0,"P":35847.4031,"I":0.0,"G":0.0},{"stationName":"广州广州南站(地铁站)","station_id":"广州广州南站(地铁站)_22.99152_113.26361","lineId":"广州地铁2号线 / 广州地铁7号线","lat":22.991516100000002,"lon":113.26360775,"area_km2":1.6,"D":0.5782,"C":0.9382,"T":0.3563,"U1":0.233,"U2":0.4797,"couplingDegree":0.5782,"level":"勉强协调","road_density":30.0987,"walk_accessibility":0.3208,"metro_line_density":2.7638,"station_count":2,"line_count":2,"population_density":163.1218,"poi_density":0.0,"poi_diversity":0.0,"gdp_density":8689.5202,"P":163.1218,"I":0.0,"G":8689.5202},{"stationName":"广州石壁(地铁站)","station_id":"广州石壁(地铁站)_22.99687_113.27331","lineId":"广州地铁2号线 / 广州地铁7号线","lat":22.996867006666665,"lon":113.27331355000001,"area_km2":1.477,"D":0.1043,"C":0.0965,"T":0.1128,"U1":0.2251,"U2":0.0005,"couplingDegree":0.1043,"level":"极度失调","road_density":29.1067,"walk_accessibility":0.2961,"metro_line_density":2.2522,"station_count":2,"line_count":2,"population_density":136.7606,"poi_density":0.0,"poi_diversity":0.0,"gdp_density":0.0,"P":136.7606,"I":0.0,"G":0.0},{"stationName":"广州会江(地铁站)","station_id":"广州会江(地铁站)_23.01575_113.28105","lineId":"广州地铁2号线","lat":23.01575206,"lon":113.28104841,"area_km2":1.5662,"D":0.1279,"C":0.5299,"T":0.0309,"U1":0.057,"U2":0.0047,"couplingDegree":0.1279,"level":"极度失调","road_density":26.7174,"walk_accessibility":0.314,"metro_line_density":1.5746,"station_count":1,"line_count":1,"population_density":1218.2159,"poi_density":0.0,"poi_diversity":0.0,"gdp_density":0.0,"P":1218.2159,"I":0.0,"G":0.0},{"stationName":"广州南浦(地铁站)","station_id":"广州南浦(地铁站)_23.03562_113.28780","lineId":"广州地铁2号线","lat":23.03561612,"lon":113.28779802,"area_km2":2.0582,"D":0.2314,"C":0.6885,"T":0.0778,"U1":0.1342,"U2":0.0214,"couplingDegree":0.2314,"level":"中度失调","road_density":22.079,"walk_accessibility":0.4127,"metro_line_density":2.2901,"station_count":2,"line_count":1,"population_density":5552.3143,"poi_density":0.0,"poi_diversity":0.0,"gdp_density":0.0,"P":5552.3143,"I":0.0,"G":0.0},{"stationName":"广州洛溪(地铁站)","station_id":"广州洛溪(地铁站)_23.04557_113.29330","lineId":"广州地铁2号线","lat":23.04557025,"lon":113.29329905,"area_km2":2.2862,"D":0.436,"C":0.9558,"T":0.1989,"U1":0.1404,"U2":0.2574,"couplingDegree":0.436,"level":"勉强协调","road_density":23.4802,"walk_accessibility":0.4584,"metro_line_density":1.9207,"station_count":2,"line_count":1,"population_density":8184.2611,"poi_density":0.0,"poi_diversity":0.0,"gdp_density":4098.1136,"P":8184.2611,"I":0.0,"G":4098.1136},{"stationName":"广州南洲(地铁站)","station_id":"广州南洲(地铁站)_23.06705_113.29228","lineId":"广州地铁2号线 / 广州广州广佛线(新城东--沥滘)","lat":23.067046689999998,"lon":113.29228402999999,"area_km2":2.0158,"D":0.3717,"C":0.7091,"T":0.1948,"U1":0.3322,"U2":0.0574,"couplingDegree":0.3717,"level":"中度失调","road_density":28.7488,"walk_accessibility":0.4042,"metro_line_density":5.4052,"station_count":2,"line_count":3,"population_density":14921.415,"poi_density":0.0,"poi_diversity":0.0,"gdp_density":0.0,"P":14921.415,"I":0.0,"G":0.0},{"stationName":"广州东晓南(地铁站)","station_id":"广州东晓南(地铁站)_23.07382_113.28831","lineId":"广州地铁10号线 / 广州地铁2号线","lat":23.073824185,"lon":113.288305735,"area_km2":2.4767,"D":0.638,"C":0.9803,"T":0.4153,"U1":0.3333,"U2":0.4972,"couplingDegree":0.638,"level":"良好协调","road_density":26.7811,"walk_accessibility":0.4966,"metro_line_density":5.1268,"station_count":2,"line_count":3,"population_density":30013.6292,"poi_density":0.0,"poi_diversity":0.0,"gdp_density":6923.6866,"P":30013.6292,"I":0.0,"G":6923.6866},{"stationName":"广州江泰路(地铁站)","station_id":"广州江泰路(地铁站)_23.08473_113.27448","lineId":"广州地铁11号线 / 广州地铁2号线","lat":23.084725855000002,"lon":113.27447567,"area_km2":1.8654,"D":0.3739,"C":0.8963,"T":0.1559,"U1":0.2251,"U2":0.0868,"couplingDegree":0.3739,"level":"中度失调","road_density":24.5891,"walk_accessibility":0.374,"metro_line_density":3.3721,"station_count":2,"line_count":2,"population_density":22543.0064,"poi_density":0.0,"poi_diversity":0.0,"gdp_density":0.0,"P":22543.0064,"I":0.0,"G":0.0},{"stationName":"广州昌岗(地铁站)","station_id":"广州昌岗(地铁站)_23.09278_113.27177","lineId":"广州地铁2号线","lat":23.092775465000003,"lon":113.271770785,"area_km2":2.862,"D":0.4471,"C":0.8916,"T":0.2242,"U1":0.3258,"U2":0.1227,"couplingDegree":0.4471,"level":"勉强协调","road_density":28.3273,"walk_accessibility":0.5738,"metro_line_density":2.2543,"station_count":3,"line_count":2,"population_density":31868.7879,"poi_density":0.0,"poi_diversity":0.0,"gdp_density":0.0,"P":31868.7879,"I":0.0,"G":0.0},{"stationName":"广州江南西(地铁站)","station_id":"广州江南西(地铁站)_23.09990_113.26858","lineId":"广州地铁2号线","lat":23.09989636,"lon":113.26858341,"area_km2":3.0765,"D":0.5777,"C":0.9632,"T":0.3465,"U1":0.2534,"U2":0.4397,"couplingDegree":0.5777,"level":"勉强协调","road_density":30.9584,"walk_accessibility":0.6168,"metro_line_density":1.7326,"station_count":3,"line_count":1,"population_density":34236.1608,"poi_density":0.0,"poi_diversity":0.0,"gdp_density":5585.651,"P":34236.1608,"I":0.0,"G":5585.651},{"stationName":"广州市二宫(地铁站)","station_id":"广州市二宫(地铁站)_23.10868_113.26456","lineId":"广州地铁2号线","lat":23.10867898,"lon":113.26455869,"area_km2":2.8643,"D":0.6386,"C":0.98,"T":0.4161,"U1":0.3332,"U2":0.4989,"couplingDegree":0.6386,"level":"良好协调","road_density":31.105,"walk_accessibility":0.5743,"metro_line_density":2.1328,"station_count":3,"line_count":2,"population_density":43683.3503,"poi_density":0.0,"poi_diversity":0.0,"gdp_density":5999.6019,"P":43683.3503,"I":0.0,"G":5999.6019},{"stationName":"广州海珠广场(地铁站)","station_id":"广州海珠广场(地铁站)_23.11743_113.26044","lineId":"广州地铁2号线 / 广州地铁6号线","lat":23.117431815000003,"lon":113.26044308499999,"area_km2":3.1122,"D":0.5069,"C":0.8966,"T":0.2865,"U1":0.4134,"U2":0.1597,"couplingDegree":0.5069,"level":"勉强协调","road_density":27.0237,"walk_accessibility":0.624,"metro_line_density":3.3055,"station_count":3,"line_count":3,"population_density":41469.6976,"poi_density":0.0,"poi_diversity":0.0,"gdp_density":0.0,"P":41469.6976,"I":0.0,"G":0.0},{"stationName":"广州纪念堂(地铁站)","station_id":"广州纪念堂(地铁站)_23.13473_113.25708","lineId":"广州地铁13号线 / 广州地铁2号线 / 广州地铁8号线","lat":23.134734716666667,"lon":113.25708422666666,"area_km2":3.0782,"D":0.7437,"C":0.9952,"T":0.5558,"U1":0.6104,"U2":0.5013,"couplingDegree":0.7437,"level":"良好协调","road_density":32.9765,"walk_accessibility":0.6172,"metro_line_density":7.1913,"station_count":4,"line_count":4,"population_density":50131.2129,"poi_density":0.0,"poi_diversity":0.0,"gdp_density":5591.8869,"P":50131.2129,"I":0.0,"G":5591.8869},{"stationName":"广州越秀公园(地铁站)","station_id":"广州越秀公园(地铁站)_23.14244_113.25617","lineId":"广州地铁2号线","lat":23.14244166,"lon":113.25617401,"area_km2":2.5829,"D":0.5905,"C":0.7486,"T":0.4657,"U1":0.7745,"U2":0.1569,"couplingDegree":0.5905,"level":"勉强协调","road_density":34.8451,"walk_accessibility":0.5179,"metro_line_density":7.5763,"station_count":3,"line_count":7,"population_density":40767.0211,"poi_density":0.0,"poi_diversity":0.0,"gdp_density":0.0,"P":40767.0211,"I":0.0,"G":0.0},{"stationName":"广州广州火车站(地铁站)","station_id":"广州广州火车站(地铁站)_23.15084_113.25170","lineId":"广州地铁11号线 / 广州地铁14号线 / 广州地铁22号线 / 广州地铁2号线 / 广州地铁5号线","lat":23.15084483833333,"lon":113.25170346499999,"area_km2":2.3501,"D":0.6031,"C":0.7615,"T":0.4776,"U1":0.7872,"U2":0.168,"couplingDegree":0.6031,"level":"良好协调","road_density":37.1019,"walk_accessibility":0.4712,"metro_line_density":10.065,"station_count":4,"line_count":6,"population_density":43647.6684,"poi_density":0.0,"poi_diversity":0.0,"gdp_density":0.0,"P":43647.6684,"I":0.0,"G":0.0},{"stationName":"广州三元里(地铁站)","station_id":"广州三元里(地铁站)_23.16207_113.25152","lineId":"广州地铁2号线","lat":23.1620706,"lon":113.25152331,"area_km2":1.9886,"D":0.6138,"C":0.781,"T":0.4824,"U1":0.7836,"U2":0.1811,"couplingDegree":0.6138,"level":"良好协调","road_density":36.5183,"walk_accessibility":0.3987,"metro_line_density":10.9188,"station_count":4,"line_count":6,"population_density":47039.2609,"poi_density":0.0,"poi_diversity":0.0,"gdp_density":0.0,"P":47039.2609,"I":0.0,"G":0.0},{"stationName":"广州飞翔公园(地铁站)","station_id":"广州飞翔公园(地铁站)_23.17149_113.25830","lineId":"广州地铁2号线","lat":23.1714946,"lon":113.2583034,"area_km2":1.3297,"D":0.3794,"C":0.9907,"T":0.1453,"U1":0.165,"U2":0.1256,"couplingDegree":0.3794,"level":"中度失调","road_density":28.7009,"walk_accessibility":0.2666,"metro_line_density":6.8069,"station_count":2,"line_count":1,"population_density":32614.1,"poi_density":0.0,"poi_diversity":0.0,"gdp_density":0.0,"P":32614.1,"I":0.0,"G":0.0},{"stationName":"广州白云公园(地铁站)","station_id":"广州白云公园(地铁站)_23.18426_113.26563","lineId":"广州地铁2号线","lat":23.1842649,"lon":113.26562739,"area_km2":2.0487,"D":0.3347,"C":0.7703,"T":0.1455,"U1":0.2383,"U2":0.0527,"couplingDegree":0.3347,"level":"中度失调","road_density":28.7257,"walk_accessibility":0.4108,"metro_line_density":2.9697,"station_count":2,"line_count":2,"population_density":13689.2857,"poi_density":0.0,"poi_diversity":0.0,"gdp_density":0.0,"P":13689.2857,"I":0.0,"G":0.0},{"stationName":"广州白云文化广场(地铁站)","station_id":"广州白云文化广场(地铁站)_23.19388_113.27084","lineId":"广州地铁12号线 / 广州地铁2号线","lat":23.193875730000002,"lon":113.27084250499999,"area_km2":1.8818,"D":0.6385,"C":0.9738,"T":0.4187,"U1":0.3235,"U2":0.5138,"couplingDegree":0.6385,"level":"良好协调","road_density":29.5813,"walk_accessibility":0.3773,"metro_line_density":4.4171,"station_count":3,"line_count":2,"population_density":2990.2198,"poi_density":0.0,"poi_diversity":0.0,"gdp_density":9111.3926,"P":2990.2198,"I":0.0,"G":9111.3926},{"stationName":"广州萧岗(地铁站)","station_id":"广州萧岗(地铁站)_23.20122_113.27535","lineId":"广州地铁2号线","lat":23.20121738,"lon":113.27534695,"area_km2":1.6302,"D":0.3226,"C":0.7289,"T":0.1428,"U1":0.2406,"U2":0.045,"couplingDegree":0.3226,"level":"中度失调","road_density":31.1829,"walk_accessibility":0.3269,"metro_line_density":3.4677,"station_count":2,"line_count":2,"population_density":11699.1748,"poi_density":0.0,"poi_diversity":0.0,"gdp_density":0.0,"P":11699.1748,"I":0.0,"G":0.0},{"stationName":"广州江夏(地铁站)","station_id":"广州江夏(地铁站)_23.21393_113.27810","lineId":"广州地铁2号线","lat":23.21393056,"lon":113.27809704,"area_km2":1.9634,"D":0.249,"C":0.6606,"T":0.0939,"U1":0.1643,"U2":0.0234,"couplingDegree":0.249,"level":"中度失调","road_density":33.4297,"walk_accessibility":0.3937,"metro_line_density":2.0582,"station_count":2,"line_count":1,"population_density":6077.6436,"poi_density":0.0,"poi_diversity":0.0,"gdp_density":0.0,"P":6077.6436,"I":0.0,"G":0.0},{"stationName":"广州黄边(地铁站)","station_id":"广州黄边(地铁站)_23.22427_113.28202","lineId":"广州地铁2号线","lat":23.22426556,"lon":113.28201544999999,"area_km2":2.006,"D":0.2653,"C":0.4197,"T":0.1678,"U1":0.32,"U2":0.0155,"couplingDegree":0.2653,"level":"中度失调","road_density":25.595,"walk_accessibility":0.4022,"metro_line_density":5.493,"station_count":3,"line_count":2,"population_density":4023.3402,"poi_density":0.0,"poi_diversity":0.0,"gdp_density":0.0,"P":4023.3402,"I":0.0,"G":0.0},{"stationName":"广州嘉禾望岗(地铁站)","station_id":"广州嘉禾望岗(地铁站)_23.24006_113.28373","lineId":"广州地铁14号线 / 广州地铁2号线","lat":23.24006153,"lon":113.28373465,"area_km2":1.81,"D":0.1994,"C":0.5104,"T":0.0779,"U1":0.1449,"U2":0.0109,"couplingDegree":0.1994,"level":"极度失调","road_density":23.7737,"walk_accessibility":0.3629,"metro_line_density":3.5644,"station_count":1,"line_count":2,"population_density":2833.6298,"poi_density":0.0,"poi_diversity":0.0,"gdp_density":0.0,"P":2833.6298,"I":0.0,"G":0.0},{"stationName":"广州南庄(地铁站)","station_id":"广州南庄(地铁站)_22.98568_113.00127","lineId":"广州地铁2号线","lat":22.9856765,"lon":113.00126738,"area_km2":1.0821,"D":0.0,"C":0.0,"T":0.0145,"U1":0.029,"U2":0.0,"couplingDegree":0.0,"level":"极度失调","road_density":18.5412,"walk_accessibility":0.2169,"metro_line_density":2.414,"station_count":1,"line_count":1,"population_density":0.0,"poi_density":0.0,"poi_diversity":0.0,"gdp_density":0.0,"P":0.0,"I":0.0,"G":0.0},{"stationName":"广州湖涌(地铁站)","station_id":"广州湖涌(地铁站)_23.00587_113.00606","lineId":"广州地铁2号线","lat":23.00586621,"lon":113.00605872,"area_km2":1.522,"D":0.0,"C":0.0,"T":0.0242,"U1":0.0484,"U2":0.0,"couplingDegree":0.0,"level":"极度失调","road_density":24.7763,"walk_accessibility":0.3052,"metro_line_density":1.172,"station_count":1,"line_count":1,"population_density":0.0,"poi_density":0.0,"poi_diversity":0.0,"gdp_density":0.0,"P":0.0,"I":0.0,"G":0.0},{"stationName":"广州绿岛湖(地铁站)","station_id":"广州绿岛湖(地铁站)_23.00462_113.02886","lineId":"广州地铁2号线","lat":23.00462025,"lon":113.02886193,"area_km2":1.4413,"D":0.0,"C":0.0,"T":0.0227,"U1":0.0455,"U2":0.0,"couplingDegree":0.0,"level":"极度失调","road_density":19.8971,"walk_accessibility":0.289,"metro_line_density":3.5049,"station_count":1,"line_count":1,"population_density":0.0,"poi_density":0.0,"poi_diversity":0.0,"gdp_density":0.0,"P":0.0,"I":0.0,"G":0.0},{"stationName":"广州智慧新城(地铁站)","station_id":"广州智慧新城(地铁站)_23.01375_113.04998","lineId":"广州地铁2号线","lat":23.01375057,"lon":113.04998269,"area_km2":1.4739,"D":0.0,"C":0.0,"T":0.0315,"U1":0.0631,"U2":0.0,"couplingDegree":0.0,"level":"极度失调","road_density":25.7561,"walk_accessibility":0.2955,"metro_line_density":3.4949,"station_count":1,"line_count":1,"population_density":0.0,"poi_density":0.0,"poi_diversity":0.0,"gdp_density":0.0,"P":0.0,"I":0.0,"G":0.0},{"stationName":"广州张槎(地铁站)","station_id":"广州张槎(地铁站)_23.01360_113.06229","lineId":"广州地铁2号线","lat":23.01360472,"lon":113.06228855,"area_km2":1.9482,"D":0.0,"C":0.0,"T":0.0331,"U1":0.0663,"U2":0.0,"couplingDegree":0.0,"level":"极度失调","road_density":25.3071,"walk_accessibility":0.3906,"metro_line_density":2.7477,"station_count":1,"line_count":1,"population_density":0.0,"poi_density":0.0,"poi_diversity":0.0,"gdp_density":0.0,"P":0.0,"I":0.0,"G":0.0},{"stationName":"广州石湾(地铁站)","station_id":"广州石湾(地铁站)_23.00785_113.07781","lineId":"广州地铁2号线","lat":23.00785134,"lon":113.07780596,"area_km2":1.8673,"D":0.0,"C":0.0,"T":0.0271,"U1":0.0542,"U2":0.0,"couplingDegree":0.0,"level":"极度失调","road_density":21.9283,"walk_accessibility":0.3744,"metro_line_density":2.6126,"station_count":1,"line_count":1,"population_density":0.0,"poi_density":0.0,"poi_diversity":0.0,"gdp_density":0.0,"P":0.0,"I":0.0,"G":0.0},{"stationName":"广州沙岗(地铁站)","station_id":"广州沙岗(地铁站)_22.99907_113.08876","lineId":"广州地铁2号线","lat":22.99907018,"lon":113.08876009,"area_km2":1.9,"D":0.0,"C":0.0,"T":0.0301,"U1":0.0601,"U2":0.0,"couplingDegree":0.0,"level":"极度失调","road_density":23.4604,"walk_accessibility":0.3809,"metro_line_density":2.7693,"station_count":1,"line_count":1,"population_density":0.0,"poi_density":0.0,"poi_diversity":0.0,"gdp_density":0.0,"P":0.0,"I":0.0,"G":0.0},{"stationName":"广州魁奇路(地铁站)","station_id":"广州魁奇路(地铁站)_22.99634_113.10313","lineId":"广州地铁2号线","lat":22.99634112,"lon":113.10312806,"area_km2":2.4573,"D":0.0,"C":0.0,"T":0.0785,"U1":0.1571,"U2":0.0,"couplingDegree":0.0,"level":"极度失调","road_density":24.125,"walk_accessibility":0.4927,"metro_line_density":4.0608,"station_count":2,"line_count":1,"population_density":0.0,"poi_density":0.0,"poi_diversity":0.0,"gdp_density":0.0,"P":0.0,"I":0.0,"G":0.0},{"stationName":"广州石梁(地铁站)","station_id":"广州石梁(地铁站)_22.99525_113.11326","lineId":"广州地铁2号线","lat":22.99525313,"lon":113.1132637,"area_km2":2.0501,"D":0.0,"C":0.0,"T":0.0693,"U1":0.1387,"U2":0.0,"couplingDegree":0.0,"level":"极度失调","road_density":22.3121,"walk_accessibility":0.411,"metro_line_density":3.0104,"station_count":2,"line_count":1,"population_density":0.0,"poi_density":0.0,"poi_diversity":0.0,"gdp_density":0.0,"P":0.0,"I":0.0,"G":0.0},{"stationName":"广州湾华(地铁站)","station_id":"广州湾华(地铁站)_22.99445_113.12618","lineId":"广州地铁2号线","lat":22.99444635,"lon":113.12617985,"area_km2":2.0562,"D":0.0,"C":0.0,"T":0.0281,"U1":0.0561,"U2":0.0,"couplingDegree":0.0,"level":"极度失调","road_density":21.5916,"walk_accessibility":0.4123,"metro_line_density":2.5123,"station_count":1,"line_count":1,"population_density":0.0,"poi_density":0.0,"poi_diversity":0.0,"gdp_density":0.0,"P":0.0,"I":0.0,"G":0.0},{"stationName":"广州登洲(地铁站)","station_id":"广州登洲(地铁站)_22.98190_113.14333","lineId":"广州地铁2号线","lat":22.98190002,"lon":113.14333221,"area_km2":2.007,"D":0.0,"C":0.0,"T":0.0295,"U1":0.059,"U2":0.0,"couplingDegree":0.0,"level":"极度失调","road_density":23.4823,"walk_accessibility":0.4024,"metro_line_density":2.1999,"station_count":1,"line_count":1,"population_density":0.0,"poi_density":0.0,"poi_diversity":0.0,"gdp_density":0.0,"P":0.0,"I":0.0,"G":0.0},{"stationName":"广州花卉世界(地铁站)","station_id":"广州花卉世界(地铁站)_22.97602_113.15593","lineId":"广州地铁2号线","lat":22.97602016,"lon":113.15592703,"area_km2":2.0796,"D":0.0,"C":0.0,"T":0.025,"U1":0.05,"U2":0.0,"couplingDegree":0.0,"level":"极度失调","road_density":20.0667,"walk_accessibility":0.417,"metro_line_density":2.1333,"station_count":1,"line_count":1,"population_density":0.0,"poi_density":0.0,"poi_diversity":0.0,"gdp_density":0.0,"P":0.0,"I":0.0,"G":0.0},{"stationName":"广州仙涌(地铁站)","station_id":"广州仙涌(地铁站)_22.98570_113.19290","lineId":"广州地铁2号线","lat":22.9857025,"lon":113.19289673,"area_km2":1.92,"D":0.0,"C":0.0,"T":0.0253,"U1":0.0506,"U2":0.0,"couplingDegree":0.0,"level":"极度失调","road_density":20.6115,"walk_accessibility":0.3849,"metro_line_density":2.4744,"station_count":1,"line_count":1,"population_density":0.0,"poi_density":0.0,"poi_diversity":0.0,"gdp_density":0.0,"P":0.0,"I":0.0,"G":0.0},{"stationName":"广州石洲(地铁站)","station_id":"广州石洲(地铁站)_22.99331_113.21080","lineId":"广州地铁2号线","lat":22.99331114,"lon":113.21079849,"area_km2":2.0754,"D":0.0,"C":0.0,"T":0.0244,"U1":0.0487,"U2":0.0,"couplingDegree":0.0,"level":"极度失调","road_density":19.0232,"walk_accessibility":0.4161,"metro_line_density":2.4703,"station_count":1,"line_count":1,"population_density":0.0,"poi_density":0.0,"poi_diversity":0.0,"gdp_density":0.0,"P":0.0,"I":0.0,"G":0.0},{"stationName":"广州林岳西(地铁站)","station_id":"广州林岳西(地铁站)_22.99648_113.23184","lineId":"广州地铁2号线","lat":22.99647914,"lon":113.231844905,"area_km2":1.7857,"D":0.0,"C":0.0,"T":0.0309,"U1":0.0618,"U2":0.0,"couplingDegree":0.0,"level":"极度失调","road_density":23.8314,"walk_accessibility":0.358,"metro_line_density":3.2549,"station_count":1,"line_count":1,"population_density":0.0,"poi_density":0.0,"poi_diversity":0.0,"gdp_density":0.0,"P":0.0,"I":0.0,"G":0.0},{"stationName":"广州林岳东(2号线)(地铁站)","station_id":"广州林岳东(2号线)(地铁站)_22.99665_113.24438","lineId":"广州地铁2号线","lat":22.99664607,"lon":113.24437798,"area_km2":0.9744,"D":0.0,"C":0.0,"T":0.0367,"U1":0.0734,"U2":0.0,"couplingDegree":0.0,"level":"极度失调","road_density":29.1435,"walk_accessibility":0.1954,"metro_line_density":5.2301,"station_count":1,"line_count":1,"population_density":0.0,"poi_density":0.0,"poi_diversity":0.0,"gdp_density":0.0,"P":0.0,"I":0.0,"G":0.0},{"stationName":"广州机场北(2号航站楼)(地铁站)","station_id":"广州机场北(2号航站楼)(地铁站)_23.39806_113.29862","lineId":"广州地铁22号线 / 广州地铁3号线","lat":23.398061685000002,"lon":113.298622825,"area_km2":0.7143,"D":0.0,"C":0.0,"T":0.1389,"U1":0.2777,"U2":0.0,"couplingDegree":0.0,"level":"极度失调","road_density":41.2013,"walk_accessibility":0.1432,"metro_line_density":7.9473,"station_count":2,"line_count":2,"population_density":0.0,"poi_density":0.0,"poi_diversity":0.0,"gdp_density":0.0,"P":0.0,"I":0.0,"G":0.0},{"stationName":"广州机场南(1号航站楼)(地铁站)","station_id":"广州机场南(1号航站楼)(地铁站)_23.38751_113.29649","lineId":"广州地铁22号线 / 广州地铁3号线","lat":23.387508816666667,"lon":113.29649164333334,"area_km2":0.777,"D":0.249,"C":0.3962,"T":0.1565,"U1":0.3002,"U2":0.0128,"couplingDegree":0.249,"level":"中度失调","road_density":41.3371,"walk_accessibility":0.1558,"metro_line_density":11.7672,"station_count":2,"line_count":2,"population_density":3325.6263,"poi_density":0.0,"poi_diversity":0.0,"gdp_density":0.0,"P":3325.6263,"I":0.0,"G":0.0},{"stationName":"广州高增(地铁站)","station_id":"广州高增(地铁站)_23.35773_113.29012","lineId":"广州地铁3号线","lat":23.35773387,"lon":113.29012133,"area_km2":0.9267,"D":0.1191,"C":0.9257,"T":0.0153,"U1":0.0211,"U2":0.0095,"couplingDegree":0.1191,"level":"极度失调","road_density":19.0778,"walk_accessibility":0.1858,"metro_line_density":1.2005,"station_count":1,"line_count":1,"population_density":2476.5815,"poi_density":0.0,"poi_diversity":0.0,"gdp_density":0.0,"P":2476.5815,"I":0.0,"G":0.0},{"stationName":"广州人和(地铁站)","station_id":"广州人和(地铁站)_23.33824_113.28921","lineId":"广州地铁22号线 / 广州地铁3号线","lat":23.33823735,"lon":113.289210885,"area_km2":1.6594,"D":0.2234,"C":0.6237,"T":0.08,"U1":0.1425,"U2":0.0175,"couplingDegree":0.2234,"level":"中度失调","road_density":20.6035,"walk_accessibility":0.3327,"metro_line_density":5.3169,"station_count":1,"line_count":2,"population_density":4537.1013,"poi_density":0.0,"poi_diversity":0.0,"gdp_density":0.0,"P":4537.1013,"I":0.0,"G":0.0},{"stationName":"广州龙归(地铁站)","station_id":"广州龙归(地铁站)_23.29132_113.29545","lineId":"广州地铁3号线","lat":23.291315230000002,"lon":113.29544661,"area_km2":2.0495,"D":0.3907,"C":0.5906,"T":0.2585,"U1":0.0499,"U2":0.467,"couplingDegree":0.3907,"level":"中度失调","road_density":19.4525,"walk_accessibility":0.4109,"metro_line_density":2.54,"station_count":1,"line_count":1,"population_density":8029.3754,"poi_density":0.0,"poi_diversity":0.0,"gdp_density":7911.2459,"P":8029.3754,"I":0.0,"G":7911.2459},{"stationName":"广州白云大道北(地铁站)","station_id":"广州白云大道北(地铁站)_23.22475_113.29210","lineId":"广州地铁3号线","lat":23.224754485,"lon":113.292103325,"area_km2":2.446,"D":0.5323,"C":0.9885,"T":0.2866,"U1":0.33,"U2":0.2433,"couplingDegree":0.5323,"level":"勉强协调","road_density":32.1233,"walk_accessibility":0.4904,"metro_line_density":2.3756,"station_count":3,"line_count":2,"population_density":3731.4128,"poi_density":0.0,"poi_diversity":0.0,"gdp_density":4152.9888,"P":3731.4128,"I":0.0,"G":4152.9888},{"stationName":"广州永泰(地铁站)","station_id":"广州永泰(地铁站)_23.22247_113.30084","lineId":"广州地铁3号线","lat":23.22247335,"lon":113.30084268,"area_km2":2.1658,"D":0.4545,"C":0.9721,"T":0.2125,"U1":0.1626,"U2":0.2624,"couplingDegree":0.4545,"level":"勉强协调","road_density":30.8315,"walk_accessibility":0.4342,"metro_line_density":2.4664,"station_count":2,"line_count":1,"population_density":993.1708,"poi_density":0.0,"poi_diversity":0.0,"gdp_density":4690.2829,"P":993.1708,"I":0.0,"G":4690.2829},{"stationName":"广州同和(地铁站)","station_id":"广州同和(地铁站)_23.19962_113.32083","lineId":"广州地铁3号线","lat":23.19962259,"lon":113.32083262,"area_km2":1.5674,"D":0.1849,"C":0.9732,"T":0.0351,"U1":0.0432,"U2":0.0271,"couplingDegree":0.1849,"level":"极度失调","road_density":18.9745,"walk_accessibility":0.3143,"metro_line_density":3.1701,"station_count":1,"line_count":1,"population_density":7027.9822,"poi_density":0.0,"poi_diversity":0.0,"gdp_density":0.0,"P":7027.9822,"I":0.0,"G":0.0},{"stationName":"广州京溪南方医院(地铁站)","station_id":"广州京溪南方医院(地铁站)_23.18779_113.32070","lineId":"广州地铁3号线","lat":23.1877933,"lon":113.32069648,"area_km2":1.5741,"D":0.2663,"C":0.9328,"T":0.076,"U1":0.0486,"U2":0.1034,"couplingDegree":0.2663,"level":"中度失调","road_density":19.2015,"walk_accessibility":0.3156,"metro_line_density":4.0108,"station_count":1,"line_count":1,"population_density":26859.2154,"poi_density":0.0,"poi_diversity":0.0,"gdp_density":0.0,"P":26859.2154,"I":0.0,"G":0.0},{"stationName":"广州梅花园(地铁站)","station_id":"广州梅花园(地铁站)_23.17768_113.31499","lineId":"广州地铁3号线","lat":23.17767977,"lon":113.31498956,"area_km2":1.475,"D":0.3037,"C":0.7438,"T":0.124,"U1":0.0411,"U2":0.2068,"couplingDegree":0.3037,"level":"中度失调","road_density":18.9193,"walk_accessibility":0.2957,"metro_line_density":3.1195,"station_count":1,"line_count":1,"population_density":53721.4072,"poi_density":0.0,"poi_diversity":0.0,"gdp_density":0.0,"P":53721.4072,"I":0.0,"G":0.0},{"stationName":"广州燕塘(地铁站)","station_id":"广州燕塘(地铁站)_23.16283_113.32163","lineId":"广州地铁3号线","lat":23.16283329,"lon":113.32162731,"area_km2":1.5528,"D":0.7726,"C":0.9314,"T":0.6408,"U1":0.4076,"U2":0.8741,"couplingDegree":0.7726,"level":"良好协调","road_density":28.413,"walk_accessibility":0.3113,"metro_line_density":6.0699,"station_count":2,"line_count":4,"population_density":68343.07,"poi_density":0.0,"poi_diversity":0.0,"gdp_density":11082.2748,"P":68343.07,"I":0.0,"G":11082.2748},{"stationName":"广州林和西(地铁站)","station_id":"广州林和西(地铁站)_23.14346_113.31823","lineId":"广州地铁3号线 / 广州广州APM线(广州塔--林和西)","lat":23.14346264,"lon":113.31822610500001,"area_km2":2.4249,"D":0.4846,"C":0.5582,"T":0.4207,"U1":0.7697,"U2":0.0716,"couplingDegree":0.4846,"level":"勉强协调","road_density":34.7168,"walk_accessibility":0.4862,"metro_line_density":7.8899,"station_count":4,"line_count":6,"population_density":18604.1562,"poi_density":0.0,"poi_diversity":0.0,"gdp_density":0.0,"P":18604.1562,"I":0.0,"G":0.0},{"stationName":"广州海傍(地铁站)","station_id":"广州海傍(地铁站)_22.94266_113.47033","lineId":"广州地铁3号线 / 广州地铁4号线","lat":22.942664164999997,"lon":113.47033204499999,"area_km2":1.2915,"D":0.0795,"C":0.0801,"T":0.0789,"U1":0.1576,"U2":0.0003,"couplingDegree":0.0795,"level":"极度失调","road_density":32.5613,"walk_accessibility":0.2589,"metro_line_density":2.9158,"station_count":1,"line_count":2,"population_density":65.8175,"poi_density":0.0,"poi_diversity":0.0,"gdp_density":0.0,"P":65.8175,"I":0.0,"G":0.0},{"stationName":"广州海涌路(地铁站)","station_id":"广州海涌路(地铁站)_22.94459_113.45226","lineId":"广州地铁3号线","lat":22.94459027,"lon":113.45225741,"area_km2":0.8856,"D":0.084,"C":0.2931,"T":0.0241,"U1":0.0471,"U2":0.0011,"couplingDegree":0.084,"level":"极度失调","road_density":22.452,"walk_accessibility":0.1776,"metro_line_density":4.2764,"station_count":1,"line_count":1,"population_density":274.405,"poi_density":0.0,"poi_diversity":0.0,"gdp_density":0.0,"P":274.405,"I":0.0,"G":0.0},{"stationName":"广州石碁南(地铁站)","station_id":"广州石碁南(地铁站)_22.94076_113.43420","lineId":"广州地铁3号线","lat":22.94076249,"lon":113.43420182,"area_km2":0.9176,"D":0.1302,"C":0.5855,"T":0.029,"U1":0.0524,"U2":0.0055,"couplingDegree":0.1302,"level":"极度失调","road_density":21.6519,"walk_accessibility":0.184,"metro_line_density":5.5776,"station_count":1,"line_count":1,"population_density":1424.3235,"poi_density":0.0,"poi_diversity":0.0,"gdp_density":0.0,"P":1424.3235,"I":0.0,"G":0.0},{"stationName":"广州傍江(地铁站)","station_id":"广州傍江(地铁站)_22.93928_113.40457","lineId":"广州地铁3号线","lat":22.93927978,"lon":113.40456738,"area_km2":1.4073,"D":0.1677,"C":0.8434,"T":0.0333,"U1":0.0512,"U2":0.0154,"couplingDegree":0.1677,"level":"极度失调","road_density":21.9065,"walk_accessibility":0.2822,"metro_line_density":3.6037,"station_count":1,"line_count":1,"population_density":4005.4981,"poi_density":0.0,"poi_diversity":0.0,"gdp_density":0.0,"P":4005.4981,"I":0.0,"G":0.0},{"stationName":"广州番禺广场(地铁站)","station_id":"广州番禺广场(地铁站)_22.93806_113.38013","lineId":"广州地铁3号线","lat":22.93806417,"lon":113.38013013,"area_km2":2.7796,"D":0.2238,"C":0.7782,"T":0.0644,"U1":0.1048,"U2":0.0239,"couplingDegree":0.2238,"level":"中度失调","road_density":36.7962,"walk_accessibility":0.5573,"metro_line_density":0.9153,"station_count":1,"line_count":1,"population_density":6218.1097,"poi_density":0.0,"poi_diversity":0.0,"gdp_density":0.0,"P":6218.1097,"I":0.0,"G":0.0},{"stationName":"广州黄村(地铁站)","station_id":"广州黄村(地铁站)_23.13568_113.40116","lineId":"广州地铁21号线 / 广州地铁4号线","lat":23.135682833333334,"lon":113.40116035,"area_km2":1.662,"D":0.2113,"C":0.521,"T":0.0857,"U1":0.1589,"U2":0.0126,"couplingDegree":0.2113,"level":"中度失调","road_density":30.0651,"walk_accessibility":0.3332,"metro_line_density":3.2626,"station_count":1,"line_count":2,"population_density":3261.0475,"poi_density":0.0,"poi_diversity":0.0,"gdp_density":0.0,"P":3261.0475,"I":0.0,"G":0.0},{"stationName":"广州车陂(地铁站)","station_id":"广州车陂(地铁站)_23.12707_113.39067","lineId":"广州地铁13号线 / 广州地铁4号线","lat":23.127069765,"lon":113.390674455,"area_km2":1.8077,"D":0.4264,"C":0.825,"T":0.2203,"U1":0.3448,"U2":0.0958,"couplingDegree":0.4264,"level":"勉强协调","road_density":26.6413,"walk_accessibility":0.3624,"metro_line_density":9.5238,"station_count":2,"line_count":3,"population_density":24890.1464,"poi_density":0.0,"poi_diversity":0.0,"gdp_density":0.0,"P":24890.1464,"I":0.0,"G":0.0},{"stationName":"广州车陂南(地铁站)","station_id":"广州车陂南(地铁站)_23.11836_113.38448","lineId":"广州地铁4号线 / 广州地铁5号线","lat":23.118358545,"lon":113.38448477,"area_km2":1.6987,"D":0.3947,"C":0.7687,"T":0.2027,"U1":0.3323,"U2":0.0731,"couplingDegree":0.3947,"level":"中度失调","road_density":27.8826,"walk_accessibility":0.3406,"metro_line_density":6.9427,"station_count":2,"line_count":3,"population_density":18977.1072,"poi_density":0.0,"poi_diversity":0.0,"gdp_density":0.0,"P":18977.1072,"I":0.0,"G":0.0},{"stationName":"广州万胜围(地铁站)","station_id":"广州万胜围(地铁站)_23.10027_113.37904","lineId":"广州地铁4号线","lat":23.10027266,"lon":113.37904334,"area_km2":1.7792,"D":0.2326,"C":0.9397,"T":0.0576,"U1":0.0772,"U2":0.0379,"couplingDegree":0.2326,"level":"中度失调","road_density":27.2035,"walk_accessibility":0.3567,"metro_line_density":4.3025,"station_count":1,"line_count":1,"population_density":9838.4606,"poi_density":0.0,"poi_diversity":0.0,"gdp_density":0.0,"P":9838.4606,"I":0.0,"G":0.0},{"stationName":"广州官洲(地铁站)","station_id":"广州官洲(地铁站)_23.07017_113.37139","lineId":"广州地铁12号线 / 广州地铁4号线","lat":23.070168586666668,"lon":113.37138594999999,"area_km2":1.1347,"D":0.2034,"C":0.4942,"T":0.0837,"U1":0.1565,"U2":0.0109,"couplingDegree":0.2034,"level":"中度失调","road_density":30.9463,"walk_accessibility":0.2275,"metro_line_density":4.0932,"station_count":1,"line_count":2,"population_density":2840.4224,"poi_density":0.0,"poi_diversity":0.0,"gdp_density":0.0,"P":2840.4224,"I":0.0,"G":0.0},{"stationName":"广州大学城北(地铁站)","station_id":"广州大学城北(地铁站)_23.06047_113.38028","lineId":"广州地铁4号线","lat":23.06046717,"lon":113.38027887,"area_km2":2.0403,"D":0.1473,"C":0.5758,"T":0.0377,"U1":0.0685,"U2":0.0069,"couplingDegree":0.1473,"level":"极度失调","road_density":26.3608,"walk_accessibility":0.4091,"metro_line_density":2.2811,"station_count":1,"line_count":1,"population_density":1784.0715,"poi_density":0.0,"poi_diversity":0.0,"gdp_density":0.0,"P":1784.0715,"I":0.0,"G":0.0},{"stationName":"广州大学城南(地铁站)","station_id":"广州大学城南(地铁站)_23.04594_113.39496","lineId":"广州地铁4号线","lat":23.04593859,"lon":113.39495803,"area_km2":2.5023,"D":0.3991,"C":0.9735,"T":0.1636,"U1":0.1262,"U2":0.201,"couplingDegree":0.3991,"level":"中度失调","road_density":39.8856,"walk_accessibility":0.5017,"metro_line_density":4.0945,"station_count":1,"line_count":1,"population_density":920.7477,"poi_density":0.0,"poi_diversity":0.0,"gdp_density":3582.1596,"P":920.7477,"I":0.0,"G":3582.1596},{"stationName":"广州新造(地铁站)","station_id":"广州新造(地铁站)_23.03072_113.41020","lineId":"广州地铁4号线","lat":23.03072258,"lon":113.41020155,"area_km2":1.3472,"D":0.1669,"C":0.8659,"T":0.0322,"U1":0.0483,"U2":0.0161,"couplingDegree":0.1669,"level":"极度失调","road_density":24.796,"walk_accessibility":0.2701,"metro_line_density":1.7231,"station_count":1,"line_count":1,"population_density":4177.5647,"poi_density":0.0,"poi_diversity":0.0,"gdp_density":0.0,"P":4177.5647,"I":0.0,"G":0.0},{"stationName":"广州官桥(地铁站)","station_id":"广州官桥(地铁站)_22.98355_113.43903","lineId":"广州地铁4号线","lat":22.98354846,"lon":113.43902686,"area_km2":0.5263,"D":0.0923,"C":0.9789,"T":0.0087,"U1":0.0069,"U2":0.0105,"couplingDegree":0.0923,"level":"极度失调","road_density":18.1212,"walk_accessibility":0.1055,"metro_line_density":0.44,"station_count":1,"line_count":1,"population_density":2720.8519,"poi_density":0.0,"poi_diversity":0.0,"gdp_density":0.0,"P":2720.8519,"I":0.0,"G":0.0},{"stationName":"广州石碁(地铁站)","station_id":"广州石碁(地铁站)_22.95984_113.45981","lineId":"广州地铁4号线","lat":22.95983691,"lon":113.4598146,"area_km2":1.1474,"D":0.1696,"C":0.9871,"T":0.0291,"U1":0.0245,"U2":0.0338,"couplingDegree":0.1696,"level":"极度失调","road_density":19.1068,"walk_accessibility":0.2301,"metro_line_density":1.0658,"station_count":1,"line_count":1,"population_density":8779.6647,"poi_density":0.0,"poi_diversity":0.0,"gdp_density":0.0,"P":8779.6647,"I":0.0,"G":0.0},{"stationName":"广州低涌(地铁站)","station_id":"广州低涌(地铁站)_22.92219_113.47947","lineId":"广州地铁4号线","lat":22.92218608,"lon":113.47947099,"area_km2":1.651,"D":0.1514,"C":0.89,"T":0.0258,"U1":0.0375,"U2":0.014,"couplingDegree":0.1514,"level":"极度失调","road_density":16.3961,"walk_accessibility":0.331,"metro_line_density":3.2223,"station_count":1,"line_count":1,"population_density":3640.7499,"poi_density":0.0,"poi_diversity":0.0,"gdp_density":0.0,"P":3640.7499,"I":0.0,"G":0.0},{"stationName":"广州东涌(地铁站)","station_id":"广州东涌(地铁站)_22.88830_113.47359","lineId":"广州地铁4号线","lat":22.88829546,"lon":113.47359215,"area_km2":1.5436,"D":0.3271,"C":0.6322,"T":0.1692,"U1":0.0381,"U2":0.3003,"couplingDegree":0.3271,"level":"中度失调","road_density":18.6943,"walk_accessibility":0.3095,"metro_line_density":2.4638,"station_count":1,"line_count":1,"population_density":631.0043,"poi_density":0.0,"poi_diversity":0.0,"gdp_density":5403.7422,"P":631.0043,"I":0.0,"G":5403.7422},{"stationName":"广州庆盛(地铁站)","station_id":"广州庆盛(地铁站)_22.86976_113.48513","lineId":"广州地铁4号线","lat":22.86976012,"lon":113.48513261,"area_km2":1.3899,"D":0.1399,"C":0.6718,"T":0.0291,"U1":0.0507,"U2":0.0076,"couplingDegree":0.1399,"level":"极度失调","road_density":24.9697,"walk_accessibility":0.2787,"metro_line_density":1.9319,"station_count":1,"line_count":1,"population_density":1961.2923,"poi_density":0.0,"poi_diversity":0.0,"gdp_density":0.0,"P":1961.2923,"I":0.0,"G":0.0},{"stationName":"广州黄阁汽车城(地铁站)","station_id":"广州黄阁汽车城(地铁站)_22.83864_113.50446","lineId":"广州地铁4号线","lat":22.83864251,"lon":113.504464935,"area_km2":0.9799,"D":0.3877,"C":0.6041,"T":0.2488,"U1":0.0505,"U2":0.4471,"couplingDegree":0.3877,"level":"中度失调","road_density":21.3907,"walk_accessibility":0.1965,"metro_line_density":5.1628,"station_count":1,"line_count":1,"population_density":336.7744,"poi_density":0.0,"poi_diversity":0.0,"gdp_density":8086.6262,"P":336.7744,"I":0.0,"G":8086.6262},{"stationName":"广州黄阁(地铁站)","station_id":"广州黄阁(地铁站)_22.82760_113.51355","lineId":"广州地铁4号线","lat":22.82759681,"lon":113.51354647,"area_km2":1.0953,"D":0.0709,"C":0.2768,"T":0.0182,"U1":0.0356,"U2":0.0007,"couplingDegree":0.0709,"level":"极度失调","road_density":18.0622,"walk_accessibility":0.2196,"metro_line_density":3.8314,"station_count":1,"line_count":1,"population_density":184.4173,"poi_density":0.0,"poi_diversity":0.0,"gdp_density":0.0,"P":184.4173,"I":0.0,"G":0.0},{"stationName":"广州蕉门(地铁站)","station_id":"广州蕉门(地铁站)_22.80360_113.52231","lineId":"广州地铁4号线","lat":22.80359812,"lon":113.52231004,"area_km2":1.7436,"D":0.1859,"C":0.8321,"T":0.0415,"U1":0.0646,"U2":0.0185,"couplingDegree":0.1859,"level":"极度失调","road_density":26.7032,"walk_accessibility":0.3496,"metro_line_density":2.3743,"station_count":1,"line_count":1,"population_density":4805.0511,"poi_density":0.0,"poi_diversity":0.0,"gdp_density":0.0,"P":4805.0511,"I":0.0,"G":0.0},{"stationName":"广州金洲(地铁站)","station_id":"广州金洲(地铁站)_22.79510_113.53373","lineId":"广州地铁4号线","lat":22.79510434,"lon":113.53373069,"area_km2":1.1106,"D":0.151,"C":0.3453,"T":0.0661,"U1":0.128,"U2":0.0041,"couplingDegree":0.151,"level":"极度失调","road_density":22.6158,"walk_accessibility":0.2227,"metro_line_density":4.0132,"station_count":2,"line_count":1,"population_density":1055.327,"poi_density":0.0,"poi_diversity":0.0,"gdp_density":0.0,"P":1055.327,"I":0.0,"G":0.0},{"stationName":"广州飞沙角(地铁站)","station_id":"广州飞沙角(地铁站)_22.78479_113.53561","lineId":"广州地铁4号线","lat":22.78478867,"lon":113.53560729,"area_km2":0.8355,"D":0.1614,"C":0.2601,"T":0.1001,"U1":0.1968,"U2":0.0034,"couplingDegree":0.1614,"level":"极度失调","road_density":20.6383,"walk_accessibility":0.1675,"metro_line_density":4.3176,"station_count":3,"line_count":1,"population_density":895.2486,"poi_density":0.0,"poi_diversity":0.0,"gdp_density":0.0,"P":895.2486,"I":0.0,"G":0.0},{"stationName":"广州广隆(地铁站)","station_id":"广州广隆(地铁站)_22.77508_113.53558","lineId":"广州地铁4号线","lat":22.77508039,"lon":113.5355785,"area_km2":0.8593,"D":0.1394,"C":0.3682,"T":0.0528,"U1":0.1019,"U2":0.0037,"couplingDegree":0.1394,"level":"极度失调","road_density":16.2298,"walk_accessibility":0.1723,"metro_line_density":3.4705,"station_count":2,"line_count":1,"population_density":963.5567,"poi_density":0.0,"poi_diversity":0.0,"gdp_density":0.0,"P":963.5567,"I":0.0,"G":0.0},{"stationName":"广州大涌(地铁站)","station_id":"广州大涌(地铁站)_22.76205_113.55087","lineId":"广州地铁4号线","lat":22.76204976,"lon":113.55086527,"area_km2":1.1204,"D":0.0741,"C":0.2262,"T":0.0243,"U1":0.0479,"U2":0.0006,"couplingDegree":0.0741,"level":"极度失调","road_density":20.35,"walk_accessibility":0.2246,"metro_line_density":4.7714,"station_count":1,"line_count":1,"population_density":163.3393,"poi_density":0.0,"poi_diversity":0.0,"gdp_density":0.0,"P":163.3393,"I":0.0,"G":0.0},{"stationName":"广州塘坑(地铁站)","station_id":"广州塘坑(地铁站)_22.75610_113.56799","lineId":"广州地铁4号线","lat":22.7560984,"lon":113.56798771,"area_km2":1.1488,"D":0.1606,"C":0.7722,"T":0.0334,"U1":0.0546,"U2":0.0122,"couplingDegree":0.1606,"level":"极度失调","road_density":22.5786,"walk_accessibility":0.2303,"metro_line_density":4.7223,"station_count":1,"line_count":1,"population_density":3165.1433,"poi_density":0.0,"poi_diversity":0.0,"gdp_density":0.0,"P":3165.1433,"I":0.0,"G":0.0},{"stationName":"广州南横(地铁站)","station_id":"广州南横(地铁站)_22.75090_113.58933","lineId":"广州地铁4号线","lat":22.7509002,"lon":113.58932783,"area_km2":1.2323,"D":0.142,"C":0.7591,"T":0.0266,"U1":0.0439,"U2":0.0093,"couplingDegree":0.142,"level":"极度失调","road_density":19.4206,"walk_accessibility":0.2471,"metro_line_density":4.1564,"station_count":1,"line_count":1,"population_density":2407.7032,"poi_density":0.0,"poi_diversity":0.0,"gdp_density":0.0,"P":2407.7032,"I":0.0,"G":0.0},{"stationName":"广州南沙客运港(地铁站)","station_id":"广州南沙客运港(地铁站)_22.76999_113.60592","lineId":"广州地铁4号线","lat":22.76999321,"lon":113.60591772,"area_km2":1.0573,"D":0.0534,"C":0.1524,"T":0.0187,"U1":0.0372,"U2":0.0002,"couplingDegree":0.0534,"level":"极度失调","road_density":21.1861,"walk_accessibility":0.212,"metro_line_density":2.5822,"station_count":1,"line_count":1,"population_density":56.7469,"poi_density":0.0,"poi_diversity":0.0,"gdp_density":0.0,"P":56.7469,"I":0.0,"G":0.0},{"stationName":"广州滘口(地铁站)","station_id":"广州滘口(地铁站)_23.11645_113.20309","lineId":"广州地铁5号线","lat":23.11645274,"lon":113.20308939,"area_km2":1.7134,"D":0.1782,"C":0.8684,"T":0.0366,"U1":0.0547,"U2":0.0184,"couplingDegree":0.1782,"level":"极度失调","road_density":26.428,"walk_accessibility":0.3435,"metro_line_density":0.8156,"station_count":1,"line_count":1,"population_density":4788.6047,"poi_density":0.0,"poi_diversity":0.0,"gdp_density":0.0,"P":4788.6047,"I":0.0,"G":0.0},{"stationName":"广州坦尾(地铁站)","station_id":"广州坦尾(地铁站)_23.12790_113.21305","lineId":"广州地铁5号线","lat":23.12789781,"lon":113.21304759,"area_km2":1.717,"D":0.2428,"C":0.9948,"T":0.0592,"U1":0.0653,"U2":0.0532,"couplingDegree":0.2428,"level":"中度失调","road_density":21.4505,"walk_accessibility":0.3443,"metro_line_density":5.3897,"station_count":1,"line_count":1,"population_density":13814.1082,"poi_density":0.0,"poi_diversity":0.0,"gdp_density":0.0,"P":13814.1082,"I":0.0,"G":0.0},{"stationName":"广州中山八(地铁站)","station_id":"广州中山八(地铁站)_23.12898_113.22803","lineId":"广州地铁5号线","lat":23.12898299,"lon":113.22802937,"area_km2":2.3473,"D":0.3354,"C":0.9924,"T":0.1133,"U1":0.0994,"U2":0.1272,"couplingDegree":0.3354,"level":"中度失调","road_density":27.5243,"walk_accessibility":0.4706,"metro_line_density":6.2985,"station_count":1,"line_count":1,"population_density":33051.9568,"poi_density":0.0,"poi_diversity":0.0,"gdp_density":0.0,"P":33051.9568,"I":0.0,"G":0.0},{"stationName":"广州西场(地铁站)","station_id":"广州西场(地铁站)_23.14006_113.23273","lineId":"广州地铁5号线","lat":23.14005659,"lon":113.23272961,"area_km2":1.9288,"D":0.6075,"C":0.8822,"T":0.4184,"U1":0.2213,"U2":0.6154,"couplingDegree":0.6075,"level":"良好协调","road_density":36.9045,"walk_accessibility":0.3867,"metro_line_density":10.7366,"station_count":2,"line_count":1,"population_density":31977.6103,"poi_density":0.0,"poi_diversity":0.0,"gdp_density":8929.7591,"P":31977.6103,"I":0.0,"G":8929.7591},{"stationName":"广州西村(地铁站)","station_id":"广州西村(地铁站)_23.14490_113.23680","lineId":"广州地铁5号线","lat":23.14489689,"lon":113.23679991,"area_km2":2.1511,"D":0.3912,"C":0.9549,"T":0.1603,"U1":0.2079,"U2":0.1127,"couplingDegree":0.3912,"level":"中度失调","road_density":36.5179,"walk_accessibility":0.4313,"metro_line_density":7.755,"station_count":2,"line_count":1,"population_density":29266.77,"poi_density":0.0,"poi_diversity":0.0,"gdp_density":0.0,"P":29266.77,"I":0.0,"G":0.0},{"stationName":"广州小北(地铁站)","station_id":"广州小北(地铁站)_23.14209_113.27156","lineId":"广州地铁5号线","lat":23.14208615,"lon":113.27156432,"area_km2":2.9351,"D":0.6505,"C":0.9867,"T":0.4288,"U1":0.359,"U2":0.4986,"couplingDegree":0.6505,"level":"良好协调","road_density":34.1064,"walk_accessibility":0.5885,"metro_line_density":4.4096,"station_count":2,"line_count":3,"population_density":45537.9139,"poi_density":0.0,"poi_diversity":0.0,"gdp_density":5864.4602,"P":45537.9139,"I":0.0,"G":5864.4602},{"stationName":"广州淘金(地铁站)","station_id":"广州淘金(地铁站)_23.13657_113.28004","lineId":"广州地铁12号线 / 广州地铁13号线 / 广州地铁5号线","lat":23.136571503333332,"lon":113.28003749999999,"area_km2":2.487,"D":0.6052,"C":0.8283,"T":0.4422,"U1":0.69,"U2":0.1945,"couplingDegree":0.6052,"level":"良好协调","road_density":36.378,"walk_accessibility":0.4986,"metro_line_density":7.0552,"station_count":4,"line_count":5,"population_density":50516.5729,"poi_density":0.0,"poi_diversity":0.0,"gdp_density":0.0,"P":50516.5729,"I":0.0,"G":0.0},{"stationName":"广州区庄(地铁站)","station_id":"广州区庄(地铁站)_23.13693_113.29146","lineId":"广州地铁5号线 / 广州地铁6号线","lat":23.136927686666667,"lon":113.29145703666666,"area_km2":2.5778,"D":0.7626,"C":0.9863,"T":0.5896,"U1":0.6869,"U2":0.4923,"couplingDegree":0.7626,"level":"良好协调","road_density":33.5019,"walk_accessibility":0.5168,"metro_line_density":7.7277,"station_count":4,"line_count":5,"population_density":32276.1491,"poi_density":0.0,"poi_diversity":0.0,"gdp_density":6676.6655,"P":32276.1491,"I":0.0,"G":6676.6655},{"stationName":"广州动物园(地铁站)","station_id":"广州动物园(地铁站)_23.13734_113.30190","lineId":"广州地铁5号线","lat":23.137335444999998,"lon":113.3019041,"area_km2":2.4904,"D":0.7011,"C":0.9967,"T":0.4932,"U1":0.453,"U2":0.5334,"couplingDegree":0.7011,"level":"良好协调","road_density":35.5273,"walk_accessibility":0.4993,"metro_line_density":8.0676,"station_count":3,"line_count":3,"population_density":39595.9002,"poi_density":0.0,"poi_diversity":0.0,"gdp_density":6910.9306,"P":39595.9002,"I":0.0,"G":6910.9306},{"stationName":"广州五羊邨(地铁站)","station_id":"广州五羊邨(地铁站)_23.12236_113.30778","lineId":"广州地铁10号线 / 广州地铁5号线","lat":23.122362080000002,"lon":113.307780705,"area_km2":2.8846,"D":0.3762,"C":0.5908,"T":0.2395,"U1":0.4328,"U2":0.0463,"couplingDegree":0.3762,"level":"中度失调","road_density":34.2476,"walk_accessibility":0.5784,"metro_line_density":3.7592,"station_count":3,"line_count":3,"population_density":12017.6634,"poi_density":0.0,"poi_diversity":0.0,"gdp_density":0.0,"P":12017.6634,"I":0.0,"G":0.0},{"stationName":"广州珠江新城(地铁站)","station_id":"广州珠江新城(地铁站)_23.12197_113.31579","lineId":"广州地铁5号线","lat":23.12196898,"lon":113.31578602,"area_km2":3.1943,"D":0.4219,"C":0.76,"T":0.2342,"U1":0.3865,"U2":0.082,"couplingDegree":0.4219,"level":"勉强协调","road_density":42.1058,"walk_accessibility":0.6405,"metro_line_density":4.9042,"station_count":3,"line_count":2,"population_density":21295.7874,"poi_density":0.0,"poi_diversity":0.0,"gdp_density":0.0,"P":21295.7874,"I":0.0,"G":0.0},{"stationName":"广州猎德(地铁站)","station_id":"广州猎德(地铁站)_23.12112_113.32667","lineId":"广州地铁5号线","lat":23.12112075,"lon":113.32666753,"area_km2":2.9589,"D":0.3135,"C":0.7765,"T":0.1266,"U1":0.2064,"U2":0.0468,"couplingDegree":0.3135,"level":"中度失调","road_density":39.1908,"walk_accessibility":0.5932,"metro_line_density":3.3756,"station_count":2,"line_count":1,"population_density":12164.4602,"poi_density":0.0,"poi_diversity":0.0,"gdp_density":0.0,"P":12164.4602,"I":0.0,"G":0.0},{"stationName":"广州潭村(地铁站)","station_id":"广州潭村(地铁站)_23.11992_113.34048","lineId":"广州地铁5号线","lat":23.11992279,"lon":113.3404832,"area_km2":2.1347,"D":0.2655,"C":0.9894,"T":0.0713,"U1":0.0816,"U2":0.0609,"couplingDegree":0.2655,"level":"中度失调","road_density":28.4047,"walk_accessibility":0.428,"metro_line_density":3.2854,"station_count":1,"line_count":1,"population_density":15822.3938,"poi_density":0.0,"poi_diversity":0.0,"gdp_density":0.0,"P":15822.3938,"I":0.0,"G":0.0},{"stationName":"广州员村(地铁站)","station_id":"广州员村(地铁站)_23.11747_113.35822","lineId":"广州地铁11号线 / 广州地铁5号线","lat":23.117467595,"lon":113.358221265,"area_km2":1.3392,"D":0.3833,"C":0.9998,"T":0.1469,"U1":0.1443,"U2":0.1496,"couplingDegree":0.3833,"level":"中度失调","road_density":22.8343,"walk_accessibility":0.2685,"metro_line_density":5.5129,"station_count":1,"line_count":2,"population_density":38855.9676,"poi_density":0.0,"poi_diversity":0.0,"gdp_density":0.0,"P":38855.9676,"I":0.0,"G":0.0},{"stationName":"广州科韵路(地铁站)","station_id":"广州科韵路(地铁站)_23.12179_113.37170","lineId":"广州地铁5号线","lat":23.12179091,"lon":113.37170322,"area_km2":2.2691,"D":0.337,"C":0.962,"T":0.1181,"U1":0.0858,"U2":0.1503,"couplingDegree":0.337,"level":"中度失调","road_density":28.2282,"walk_accessibility":0.455,"metro_line_density":3.7021,"station_count":1,"line_count":1,"population_density":39043.5449,"poi_density":0.0,"poi_diversity":0.0,"gdp_density":0.0,"P":39043.5449,"I":0.0,"G":0.0},{"stationName":"广州东圃(地铁站)","station_id":"广州东圃(地铁站)_23.11189_113.39604","lineId":"广州地铁5号线","lat":23.11189403,"lon":113.39603774,"area_km2":1.4871,"D":0.1995,"C":0.9428,"T":0.0422,"U1":0.0563,"U2":0.0282,"couplingDegree":0.1995,"level":"极度失调","road_density":23.2117,"walk_accessibility":0.2982,"metro_line_density":3.5691,"station_count":1,"line_count":1,"population_density":7312.7348,"poi_density":0.0,"poi_diversity":0.0,"gdp_density":0.0,"P":7312.7348,"I":0.0,"G":0.0},{"stationName":"广州三溪(地铁站)","station_id":"广州三溪(地铁站)_23.10661_113.41027","lineId":"广州地铁5号线","lat":23.10660722,"lon":113.41026741,"area_km2":1.5018,"D":0.407,"C":0.6433,"T":0.2575,"U1":0.0603,"U2":0.4546,"couplingDegree":0.407,"level":"勉强协调","road_density":24.8085,"walk_accessibility":0.3011,"metro_line_density":3.4066,"station_count":1,"line_count":1,"population_density":22253.0631,"poi_density":0.0,"poi_diversity":0.0,"gdp_density":6691.5777,"P":22253.0631,"I":0.0,"G":6691.5777},{"stationName":"广州鱼珠(地铁站)","station_id":"广州鱼珠(地铁站)_23.10287_113.42678","lineId":"广州地铁5号线","lat":23.1028697,"lon":113.4267831,"area_km2":1.022,"D":0.3303,"C":0.9833,"T":0.111,"U1":0.0908,"U2":0.1311,"couplingDegree":0.3303,"level":"中度失调","road_density":29.3454,"walk_accessibility":0.2049,"metro_line_density":8.1406,"station_count":1,"line_count":1,"population_density":34065.2916,"poi_density":0.0,"poi_diversity":0.0,"gdp_density":0.0,"P":34065.2916,"I":0.0,"G":0.0},{"stationName":"广州大沙地(地铁站)","station_id":"广州大沙地(地铁站)_23.10577_113.44060","lineId":"广州地铁5号线","lat":23.105774705,"lon":113.44060333499999,"area_km2":1.2617,"D":0.6412,"C":0.834,"T":0.493,"U1":0.221,"U2":0.7651,"couplingDegree":0.6412,"level":"良好协调","road_density":26.1349,"walk_accessibility":0.253,"metro_line_density":3.8009,"station_count":2,"line_count":2,"population_density":7318.62,"poi_density":0.0,"poi_diversity":0.0,"gdp_density":13366.8258,"P":7318.62,"I":0.0,"G":13366.8258},{"stationName":"广州大沙东(地铁站)","station_id":"广州大沙东(地铁站)_23.10925_113.45231","lineId":"广州地铁5号线 / 广州地铁7号线","lat":23.109246119999998,"lon":113.45231028666666,"area_km2":1.6581,"D":0.364,"C":0.7046,"T":0.1881,"U1":0.3215,"U2":0.0546,"couplingDegree":0.364,"level":"中度失调","road_density":25.4363,"walk_accessibility":0.3325,"metro_line_density":6.9992,"station_count":3,"line_count":2,"population_density":14184.548,"poi_density":0.0,"poi_diversity":0.0,"gdp_density":0.0,"P":14184.548,"I":0.0,"G":0.0},{"stationName":"广州文冲(地铁站)","station_id":"广州文冲(地铁站)_23.10640_113.46359","lineId":"广州地铁5号线","lat":23.10639517,"lon":113.463594,"area_km2":1.6588,"D":0.2824,"C":0.6451,"T":0.1236,"U1":0.2181,"U2":0.0292,"couplingDegree":0.2824,"level":"中度失调","road_density":24.9713,"walk_accessibility":0.3326,"metro_line_density":2.5707,"station_count":2,"line_count":2,"population_density":7574.7216,"poi_density":0.0,"poi_diversity":0.0,"gdp_density":0.0,"P":7574.7216,"I":0.0,"G":0.0},{"stationName":"广州双沙(地铁站)","station_id":"广州双沙(地铁站)_23.10052_113.47888","lineId":"广州地铁5号线","lat":23.100517099999998,"lon":113.478884145,"area_km2":1.1377,"D":0.1383,"C":0.6695,"T":0.0286,"U1":0.0498,"U2":0.0073,"couplingDegree":0.1383,"level":"极度失调","road_density":25.5027,"walk_accessibility":0.2281,"metro_line_density":2.3194,"station_count":1,"line_count":1,"population_density":1909.1016,"poi_density":0.0,"poi_diversity":0.0,"gdp_density":0.0,"P":1909.1016,"I":0.0,"G":0.0},{"stationName":"广州庙头(地铁站)","station_id":"广州庙头(地铁站)_23.08757_113.49729","lineId":"广州地铁5号线","lat":23.087568835,"lon":113.497292225,"area_km2":1.0516,"D":0.2591,"C":0.9955,"T":0.0675,"U1":0.0739,"U2":0.0611,"couplingDegree":0.2591,"level":"中度失调","road_density":28.0733,"walk_accessibility":0.2108,"metro_line_density":5.6274,"station_count":1,"line_count":1,"population_density":15858.2187,"poi_density":0.0,"poi_diversity":0.0,"gdp_density":0.0,"P":15858.2187,"I":0.0,"G":0.0},{"stationName":"广州夏园(地铁站)","station_id":"广州夏园(地铁站)_23.08558_113.51315","lineId":"广州地铁5号线","lat":23.08557598,"lon":113.513151045,"area_km2":1.1127,"D":0.3132,"C":0.861,"T":0.1139,"U1":0.1718,"U2":0.056,"couplingDegree":0.3132,"level":"中度失调","road_density":27.6353,"walk_accessibility":0.2231,"metro_line_density":9.334,"station_count":2,"line_count":1,"population_density":14539.5262,"poi_density":0.0,"poi_diversity":0.0,"gdp_density":0.0,"P":14539.5262,"I":0.0,"G":0.0},{"stationName":"广州保盈大道(地铁站)","station_id":"广州保盈大道(地铁站)_23.07734_113.52085","lineId":"广州地铁5号线","lat":23.077335384999998,"lon":113.52085210999999,"area_km2":1.1219,"D":0.3131,"C":0.7052,"T":0.139,"U1":0.2376,"U2":0.0405,"couplingDegree":0.3131,"level":"中度失调","road_density":24.1592,"walk_accessibility":0.2249,"metro_line_density":8.9412,"station_count":3,"line_count":1,"population_density":10507.642,"poi_density":0.0,"poi_diversity":0.0,"gdp_density":0.0,"P":10507.642,"I":0.0,"G":0.0},{"stationName":"广州夏港(地铁站)","station_id":"广州夏港(地铁站)_23.06625_113.52002","lineId":"广州地铁5号线","lat":23.066252865000003,"lon":113.52002316,"area_km2":2.0123,"D":0.2957,"C":0.6668,"T":0.1311,"U1":0.2289,"U2":0.0334,"couplingDegree":0.2957,"level":"中度失调","road_density":22.4073,"walk_accessibility":0.4035,"metro_line_density":5.3344,"station_count":3,"line_count":1,"population_density":8679.1424,"poi_density":0.0,"poi_diversity":0.0,"gdp_density":0.0,"P":8679.1424,"I":0.0,"G":0.0},{"stationName":"广州黄埔新港(地铁站)","station_id":"广州黄埔新港(地铁站)_23.05509_113.51951","lineId":"广州地铁5号线","lat":23.055087965,"lon":113.51951488,"area_km2":1.5851,"D":0.2387,"C":0.7274,"T":0.0783,"U1":0.1321,"U2":0.0246,"couplingDegree":0.2387,"level":"中度失调","road_density":22.5264,"walk_accessibility":0.3178,"metro_line_density":3.2266,"station_count":2,"line_count":1,"population_density":6384.3631,"poi_density":0.0,"poi_diversity":0.0,"gdp_density":0.0,"P":6384.3631,"I":0.0,"G":0.0},{"stationName":"广州长洲(地铁站)","station_id":"广州长洲(地铁站)_23.07853_113.42362","lineId":"广州地铁7号线 / 广州地铁8号线","lat":23.0785328375,"lon":113.4236245525,"area_km2":1.3449,"D":0.2016,"C":0.4923,"T":0.0826,"U1":0.1544,"U2":0.0107,"couplingDegree":0.2016,"level":"中度失调","road_density":16.1254,"walk_accessibility":0.2696,"metro_line_density":10.9176,"station_count":1,"line_count":2,"population_density":2778.7385,"poi_density":0.0,"poi_diversity":0.0,"gdp_density":0.0,"P":2778.7385,"I":0.0,"G":0.0},{"stationName":"广州黄埔古港(地铁站)","station_id":"广州黄埔古港(地铁站)_23.09562_113.39558","lineId":"广州地铁8号线","lat":23.09561769,"lon":113.39557877,"area_km2":1.5646,"D":0.2646,"C":0.7175,"T":0.0976,"U1":0.1655,"U2":0.0296,"couplingDegree":0.2646,"level":"中度失调","road_density":27.1965,"walk_accessibility":0.3137,"metro_line_density":6.9191,"station_count":2,"line_count":1,"population_density":7690.7001,"poi_density":0.0,"poi_diversity":0.0,"gdp_density":0.0,"P":7690.7001,"I":0.0,"G":0.0},{"stationName":"广州新洲(地铁站)","station_id":"广州新洲(地铁站)_23.08999_113.40195","lineId":"广州地铁8号线","lat":23.089994895,"lon":113.40194846,"area_km2":0.9054,"D":0.274,"C":0.8607,"T":0.0872,"U1":0.1316,"U2":0.0428,"couplingDegree":0.274,"level":"中度失调","road_density":18.6413,"walk_accessibility":0.1815,"metro_line_density":7.4651,"station_count":2,"line_count":1,"population_density":11122.0479,"poi_density":0.0,"poi_diversity":0.0,"gdp_density":0.0,"P":11122.0479,"I":0.0,"G":0.0},{"stationName":"广州沙亭(地铁站)","station_id":"广州沙亭(地铁站)_23.06132_113.44742","lineId":"广州地铁8号线","lat":23.06131542,"lon":113.447424195,"area_km2":1.6332,"D":0.1377,"C":0.567,"T":0.0335,"U1":0.061,"U2":0.0059,"couplingDegree":0.1377,"level":"极度失调","road_density":24.3101,"walk_accessibility":0.3274,"metro_line_density":3.3611,"station_count":1,"line_count":1,"population_density":1531.9847,"poi_density":0.0,"poi_diversity":0.0,"gdp_density":0.0,"P":1531.9847,"I":0.0,"G":0.0},{"stationName":"广州化龙(地铁站)","station_id":"广州化龙(地铁站)_23.04776_113.45330","lineId":"广州地铁8号线","lat":23.04776156,"lon":113.45330123,"area_km2":1.2403,"D":0.3833,"C":0.5762,"T":0.255,"U1":0.0466,"U2":0.4634,"couplingDegree":0.3833,"level":"中度失调","road_density":21.9843,"walk_accessibility":0.2487,"metro_line_density":3.2626,"station_count":1,"line_count":1,"population_density":4243.229,"poi_density":0.0,"poi_diversity":0.0,"gdp_density":8109.5978,"P":4243.229,"I":0.0,"G":8109.5978},{"stationName":"广州仙岭(地铁站)","station_id":"广州仙岭(地铁站)_23.02053_113.46426","lineId":"广州地铁8号线","lat":23.02052815,"lon":113.46425789,"area_km2":1.45,"D":0.2167,"C":0.6052,"T":0.0776,"U1":0.1393,"U2":0.0158,"couplingDegree":0.2167,"level":"中度失调","road_density":20.0343,"walk_accessibility":0.2907,"metro_line_density":6.3261,"station_count":2,"line_count":1,"population_density":4109.5371,"poi_density":0.0,"poi_diversity":0.0,"gdp_density":0.0,"P":4109.5371,"I":0.0,"G":0.0},{"stationName":"广州龙泽路(地铁站)","station_id":"广州龙泽路(地铁站)_23.01659_113.47380","lineId":"广州地铁8号线","lat":23.01659175,"lon":113.47379601,"area_km2":1.3458,"D":0.4788,"C":0.855,"T":0.2681,"U1":0.1291,"U2":0.4072,"couplingDegree":0.4788,"level":"勉强协调","road_density":20.0877,"walk_accessibility":0.2698,"metro_line_density":4.7721,"station_count":2,"line_count":1,"population_density":200.6285,"poi_density":0.0,"poi_diversity":0.0,"gdp_density":7372.367,"P":200.6285,"I":0.0,"G":7372.367},{"stationName":"广州莲花(地铁站)","station_id":"广州莲花(地铁站)_23.00451_113.48924","lineId":"广州地铁8号线","lat":23.00451317,"lon":113.48923708,"area_km2":0.8952,"D":0.0439,"C":0.3128,"T":0.0062,"U1":0.012,"U2":0.0003,"couplingDegree":0.0439,"level":"极度失调","road_density":17.9586,"walk_accessibility":0.1795,"metro_line_density":0.2381,"station_count":1,"line_count":1,"population_density":80.4257,"poi_density":0.0,"poi_diversity":0.0,"gdp_density":0.0,"P":80.4257,"I":0.0,"G":0.0},{"stationName":"广州滘心(地铁站)","station_id":"广州滘心(地铁站)_23.23951_113.21163","lineId":"广州地铁8号线","lat":23.23950912,"lon":113.21163232,"area_km2":0.9853,"D":0.1012,"C":0.9991,"T":0.0103,"U1":0.0107,"U2":0.0098,"couplingDegree":0.1012,"level":"极度失调","road_density":16.4553,"walk_accessibility":0.1975,"metro_line_density":0.4968,"station_count":1,"line_count":1,"population_density":2552.6305,"poi_density":0.0,"poi_diversity":0.0,"gdp_density":0.0,"P":2552.6305,"I":0.0,"G":0.0},{"stationName":"广州凤翔路(地铁站)","station_id":"广州凤翔路(地铁站)_23.25985_113.21007","lineId":"广州地铁8号线","lat":23.25985405,"lon":113.21006705,"area_km2":1.2705,"D":0.3604,"C":0.4863,"T":0.2671,"U1":0.0337,"U2":0.5005,"couplingDegree":0.3604,"level":"中度失调","road_density":17.5847,"walk_accessibility":0.2547,"metro_line_density":3.1567,"station_count":1,"line_count":1,"population_density":3938.5569,"poi_density":0.0,"poi_diversity":0.0,"gdp_density":8803.9572,"P":3938.5569,"I":0.0,"G":8803.9572},{"stationName":"广州江高(地铁站)","station_id":"广州江高(地铁站)_23.27926_113.21803","lineId":"广州地铁8号线","lat":23.2792583,"lon":113.21802804,"area_km2":1.3739,"D":0.1893,"C":0.5602,"T":0.064,"U1":0.117,"U2":0.011,"couplingDegree":0.1893,"level":"极度失调","road_density":18.9569,"walk_accessibility":0.2755,"metro_line_density":3.0644,"station_count":2,"line_count":1,"population_density":2851.7692,"poi_density":0.0,"poi_diversity":0.0,"gdp_density":0.0,"P":2851.7692,"I":0.0,"G":0.0},{"stationName":"广州江村(地铁站)","station_id":"广州江村(地铁站)_23.27757_113.23016","lineId":"广州地铁8号线","lat":23.27757225,"lon":113.23016384,"area_km2":1.2248,"D":0.2109,"C":0.6857,"T":0.0649,"U1":0.1121,"U2":0.0177,"couplingDegree":0.2109,"level":"中度失调","road_density":18.374,"walk_accessibility":0.2456,"metro_line_density":2.9848,"station_count":2,"line_count":1,"population_density":4586.9765,"poi_density":0.0,"poi_diversity":0.0,"gdp_density":0.0,"P":4586.9765,"I":0.0,"G":0.0},{"stationName":"广州江府(地铁站)","station_id":"广州江府(地铁站)_23.29348_113.23654","lineId":"广州地铁8号线","lat":23.293479155,"lon":113.236537935,"area_km2":0.8547,"D":0.1502,"C":0.564,"T":0.04,"U1":0.073,"U2":0.007,"couplingDegree":0.1502,"level":"极度失调","road_density":22.4825,"walk_accessibility":0.1714,"metro_line_density":9.1016,"station_count":1,"line_count":1,"population_density":1809.9467,"poi_density":0.0,"poi_diversity":0.0,"gdp_density":0.0,"P":1809.9467,"I":0.0,"G":0.0},{"stationName":"广州水沥(地铁站)","station_id":"广州水沥(地铁站)_23.30733_113.23200","lineId":"广州地铁8号线","lat":23.307325565,"lon":113.231995305,"area_km2":1.1841,"D":0.1227,"C":0.6339,"T":0.0238,"U1":0.0421,"U2":0.0054,"couplingDegree":0.1227,"level":"极度失调","road_density":18.5695,"walk_accessibility":0.2374,"metro_line_density":4.4573,"station_count":1,"line_count":1,"population_density":1398.5283,"poi_density":0.0,"poi_diversity":0.0,"gdp_density":0.0,"P":1398.5283,"I":0.0,"G":0.0},{"stationName":"广州神山东(地铁站)","station_id":"广州神山东(地铁站)_23.32931_113.22507","lineId":"广州地铁8号线","lat":23.32931214,"lon":113.22506901,"area_km2":1.488,"D":0.1667,"C":0.9525,"T":0.0292,"U1":0.0381,"U2":0.0203,"couplingDegree":0.1667,"level":"极度失调","road_density":16.8386,"walk_accessibility":0.2983,"metro_line_density":3.6265,"station_count":1,"line_count":1,"population_density":5270.1981,"poi_density":0.0,"poi_diversity":0.0,"gdp_density":0.0,"P":5270.1981,"I":0.0,"G":0.0},{"stationName":"广州东镜(地铁站)","station_id":"广州东镜(地铁站)_23.34440_113.22133","lineId":"广州地铁8号线","lat":23.34439532,"lon":113.22132999,"area_km2":1.6158,"D":0.1985,"C":0.9965,"T":0.0395,"U1":0.0429,"U2":0.0362,"couplingDegree":0.1985,"level":"极度失调","road_density":18.2208,"walk_accessibility":0.324,"metro_line_density":3.3443,"station_count":1,"line_count":1,"population_density":9403.9791,"poi_density":0.0,"poi_diversity":0.0,"gdp_density":0.0,"P":9403.9791,"I":0.0,"G":0.0},{"stationName":"广州雅源(地铁站)","station_id":"广州雅源(地铁站)_23.35619_113.22096","lineId":"广州地铁8号线","lat":23.35619473,"lon":113.22095809999999,"area_km2":1.0528,"D":0.2256,"C":0.9937,"T":0.0512,"U1":0.057,"U2":0.0455,"couplingDegree":0.2256,"level":"中度失调","road_density":23.1445,"walk_accessibility":0.2111,"metro_line_density":5.1646,"station_count":1,"line_count":1,"population_density":11817.4602,"poi_density":0.0,"poi_diversity":0.0,"gdp_density":0.0,"P":11817.4602,"I":0.0,"G":0.0},{"stationName":"广州雅瑶(地铁站)","station_id":"广州雅瑶(地铁站)_23.36845_113.21601","lineId":"广州地铁8号线","lat":23.36845022,"lon":113.21600679,"area_km2":1.2513,"D":0.3134,"C":0.9563,"T":0.1027,"U1":0.1328,"U2":0.0727,"couplingDegree":0.3134,"level":"中度失调","road_density":23.5918,"walk_accessibility":0.2509,"metro_line_density":3.8889,"station_count":2,"line_count":1,"population_density":18873.576,"poi_density":0.0,"poi_diversity":0.0,"gdp_density":0.0,"P":18873.576,"I":0.0,"G":0.0},{"stationName":"广州秀全公园(地铁站)","station_id":"广州秀全公园(地铁站)_23.37439_113.20675","lineId":"广州地铁8号线","lat":23.374394805,"lon":113.20674532000001,"area_km2":1.5718,"D":0.5475,"C":0.7158,"T":0.4187,"U1":0.1263,"U2":0.7111,"couplingDegree":0.5475,"level":"勉强协调","road_density":18.6375,"walk_accessibility":0.3151,"metro_line_density":4.2923,"station_count":2,"line_count":1,"population_density":30514.906,"poi_density":0.0,"poi_diversity":0.0,"gdp_density":10768.7711,"P":30514.906,"I":0.0,"G":10768.7711},{"stationName":"广州广州北站(地铁站)","station_id":"广州广州北站(地铁站)_23.37832_113.19439","lineId":"广州地铁8号线 / 广州地铁9号线","lat":23.378322095,"lon":113.19439353,"area_km2":1.2233,"D":0.2443,"C":0.7125,"T":0.0838,"U1":0.1425,"U2":0.025,"couplingDegree":0.2443,"level":"中度失调","road_density":24.0893,"walk_accessibility":0.2453,"metro_line_density":4.908,"station_count":1,"line_count":2,"population_density":6491.6848,"poi_density":0.0,"poi_diversity":0.0,"gdp_density":0.0,"P":6491.6848,"I":0.0,"G":0.0},{"stationName":"广州桃源(地铁站)","station_id":"广州桃源(地铁站)_23.26786_113.24049","lineId":"广州地铁8号线","lat":23.26785531,"lon":113.24049377,"area_km2":1.4783,"D":0.1345,"C":0.7603,"T":0.0238,"U1":0.0392,"U2":0.0083,"couplingDegree":0.1345,"level":"极度失调","road_density":17.6421,"walk_accessibility":0.2964,"metro_line_density":3.4443,"station_count":1,"line_count":1,"population_density":2164.7014,"poi_density":0.0,"poi_diversity":0.0,"gdp_density":0.0,"P":2164.7014,"I":0.0,"G":0.0},{"stationName":"广州均禾(地铁站)","station_id":"广州均禾(地铁站)_23.25669_113.24670","lineId":"广州地铁8号线","lat":23.25669205,"lon":113.24670198,"area_km2":1.6897,"D":0.1696,"C":0.4605,"T":0.0625,"U1":0.1179,"U2":0.007,"couplingDegree":0.1696,"level":"极度失调","road_density":17.3613,"walk_accessibility":0.3388,"metro_line_density":3.0515,"station_count":2,"line_count":1,"population_density":1823.413,"poi_density":0.0,"poi_diversity":0.0,"gdp_density":0.0,"P":1823.413,"I":0.0,"G":0.0},{"stationName":"广州白云大朗(地铁站)","station_id":"广州白云大朗(地铁站)_23.24627_113.24806","lineId":"广州地铁8号线","lat":23.24627016,"lon":113.24805858,"area_km2":1.3307,"D":0.1763,"C":0.4617,"T":0.0673,"U1":0.127,"U2":0.0076,"couplingDegree":0.1763,"level":"极度失调","road_density":21.286,"walk_accessibility":0.2668,"metro_line_density":3.7979,"station_count":2,"line_count":1,"population_density":1974.1065,"poi_density":0.0,"poi_diversity":0.0,"gdp_density":0.0,"P":1974.1065,"I":0.0,"G":0.0},{"stationName":"广州夏茅(地铁站)","station_id":"广州夏茅(地铁站)_23.23053_113.25475","lineId":"广州地铁22号线 / 广州地铁8号线","lat":23.23052991,"lon":113.25474501,"area_km2":1.3285,"D":0.2574,"C":0.7411,"T":0.0894,"U1":0.1494,"U2":0.0294,"couplingDegree":0.2574,"level":"中度失调","road_density":23.1894,"walk_accessibility":0.2664,"metro_line_density":6.2955,"station_count":1,"line_count":2,"population_density":7631.8183,"poi_density":0.0,"poi_diversity":0.0,"gdp_density":0.0,"P":7631.8183,"I":0.0,"G":0.0},{"stationName":"广州黄石(地铁站)","station_id":"广州黄石(地铁站)_23.20731_113.24724","lineId":"广州地铁8号线","lat":23.20731226,"lon":113.24724033,"area_km2":1.796,"D":0.2156,"C":0.9671,"T":0.0481,"U1":0.0603,"U2":0.0358,"couplingDegree":0.2156,"level":"中度失调","road_density":23.642,"walk_accessibility":0.3601,"metro_line_density":3.0473,"station_count":1,"line_count":1,"population_density":9311.7578,"poi_density":0.0,"poi_diversity":0.0,"gdp_density":0.0,"P":9311.7578,"I":0.0,"G":0.0},{"stationName":"广州白云(地铁站)","station_id":"广州白云(地铁站)_23.19482_113.24256","lineId":"广州地铁8号线","lat":23.19481849,"lon":113.24256059,"area_km2":1.8673,"D":0.2484,"C":0.9367,"T":0.0659,"U1":0.0889,"U2":0.0428,"couplingDegree":0.2484,"level":"中度失调","road_density":27.2266,"walk_accessibility":0.3744,"metro_line_density":6.1321,"station_count":1,"line_count":1,"population_density":11115.7971,"poi_density":0.0,"poi_diversity":0.0,"gdp_density":0.0,"P":11115.7971,"I":0.0,"G":0.0},{"stationName":"广州棠景(地铁站)","station_id":"广州棠景(地铁站)_23.18200_113.24600","lineId":"广州地铁8号线","lat":23.18200046,"lon":113.24599839,"area_km2":2.0566,"D":0.3985,"C":0.9991,"T":0.1589,"U1":0.1657,"U2":0.1521,"couplingDegree":0.3985,"level":"中度失调","road_density":26.0549,"walk_accessibility":0.4123,"metro_line_density":5.9275,"station_count":2,"line_count":1,"population_density":39519.0694,"poi_density":0.0,"poi_diversity":0.0,"gdp_density":0.0,"P":39519.0694,"I":0.0,"G":0.0},{"stationName":"广州远景(地铁站)","station_id":"广州远景(地铁站)_23.17592_113.24549","lineId":"广州地铁8号线","lat":23.17592116,"lon":113.24548837,"area_km2":1.6905,"D":0.4067,"C":0.9942,"T":0.1664,"U1":0.1484,"U2":0.1843,"couplingDegree":0.4067,"level":"勉强协调","road_density":25.5241,"walk_accessibility":0.3389,"metro_line_density":4.2623,"station_count":2,"line_count":1,"population_density":47876.2713,"poi_density":0.0,"poi_diversity":0.0,"gdp_density":0.0,"P":47876.2713,"I":0.0,"G":0.0},{"stationName":"广州梓元岗(地铁站)","station_id":"广州梓元岗(地铁站)_23.15614_113.25772","lineId":"广州地铁11号线 / 广州地铁8号线","lat":23.156139345,"lon":113.257724095,"area_km2":1.9503,"D":0.5532,"C":0.739,"T":0.4141,"U1":0.6931,"U2":0.1351,"couplingDegree":0.5532,"level":"勉强协调","road_density":37.4118,"walk_accessibility":0.391,"metro_line_density":8.2585,"station_count":3,"line_count":6,"population_density":35094.9695,"poi_density":0.0,"poi_diversity":0.0,"gdp_density":0.0,"P":35094.9695,"I":0.0,"G":0.0}]}