{"cityCode":"310000","year":2007,"stations":[{"stationName":"上海富锦路(地铁站)","station_id":"上海富锦路(地铁站)_31.39404_121.42001","lineId":"上海地铁1号线","lat":31.39404489,"lon":121.42000867499999,"area_km2":2.0533,"D":0.4054,"C":0.9987,"T":0.1646,"U1":0.1563,"U2":0.1728,"couplingDegree":0.4054,"level":"勉强协调","road_density":31.6805,"walk_accessibility":0.4117,"metro_line_density":1.4156,"station_count":2,"line_count":1,"population_density":397.8883,"poi_density":0.0,"poi_diversity":0.0,"gdp_density":5855.499,"P":397.8883,"I":0.0,"G":5855.499},{"stationName":"上海友谊西路(地铁站)","station_id":"上海友谊西路(地铁站)_31.38309_121.42331","lineId":"上海地铁1号线","lat":31.38308783,"lon":121.42330572,"area_km2":1.188,"D":0.2401,"C":0.6824,"T":0.0845,"U1":0.1463,"U2":0.0227,"couplingDegree":0.2401,"level":"中度失调","road_density":28.6859,"walk_accessibility":0.2382,"metro_line_density":4.7423,"station_count":2,"line_count":1,"population_density":4892.908,"poi_density":0.0,"poi_diversity":0.0,"gdp_density":0.0,"P":4892.908,"I":0.0,"G":0.0},{"stationName":"上海宝安公路(地铁站)","station_id":"上海宝安公路(地铁站)_31.37135_121.42627","lineId":"上海地铁1号线","lat":31.37135416,"lon":121.42627176,"area_km2":1.2393,"D":0.1775,"C":0.8591,"T":0.0367,"U1":0.0555,"U2":0.0179,"couplingDegree":0.1775,"level":"极度失调","road_density":20.7865,"walk_accessibility":0.2485,"metro_line_density":4.6309,"station_count":1,"line_count":1,"population_density":3855.2924,"poi_density":0.0,"poi_diversity":0.0,"gdp_density":0.0,"P":3855.2924,"I":0.0,"G":0.0},{"stationName":"上海共富新村(地铁站)","station_id":"上海共富新村(地铁站)_31.35689_121.42943","lineId":"上海地铁1号线","lat":31.35688994,"lon":121.42942848,"area_km2":1.4132,"D":0.2207,"C":0.9216,"T":0.0529,"U1":0.0734,"U2":0.0323,"couplingDegree":0.2207,"level":"中度失调","road_density":26.9439,"walk_accessibility":0.2834,"metro_line_density":4.0267,"station_count":1,"line_count":1,"population_density":6963.4278,"poi_density":0.0,"poi_diversity":0.0,"gdp_density":0.0,"P":6963.4278,"I":0.0,"G":0.0},{"stationName":"上海呼兰路(地铁站)","station_id":"上海呼兰路(地铁站)_31.34153_121.43226","lineId":"上海地铁18号线 / 上海地铁1号线","lat":31.34152552666667,"lon":121.43226472666667,"area_km2":1.7114,"D":0.5206,"C":0.9855,"T":0.275,"U1":0.2284,"U2":0.3217,"couplingDegree":0.5206,"level":"勉强协调","road_density":20.7949,"walk_accessibility":0.3431,"metro_line_density":5.797,"station_count":2,"line_count":2,"population_density":13193.6861,"poi_density":0.0,"poi_diversity":0.0,"gdp_density":8919.8373,"P":13193.6861,"I":0.0,"G":8919.8373},{"stationName":"上海通河新村(地铁站)","station_id":"上海通河新村(地铁站)_31.33296_121.43693","lineId":"上海地铁1号线","lat":31.33295683,"lon":121.43692739,"area_km2":1.6916,"D":0.5088,"C":0.9849,"T":0.2628,"U1":0.2174,"U2":0.3083,"couplingDegree":0.5088,"level":"勉强协调","road_density":21.5739,"walk_accessibility":0.3392,"metro_line_density":3.7826,"station_count":2,"line_count":2,"population_density":9645.1897,"poi_density":0.0,"poi_diversity":0.0,"gdp_density":9024.2642,"P":9645.1897,"I":0.0,"G":9024.2642},{"stationName":"上海共康路(地铁站)","station_id":"上海共康路(地铁站)_31.32078_121.44246","lineId":"上海地铁1号线","lat":31.32077824,"lon":121.44245648,"area_km2":1.3298,"D":0.2281,"C":0.9873,"T":0.0527,"U1":0.0611,"U2":0.0443,"couplingDegree":0.2281,"level":"中度失调","road_density":22.4955,"walk_accessibility":0.2666,"metro_line_density":4.3892,"station_count":1,"line_count":1,"population_density":9542.1382,"poi_density":0.0,"poi_diversity":0.0,"gdp_density":0.0,"P":9542.1382,"I":0.0,"G":0.0},{"stationName":"上海彭浦新村(地铁站)","station_id":"上海彭浦新村(地铁站)_31.30845_121.44404","lineId":"上海地铁1号线","lat":31.30845444,"lon":121.44404066,"area_km2":1.8545,"D":0.241,"C":0.9808,"T":0.0592,"U1":0.0708,"U2":0.0477,"couplingDegree":0.241,"level":"中度失调","road_density":23.8212,"walk_accessibility":0.3718,"metro_line_density":3.1529,"station_count":1,"line_count":1,"population_density":10262.4554,"poi_density":0.0,"poi_diversity":0.0,"gdp_density":0.0,"P":10262.4554,"I":0.0,"G":0.0},{"stationName":"上海汶水路(地铁站)","station_id":"上海汶水路(地铁站)_31.29442_121.44566","lineId":"上海地铁1号线","lat":31.294415684999997,"lon":121.445655105,"area_km2":2.4114,"D":0.4103,"C":0.8885,"T":0.1894,"U1":0.1025,"U2":0.2764,"couplingDegree":0.4103,"level":"勉强协调","road_density":31.8277,"walk_accessibility":0.4835,"metro_line_density":2.3334,"station_count":1,"line_count":1,"population_density":19618.0696,"poi_density":0.0,"poi_diversity":0.0,"gdp_density":6344.8111,"P":19618.0696,"I":0.0,"G":6344.8111},{"stationName":"上海上海马戏城(地铁站)","station_id":"上海上海马戏城(地铁站)_31.28150_121.44747","lineId":"上海地铁1号线 / 上海地铁20号线","lat":31.281495435,"lon":121.44747032999999,"area_km2":2.2037,"D":0.3987,"C":0.9172,"T":0.1733,"U1":0.2424,"U2":0.1043,"couplingDegree":0.3987,"level":"中度失调","road_density":24.6408,"walk_accessibility":0.4418,"metro_line_density":4.2661,"station_count":2,"line_count":2,"population_density":22443.6998,"poi_density":0.0,"poi_diversity":0.0,"gdp_density":0.0,"P":22443.6998,"I":0.0,"G":0.0},{"stationName":"上海延长路(地铁站)","station_id":"上海延长路(地铁站)_31.27355_121.45075","lineId":"上海地铁1号线","lat":31.27355265,"lon":121.45074729,"area_km2":2.2407,"D":0.5566,"C":0.9605,"T":0.3225,"U1":0.2328,"U2":0.4123,"couplingDegree":0.5566,"level":"勉强协调","road_density":23.0699,"walk_accessibility":0.4492,"metro_line_density":3.2934,"station_count":2,"line_count":2,"population_density":45653.2321,"poi_density":0.0,"poi_diversity":0.0,"gdp_density":6856.3401,"P":45653.2321,"I":0.0,"G":6856.3401},{"stationName":"上海中山北路(地铁站)","station_id":"上海中山北路(地铁站)_31.26078_121.45463","lineId":"上海地铁1号线","lat":31.26078422,"lon":121.45463391,"area_km2":2.4942,"D":0.7373,"C":0.9916,"T":0.5482,"U1":0.4774,"U2":0.6189,"couplingDegree":0.7373,"level":"良好协调","road_density":28.4711,"walk_accessibility":0.5001,"metro_line_density":3.345,"station_count":4,"line_count":3,"population_density":94512.2464,"poi_density":0.0,"poi_diversity":0.0,"gdp_density":6160.508,"P":94512.2464,"I":0.0,"G":6160.508},{"stationName":"上海上海火车站(地铁站)","station_id":"上海上海火车站(地铁站)_31.24994_121.45186","lineId":"上海地铁1号线 / 上海地铁3号线","lat":31.249938473333334,"lon":121.45185925666665,"area_km2":2.6664,"D":0.6898,"C":0.997,"T":0.4773,"U1":0.4406,"U2":0.514,"couplingDegree":0.6898,"level":"良好协调","road_density":33.3555,"walk_accessibility":0.5346,"metro_line_density":5.6336,"station_count":3,"line_count":3,"population_density":74429.1668,"poi_density":0.0,"poi_diversity":0.0,"gdp_density":5762.5045,"P":74429.1668,"I":0.0,"G":5762.5045},{"stationName":"上海汉中路(地铁站)","station_id":"上海汉中路(地铁站)_31.24314_121.45424","lineId":"上海地铁13号线 / 上海地铁1号线","lat":31.24313625,"lon":121.454244305,"area_km2":3.0643,"D":0.6344,"C":0.9368,"T":0.4296,"U1":0.58,"U2":0.2793,"couplingDegree":0.6344,"level":"良好协调","road_density":31.0079,"walk_accessibility":0.6144,"metro_line_density":2.8236,"station_count":4,"line_count":4,"population_density":60129.9654,"poi_density":0.0,"poi_diversity":0.0,"gdp_density":0.0,"P":60129.9654,"I":0.0,"G":0.0},{"stationName":"上海新闸路(地铁站)","station_id":"上海新闸路(地铁站)_31.24030_121.46361","lineId":"上海地铁1号线","lat":31.24029698,"lon":121.46360999,"area_km2":3.6056,"D":0.5898,"C":0.8168,"T":0.4259,"U1":0.6717,"U2":0.1802,"couplingDegree":0.5898,"level":"勉强协调","road_density":31.3025,"walk_accessibility":0.7229,"metro_line_density":3.9865,"station_count":5,"line_count":4,"population_density":38787.9302,"poi_density":0.0,"poi_diversity":0.0,"gdp_density":0.0,"P":38787.9302,"I":0.0,"G":0.0},{"stationName":"上海人民广场(地铁站)","station_id":"上海人民广场(地铁站)_31.23485_121.46990","lineId":"上海地铁1号线 / 上海地铁2号线 / 上海地铁8号线","lat":31.234849183333335,"lon":121.46989588999999,"area_km2":3.6983,"D":0.7331,"C":0.9089,"T":0.5913,"U1":0.838,"U2":0.3447,"couplingDegree":0.7331,"level":"良好协调","road_density":33.0418,"walk_accessibility":0.7415,"metro_line_density":4.913,"station_count":6,"line_count":5,"population_density":48113.8967,"poi_density":0.0,"poi_diversity":0.0,"gdp_density":4150.0375,"P":48113.8967,"I":0.0,"G":4150.0375},{"stationName":"上海一大会址·黄陂南路(地铁站)","station_id":"上海一大会址·黄陂南路(地铁站)_31.22513_121.46825","lineId":"上海地铁14号线 / 上海地铁1号线","lat":31.225133919999998,"lon":121.468253215,"area_km2":3.8548,"D":0.6498,"C":0.8804,"T":0.4797,"U1":0.7072,"U2":0.2522,"couplingDegree":0.6498,"level":"良好协调","road_density":32.6645,"walk_accessibility":0.7729,"metro_line_density":5.6979,"station_count":4,"line_count":5,"population_density":54288.3043,"poi_density":0.0,"poi_diversity":0.0,"gdp_density":0.0,"P":54288.3043,"I":0.0,"G":0.0},{"stationName":"上海陕西南路(地铁站)","station_id":"上海陕西南路(地铁站)_31.21810_121.45478","lineId":"上海地铁10号线 / 上海地铁1号线","lat":31.21810256,"lon":121.454784855,"area_km2":3.1202,"D":0.5355,"C":0.9798,"T":0.2927,"U1":0.3512,"U2":0.2341,"couplingDegree":0.5355,"level":"勉强协调","road_density":22.7303,"walk_accessibility":0.6256,"metro_line_density":5.2781,"station_count":2,"line_count":3,"population_density":19400.5619,"poi_density":0.0,"poi_diversity":0.0,"gdp_density":4931.6892,"P":19400.5619,"I":0.0,"G":4931.6892},{"stationName":"上海常熟路(地铁站)","station_id":"上海常熟路(地铁站)_31.21535_121.44550","lineId":"上海地铁1号线 / 上海地铁7号线","lat":31.21534568,"lon":121.44550402499999,"area_km2":3.0427,"D":0.7841,"C":0.9979,"T":0.6161,"U1":0.6564,"U2":0.5759,"couplingDegree":0.7841,"level":"良好协调","road_density":20.8342,"walk_accessibility":0.6101,"metro_line_density":6.2526,"station_count":4,"line_count":5,"population_density":60326.9927,"poi_density":0.0,"poi_diversity":0.0,"gdp_density":10126.7506,"P":60326.9927,"I":0.0,"G":10126.7506},{"stationName":"上海衡山路(地铁站)","station_id":"上海衡山路(地铁站)_31.20642_121.44183","lineId":"上海地铁1号线","lat":31.20641737,"lon":121.44182586,"area_km2":2.9236,"D":0.5765,"C":0.9765,"T":0.3404,"U1":0.4137,"U2":0.2671,"couplingDegree":0.5765,"level":"勉强协调","road_density":19.5005,"walk_accessibility":0.5862,"metro_line_density":6.4337,"station_count":3,"line_count":3,"population_density":57488.7997,"poi_density":0.0,"poi_diversity":0.0,"gdp_density":0.0,"P":57488.7997,"I":0.0,"G":0.0},{"stationName":"上海徐家汇(地铁站)","station_id":"上海徐家汇(地铁站)_31.19576_121.43236","lineId":"上海地铁11号线 / 上海地铁1号线 / 上海地铁9号线","lat":31.19576220333333,"lon":121.43235650333334,"area_km2":2.9778,"D":0.6571,"C":0.9841,"T":0.4388,"U1":0.5168,"U2":0.3608,"couplingDegree":0.6571,"level":"良好协调","road_density":22.6277,"walk_accessibility":0.597,"metro_line_density":5.6079,"station_count":2,"line_count":5,"population_density":45078.9968,"poi_density":0.0,"poi_diversity":0.0,"gdp_density":5184.7508,"P":45078.9968,"I":0.0,"G":5184.7508},{"stationName":"上海上海体育馆(地铁站)","station_id":"上海上海体育馆(地铁站)_31.18429_121.43223","lineId":"上海地铁1号线 / 上海地铁4号线","lat":31.18429184,"lon":121.43223302,"area_km2":2.523,"D":0.6379,"C":0.8864,"T":0.459,"U1":0.6715,"U2":0.2466,"couplingDegree":0.6379,"level":"良好协调","road_density":25.1698,"walk_accessibility":0.5058,"metro_line_density":8.8936,"station_count":4,"line_count":5,"population_density":53079.3831,"poi_density":0.0,"poi_diversity":0.0,"gdp_density":0.0,"P":53079.3831,"I":0.0,"G":0.0},{"stationName":"上海漕宝路(地铁站)","station_id":"上海漕宝路(地铁站)_31.17012_121.43008","lineId":"上海地铁1号线","lat":31.17011773,"lon":121.43008327,"area_km2":1.8959,"D":0.5322,"C":0.9975,"T":0.2839,"U1":0.304,"U2":0.2639,"couplingDegree":0.5322,"level":"勉强协调","road_density":24.9072,"walk_accessibility":0.3801,"metro_line_density":4.1904,"station_count":3,"line_count":2,"population_density":5584.5741,"poi_density":0.0,"poi_diversity":0.0,"gdp_density":8149.0803,"P":5584.5741,"I":0.0,"G":8149.0803},{"stationName":"上海上海南站(地铁站)","station_id":"上海上海南站(地铁站)_31.15635_121.42606","lineId":"上海地铁15号线 / 上海地铁1号线 / 上海地铁3号线","lat":31.156352245,"lon":121.42606245,"area_km2":1.9356,"D":0.3155,"C":0.5405,"T":0.1842,"U1":0.3391,"U2":0.0292,"couplingDegree":0.3155,"level":"中度失调","road_density":31.4808,"walk_accessibility":0.3881,"metro_line_density":4.4154,"station_count":2,"line_count":3,"population_density":6290.595,"poi_density":0.0,"poi_diversity":0.0,"gdp_density":0.0,"P":6290.595,"I":0.0,"G":0.0},{"stationName":"上海锦江乐园(地铁站)","station_id":"上海锦江乐园(地铁站)_31.14410_121.40947","lineId":"上海地铁1号线","lat":31.14409852,"lon":121.40946646,"area_km2":1.5731,"D":0.1663,"C":0.6528,"T":0.0424,"U1":0.0745,"U2":0.0103,"couplingDegree":0.1663,"level":"极度失调","road_density":30.945,"walk_accessibility":0.3154,"metro_line_density":1.7564,"station_count":1,"line_count":1,"population_density":2210.8888,"poi_density":0.0,"poi_diversity":0.0,"gdp_density":0.0,"P":2210.8888,"I":0.0,"G":0.0},{"stationName":"上海莲花路(地铁站)","station_id":"上海莲花路(地铁站)_31.13279_121.39827","lineId":"上海地铁1号线","lat":31.132785175000002,"lon":121.39826690000001,"area_km2":2.0028,"D":0.3729,"C":0.804,"T":0.1729,"U1":0.0701,"U2":0.2758,"couplingDegree":0.3729,"level":"中度失调","road_density":26.7181,"walk_accessibility":0.4016,"metro_line_density":1.1499,"station_count":1,"line_count":1,"population_density":3379.2238,"poi_density":0.0,"poi_diversity":0.0,"gdp_density":8908.3246,"P":3379.2238,"I":0.0,"G":8908.3246},{"stationName":"上海外环路(地铁站)","station_id":"上海外环路(地铁站)_31.12279_121.38838","lineId":"上海地铁1号线","lat":31.12279218,"lon":121.38838039,"area_km2":2.444,"D":0.1894,"C":0.6421,"T":0.0558,"U1":0.0987,"U2":0.013,"couplingDegree":0.1894,"level":"极度失调","road_density":31.9405,"walk_accessibility":0.49,"metro_line_density":1.5335,"station_count":1,"line_count":1,"population_density":2805.2894,"poi_density":0.0,"poi_diversity":0.0,"gdp_density":0.0,"P":2805.2894,"I":0.0,"G":0.0},{"stationName":"上海莘庄(地铁站)","station_id":"上海莘庄(地铁站)_31.11305_121.38074","lineId":"上海地铁1号线","lat":31.11305321,"lon":121.38073913,"area_km2":2.2667,"D":0.38,"C":0.8751,"T":0.165,"U1":0.0852,"U2":0.2448,"couplingDegree":0.38,"level":"中度失调","road_density":24.0807,"walk_accessibility":0.4545,"metro_line_density":3.6097,"station_count":1,"line_count":1,"population_density":3069.6574,"poi_density":0.0,"poi_diversity":0.0,"gdp_density":7896.913,"P":3069.6574,"I":0.0,"G":7896.913},{"stationName":"上海虹桥火车站(地铁站)","station_id":"上海虹桥火车站(地铁站)_31.19604_121.31717","lineId":"上海地铁2号线 / 上海地铁示范区线","lat":31.196040484999997,"lon":121.31717220499999,"area_km2":2.0239,"D":0.5458,"C":0.9063,"T":0.3287,"U1":0.4676,"U2":0.1898,"couplingDegree":0.5458,"level":"勉强协调","road_density":44.3455,"walk_accessibility":0.4058,"metro_line_density":5.4505,"station_count":2,"line_count":4,"population_density":1432.3608,"poi_density":0.0,"poi_diversity":0.0,"gdp_density":6272.6448,"P":1432.3608,"I":0.0,"G":6272.6448},{"stationName":"上海虹桥2号航站楼(地铁站)","station_id":"上海虹桥2号航站楼(地铁站)_31.19613_121.32116","lineId":"上海地铁10号线 / 上海地铁2号线 / 上海地铁嘉闵线","lat":31.196134086666664,"lon":121.32115698,"area_km2":1.8675,"D":0.5594,"C":0.924,"T":0.3387,"U1":0.4683,"U2":0.2092,"couplingDegree":0.5594,"level":"勉强协调","road_density":43.9779,"walk_accessibility":0.3744,"metro_line_density":6.3702,"station_count":2,"line_count":4,"population_density":2301.5261,"poi_density":0.0,"poi_diversity":0.0,"gdp_density":6798.2318,"P":2301.5261,"I":0.0,"G":6798.2318},{"stationName":"上海淞虹路(地铁站)","station_id":"上海淞虹路(地铁站)_31.22010_121.35493","lineId":"上海地铁2号线","lat":31.22010141,"lon":121.35492751,"area_km2":2.8041,"D":0.3867,"C":0.9026,"T":0.1657,"U1":0.0944,"U2":0.237,"couplingDegree":0.3867,"level":"中度失调","road_density":25.7624,"walk_accessibility":0.5622,"metro_line_density":2.0913,"station_count":1,"line_count":1,"population_density":10645.706,"poi_density":0.0,"poi_diversity":0.0,"gdp_density":6424.7105,"P":10645.706,"I":0.0,"G":6424.7105},{"stationName":"上海中山公园(地铁站)","station_id":"上海中山公园(地铁站)_31.22006_121.41225","lineId":"上海地铁2号线 / 上海地铁3号线","lat":31.220058209999998,"lon":121.4122525,"area_km2":2.9313,"D":0.5464,"C":0.9985,"T":0.299,"U1":0.2829,"U2":0.3151,"couplingDegree":0.5464,"level":"勉强协调","road_density":30.2753,"walk_accessibility":0.5877,"metro_line_density":5.1788,"station_count":2,"line_count":2,"population_density":34695.548,"poi_density":0.0,"poi_diversity":0.0,"gdp_density":5273.5562,"P":34695.548,"I":0.0,"G":5273.5562},{"stationName":"上海静安寺(地铁站)","station_id":"上海静安寺(地铁站)_31.22463_121.44222","lineId":"上海地铁14号线 / 上海地铁2号线 / 上海地铁7号线","lat":31.22463062,"lon":121.44222156333335,"area_km2":2.9821,"D":0.6312,"C":0.9965,"T":0.3998,"U1":0.4331,"U2":0.3664,"couplingDegree":0.6312,"level":"良好协调","road_density":23.427,"walk_accessibility":0.5979,"metro_line_density":5.2455,"station_count":2,"line_count":4,"population_density":78881.1218,"poi_density":0.0,"poi_diversity":0.0,"gdp_density":0.0,"P":78881.1218,"I":0.0,"G":0.0},{"stationName":"上海世纪大道(地铁站)","station_id":"上海世纪大道(地铁站)_31.23078_121.52288","lineId":"上海地铁2号线","lat":31.23078121,"lon":121.522877,"area_km2":3.8492,"D":0.6529,"C":0.8075,"T":0.528,"U1":0.8394,"U2":0.2165,"couplingDegree":0.6529,"level":"良好协调","road_density":30.6493,"walk_accessibility":0.7718,"metro_line_density":5.5745,"station_count":6,"line_count":5,"population_density":13043.384,"poi_density":0.0,"poi_diversity":0.0,"gdp_density":5340.3359,"P":13043.384,"I":0.0,"G":5340.3359},{"stationName":"上海龙阳路(地铁站)","station_id":"上海龙阳路(地铁站)_31.20426_121.55296","lineId":"上海地铁16号线 / 上海地铁18号线 / 上海地铁2号线 / 上海地铁7号线","lat":31.204256895999997,"lon":121.55296048,"area_km2":2.1669,"D":0.6106,"C":0.9882,"T":0.3772,"U1":0.4349,"U2":0.3196,"couplingDegree":0.6106,"level":"良好协调","road_density":28.0113,"walk_accessibility":0.4345,"metro_line_density":6.8877,"station_count":2,"line_count":4,"population_density":9812.3118,"poi_density":0.0,"poi_diversity":0.0,"gdp_density":9384.031,"P":9812.3118,"I":0.0,"G":9384.031},{"stationName":"上海浦东1号2号航站楼(地铁站)","station_id":"上海浦东1号2号航站楼(地铁站)_31.15359_121.80159","lineId":"上海上海市域机场线后通段(浦东1号2号航站楼--上海东站) / 上海地铁2号线","lat":31.153591245,"lon":121.80159420999999,"area_km2":1.1491,"D":0.1986,"C":0.4081,"T":0.0967,"U1":0.1849,"U2":0.0084,"couplingDegree":0.1986,"level":"极度失调","road_density":33.7813,"walk_accessibility":0.2304,"metro_line_density":6.5051,"station_count":1,"line_count":2,"population_density":1811.8097,"poi_density":0.0,"poi_diversity":0.0,"gdp_density":0.0,"P":1811.8097,"I":0.0,"G":0.0},{"stationName":"上海海天三路(地铁站)","station_id":"上海海天三路(地铁站)_31.17054_121.79257","lineId":"上海地铁2号线","lat":31.17054153,"lon":121.79256704,"area_km2":2.3425,"D":0.1243,"C":0.4427,"T":0.0349,"U1":0.0662,"U2":0.0036,"couplingDegree":0.1243,"level":"极度失调","road_density":22.5574,"walk_accessibility":0.4697,"metro_line_density":0.9631,"station_count":1,"line_count":1,"population_density":776.9578,"poi_density":0.0,"poi_diversity":0.0,"gdp_density":0.0,"P":776.9578,"I":0.0,"G":0.0},{"stationName":"上海远东大道(地铁站)","station_id":"上海远东大道(地铁站)_31.20141_121.75093","lineId":"上海地铁2号线","lat":31.20141446,"lon":121.75092969,"area_km2":1.5171,"D":0.2983,"C":0.635,"T":0.1401,"U1":0.0319,"U2":0.2483,"couplingDegree":0.2983,"level":"中度失调","road_density":18.379,"walk_accessibility":0.3042,"metro_line_density":0.7895,"station_count":1,"line_count":1,"population_density":1455.4186,"poi_density":0.0,"poi_diversity":0.0,"gdp_density":8274.6792,"P":1455.4186,"I":0.0,"G":8274.6792},{"stationName":"上海凌空路(地铁站)","station_id":"上海凌空路(地铁站)_31.19491_121.71973","lineId":"上海地铁2号线","lat":31.19490762,"lon":121.7197285,"area_km2":1.8958,"D":0.3135,"C":0.7508,"T":0.1309,"U1":0.0445,"U2":0.2174,"couplingDegree":0.3135,"level":"中度失调","road_density":17.8912,"walk_accessibility":0.3801,"metro_line_density":1.4293,"station_count":1,"line_count":1,"population_density":2385.8326,"poi_density":0.0,"poi_diversity":0.0,"gdp_density":7067.0538,"P":2385.8326,"I":0.0,"G":7067.0538},{"stationName":"上海川沙(地铁站)","station_id":"上海川沙(地铁站)_31.18882_121.69387","lineId":"上海地铁2号线","lat":31.1888237,"lon":121.69387453,"area_km2":2.2367,"D":0.3503,"C":0.6895,"T":0.178,"U1":0.0491,"U2":0.3069,"couplingDegree":0.3503,"level":"中度失调","road_density":16.8357,"walk_accessibility":0.4485,"metro_line_density":1.2116,"station_count":1,"line_count":1,"population_density":11153.3325,"poi_density":0.0,"poi_diversity":0.0,"gdp_density":8738.1008,"P":11153.3325,"I":0.0,"G":8738.1008},{"stationName":"上海华夏东路(地铁站)","station_id":"上海华夏东路(地铁站)_31.19868_121.67667","lineId":"上海地铁2号线","lat":31.19868363,"lon":121.67666725,"area_km2":1.6418,"D":0.1989,"C":0.9982,"T":0.0396,"U1":0.042,"U2":0.0373,"couplingDegree":0.1989,"level":"极度失调","road_density":19.195,"walk_accessibility":0.3292,"metro_line_density":1.518,"station_count":1,"line_count":1,"population_density":8019.2251,"poi_density":0.0,"poi_diversity":0.0,"gdp_density":0.0,"P":8019.2251,"I":0.0,"G":0.0},{"stationName":"上海创新中路(地铁站)","station_id":"上海创新中路(地铁站)_31.21599_121.66942","lineId":"上海地铁2号线","lat":31.21598559,"lon":121.66942139,"area_km2":1.2733,"D":0.0811,"C":0.3471,"T":0.019,"U1":0.0367,"U2":0.0012,"couplingDegree":0.0811,"level":"极度失调","road_density":20.353,"walk_accessibility":0.2553,"metro_line_density":1.7037,"station_count":1,"line_count":1,"population_density":253.6679,"poi_density":0.0,"poi_diversity":0.0,"gdp_density":0.0,"P":253.6679,"I":0.0,"G":0.0},{"stationName":"上海唐镇(地铁站)","station_id":"上海唐镇(地铁站)_31.21625_121.65201","lineId":"上海地铁2号线","lat":31.21625474,"lon":121.65201072,"area_km2":1.7434,"D":0.327,"C":0.6536,"T":0.1636,"U1":0.0398,"U2":0.2875,"couplingDegree":0.327,"level":"中度失调","road_density":18.5302,"walk_accessibility":0.3495,"metro_line_density":1.0376,"station_count":1,"line_count":1,"population_density":5990.6153,"poi_density":0.0,"poi_diversity":0.0,"gdp_density":8892.6601,"P":5990.6153,"I":0.0,"G":8892.6601},{"stationName":"上海广兰路(地铁站)","station_id":"上海广兰路(地铁站)_31.21325_121.61686","lineId":"上海地铁2号线","lat":31.21324925,"lon":121.61686455,"area_km2":1.9865,"D":0.383,"C":0.7658,"T":0.1915,"U1":0.0684,"U2":0.3147,"couplingDegree":0.383,"level":"中度失调","road_density":25.4756,"walk_accessibility":0.3983,"metro_line_density":1.4912,"station_count":1,"line_count":1,"population_density":4416.7992,"poi_density":0.0,"poi_diversity":0.0,"gdp_density":10075.7406,"P":4416.7992,"I":0.0,"G":10075.7406},{"stationName":"上海金科路(地铁站)","station_id":"上海金科路(地铁站)_31.20643_121.59779","lineId":"上海地铁2号线","lat":31.20642676,"lon":121.59778968,"area_km2":1.9092,"D":0.2047,"C":0.9915,"T":0.0422,"U1":0.0477,"U2":0.0368,"couplingDegree":0.2047,"level":"中度失调","road_density":18.7748,"walk_accessibility":0.3828,"metro_line_density":1.5023,"station_count":1,"line_count":1,"population_density":7911.6841,"poi_density":0.0,"poi_diversity":0.0,"gdp_density":0.0,"P":7911.6841,"I":0.0,"G":0.0},{"stationName":"上海张江高科(地铁站)","station_id":"上海张江高科(地铁站)_31.20409_121.58329","lineId":"上海地铁2号线","lat":31.20408548,"lon":121.58328664,"area_km2":2.1967,"D":0.2096,"C":0.973,"T":0.0452,"U1":0.0556,"U2":0.0347,"couplingDegree":0.2096,"level":"中度失调","road_density":19.4865,"walk_accessibility":0.4404,"metro_line_density":1.2367,"station_count":1,"line_count":1,"population_density":7475.3628,"poi_density":0.0,"poi_diversity":0.0,"gdp_density":0.0,"P":7475.3628,"I":0.0,"G":0.0},{"stationName":"上海世纪公园(地铁站)","station_id":"上海世纪公园(地铁站)_31.21159_121.54665","lineId":"上海地铁2号线","lat":31.21158603,"lon":121.54664538,"area_km2":2.445,"D":0.606,"C":0.9586,"T":0.3831,"U1":0.4922,"U2":0.2739,"couplingDegree":0.606,"level":"良好协调","road_density":27.5647,"walk_accessibility":0.4902,"metro_line_density":4.0049,"station_count":3,"line_count":4,"population_density":6524.4026,"poi_density":0.0,"poi_diversity":0.0,"gdp_density":8344.8331,"P":6524.4026,"I":0.0,"G":8344.8331},{"stationName":"上海上海科技馆(地铁站)","station_id":"上海上海科技馆(地铁站)_31.22097_121.54016","lineId":"上海地铁2号线","lat":31.22096549,"lon":121.54015729,"area_km2":3.2412,"D":0.5866,"C":0.8675,"T":0.3967,"U1":0.5941,"U2":0.1993,"couplingDegree":0.5866,"level":"勉强协调","road_density":32.9555,"walk_accessibility":0.6499,"metro_line_density":3.4672,"station_count":4,"line_count":4,"population_density":3263.2783,"poi_density":0.0,"poi_diversity":0.0,"gdp_density":6308.7163,"P":3263.2783,"I":0.0,"G":6308.7163},{"stationName":"上海浦东南路(原东昌路)(地铁站)","station_id":"上海浦东南路(原东昌路)(地铁站)_31.23533_121.51118","lineId":"上海地铁2号线","lat":31.2353341,"lon":121.5111808,"area_km2":4.2622,"D":0.6322,"C":0.8953,"T":0.4464,"U1":0.6452,"U2":0.2476,"couplingDegree":0.6322,"level":"良好协调","road_density":36.9841,"walk_accessibility":0.8546,"metro_line_density":5.5519,"station_count":4,"line_count":4,"population_density":22981.0573,"poi_density":0.0,"poi_diversity":0.0,"gdp_density":4822.8493,"P":22981.0573,"I":0.0,"G":4822.8493},{"stationName":"上海陆家嘴(地铁站)","station_id":"上海陆家嘴(地铁站)_31.23875_121.49806","lineId":"上海地铁14号线 / 上海地铁2号线","lat":31.238746165000002,"lon":121.49806153,"area_km2":3.0308,"D":0.5166,"C":0.9956,"T":0.2681,"U1":0.2429,"U2":0.2932,"couplingDegree":0.5166,"level":"勉强协调","road_density":42.5232,"walk_accessibility":0.6077,"metro_line_density":4.0086,"station_count":1,"line_count":2,"population_density":20407.9498,"poi_density":0.0,"poi_diversity":0.0,"gdp_density":6797.1211,"P":20407.9498,"I":0.0,"G":6797.1211},{"stationName":"上海南京东路(地铁站)","station_id":"上海南京东路(地铁站)_31.23957_121.47963","lineId":"上海地铁10号线 / 上海地铁2号线","lat":31.23956866,"lon":121.47962986499999,"area_km2":3.7709,"D":0.6563,"C":0.9376,"T":0.4594,"U1":0.6191,"U2":0.2997,"couplingDegree":0.6563,"level":"良好协调","road_density":31.081,"walk_accessibility":0.7561,"metro_line_density":3.7855,"station_count":3,"line_count":5,"population_density":38925.2248,"poi_density":0.0,"poi_diversity":0.0,"gdp_density":4070.1046,"P":38925.2248,"I":0.0,"G":4070.1046},{"stationName":"上海南京西路(地铁站)","station_id":"上海南京西路(地铁站)_31.23112_121.45664","lineId":"上海地铁13号线 / 上海地铁2号线","lat":31.231121675,"lon":121.456641515,"area_km2":3.1486,"D":0.6276,"C":0.9944,"T":0.3961,"U1":0.3542,"U2":0.438,"couplingDegree":0.6276,"level":"良好协调","road_density":28.6172,"walk_accessibility":0.6313,"metro_line_density":3.0223,"station_count":2,"line_count":3,"population_density":63581.911,"poi_density":0.0,"poi_diversity":0.0,"gdp_density":4884.5815,"P":63581.911,"I":0.0,"G":4884.5815},{"stationName":"上海江苏路(地铁站)","station_id":"上海江苏路(地铁站)_31.22201_121.42692","lineId":"上海地铁11号线 / 上海地铁2号线","lat":31.222012560000003,"lon":121.42691964,"area_km2":2.9026,"D":0.4317,"C":0.9994,"T":0.1865,"U1":0.1931,"U2":0.1799,"couplingDegree":0.4317,"level":"勉强协调","road_density":25.8125,"walk_accessibility":0.582,"metro_line_density":4.0316,"station_count":1,"line_count":2,"population_density":38727.6146,"poi_density":0.0,"poi_diversity":0.0,"gdp_density":0.0,"P":38727.6146,"I":0.0,"G":0.0},{"stationName":"上海娄山关路(地铁站)","station_id":"上海娄山关路(地铁站)_31.21395_121.39738","lineId":"上海地铁15号线 / 上海地铁2号线","lat":31.213947245,"lon":121.39738009,"area_km2":2.7612,"D":0.4983,"C":0.9384,"T":0.2646,"U1":0.1732,"U2":0.356,"couplingDegree":0.4983,"level":"勉强协调","road_density":23.1715,"walk_accessibility":0.5536,"metro_line_density":2.6256,"station_count":1,"line_count":2,"population_density":41368.9842,"poi_density":0.0,"poi_diversity":0.0,"gdp_density":5612.1447,"P":41368.9842,"I":0.0,"G":5612.1447},{"stationName":"上海威宁路(地铁站)","station_id":"上海威宁路(地铁站)_31.21672_121.38264","lineId":"上海地铁2号线","lat":31.21671684,"lon":121.38263986,"area_km2":2.3448,"D":0.3204,"C":0.9625,"T":0.1066,"U1":0.0777,"U2":0.1356,"couplingDegree":0.3204,"level":"中度失调","road_density":23.4281,"walk_accessibility":0.4701,"metro_line_density":2.3906,"station_count":1,"line_count":1,"population_density":29186.247,"poi_density":0.0,"poi_diversity":0.0,"gdp_density":0.0,"P":29186.247,"I":0.0,"G":0.0},{"stationName":"上海北新泾(地铁站)","station_id":"上海北新泾(地铁站)_31.21825_121.36937","lineId":"上海地铁2号线","lat":31.21825356,"lon":121.3693669,"area_km2":2.5871,"D":0.3875,"C":0.9119,"T":0.1647,"U1":0.0971,"U2":0.2323,"couplingDegree":0.3875,"level":"中度失调","road_density":28.4442,"walk_accessibility":0.5187,"metro_line_density":2.2398,"station_count":1,"line_count":1,"population_density":12245.8753,"poi_density":0.0,"poi_diversity":0.0,"gdp_density":6007.0466,"P":12245.8753,"I":0.0,"G":6007.0466},{"stationName":"上海国家会展中心(2号线)(地铁站)","station_id":"上海国家会展中心(2号线)(地铁站)_31.19037_121.29473","lineId":"上海地铁2号线","lat":31.19036678,"lon":121.29472806,"area_km2":1.9167,"D":0.3502,"C":0.9353,"T":0.1311,"U1":0.0847,"U2":0.1775,"couplingDegree":0.3502,"level":"中度失调","road_density":26.4079,"walk_accessibility":0.3843,"metro_line_density":3.9686,"station_count":1,"line_count":1,"population_density":1098.2275,"poi_density":0.0,"poi_diversity":0.0,"gdp_density":5904.6652,"P":1098.2275,"I":0.0,"G":5904.6652},{"stationName":"上海蟠祥路(地铁站)","station_id":"上海蟠祥路(地铁站)_31.18406_121.28299","lineId":"上海地铁2号线","lat":31.1840645,"lon":121.28298674,"area_km2":1.6661,"D":0.1857,"C":0.8614,"T":0.04,"U1":0.0603,"U2":0.0197,"couplingDegree":0.1857,"level":"极度失调","road_density":21.8203,"walk_accessibility":0.334,"metro_line_density":3.1707,"station_count":1,"line_count":1,"population_density":4239.2822,"poi_density":0.0,"poi_diversity":0.0,"gdp_density":0.0,"P":4239.2822,"I":0.0,"G":0.0},{"stationName":"上海石龙路(地铁站)","station_id":"上海石龙路(地铁站)_31.15986_121.43860","lineId":"上海地铁3号线","lat":31.159856395,"lon":121.43860487,"area_km2":1.434,"D":0.5815,"C":0.99,"T":0.3416,"U1":0.2935,"U2":0.3898,"couplingDegree":0.5815,"level":"勉强协调","road_density":18.6084,"walk_accessibility":0.2875,"metro_line_density":4.9467,"station_count":2,"line_count":3,"population_density":16424.2526,"poi_density":0.0,"poi_diversity":0.0,"gdp_density":10736.4514,"P":16424.2526,"I":0.0,"G":10736.4514},{"stationName":"上海龙漕路(地铁站)","station_id":"上海龙漕路(地铁站)_31.17136_121.43978","lineId":"上海地铁3号线","lat":31.17136246,"lon":121.43978352,"area_km2":2.0729,"D":0.5789,"C":0.9986,"T":0.3356,"U1":0.3177,"U2":0.3535,"couplingDegree":0.5789,"level":"勉强协调","road_density":22.0931,"walk_accessibility":0.4156,"metro_line_density":6.8827,"station_count":3,"line_count":2,"population_density":29252.7186,"poi_density":0.0,"poi_diversity":0.0,"gdp_density":7453.3898,"P":29252.7186,"I":0.0,"G":7453.3898},{"stationName":"上海漕溪路(地铁站)","station_id":"上海漕溪路(地铁站)_31.17864_121.43380","lineId":"上海地铁3号线","lat":31.17863651,"lon":121.43379847,"area_km2":1.9684,"D":0.6904,"C":0.9514,"T":0.5011,"U1":0.6554,"U2":0.3467,"couplingDegree":0.6904,"level":"良好协调","road_density":28.7905,"walk_accessibility":0.3947,"metro_line_density":9.3366,"station_count":5,"line_count":4,"population_density":25299.6575,"poi_density":0.0,"poi_diversity":0.0,"gdp_density":7849.0622,"P":25299.6575,"I":0.0,"G":7849.0622},{"stationName":"上海宜山路(地铁站)","station_id":"上海宜山路(地铁站)_31.18788_121.42264","lineId":"上海地铁3号线 / 上海地铁4号线 / 上海地铁9号线","lat":31.1878847,"lon":121.42264432,"area_km2":2.5916,"D":0.4957,"C":0.8463,"T":0.2903,"U1":0.4449,"U2":0.1357,"couplingDegree":0.4957,"level":"勉强协调","road_density":26.941,"walk_accessibility":0.5196,"metro_line_density":7.1891,"station_count":2,"line_count":4,"population_density":29203.9831,"poi_density":0.0,"poi_diversity":0.0,"gdp_density":0.0,"P":29203.9831,"I":0.0,"G":0.0},{"stationName":"上海虹桥路(地铁站)","station_id":"上海虹桥路(地铁站)_31.19894_121.41700","lineId":"上海地铁10号线 / 上海地铁3号线 / 上海地铁4号线","lat":31.19893825,"lon":121.4169995475,"area_km2":3.1907,"D":0.5555,"C":0.9983,"T":0.3091,"U1":0.2909,"U2":0.3273,"couplingDegree":0.5555,"level":"勉强协调","road_density":25.1448,"walk_accessibility":0.6397,"metro_line_density":5.3623,"station_count":1,"line_count":3,"population_density":39983.2603,"poi_density":0.0,"poi_diversity":0.0,"gdp_density":4848.2372,"P":39983.2603,"I":0.0,"G":4848.2372},{"stationName":"上海延安西路(地铁站)","station_id":"上海延安西路(地铁站)_31.21147_121.41242","lineId":"上海地铁3号线","lat":31.21146575,"lon":121.41241925,"area_km2":3.3431,"D":0.6006,"C":0.9751,"T":0.3699,"U1":0.2878,"U2":0.452,"couplingDegree":0.6006,"level":"良好协调","road_density":30.6086,"walk_accessibility":0.6703,"metro_line_density":4.1026,"station_count":2,"line_count":2,"population_density":68233.7118,"poi_density":0.0,"poi_diversity":0.0,"gdp_density":4623.8984,"P":68233.7118,"I":0.0,"G":4623.8984},{"stationName":"上海金沙江路(地铁站)","station_id":"上海金沙江路(地铁站)_31.23350_121.40783","lineId":"上海地铁13号线 / 上海地铁3号线","lat":31.233497315,"lon":121.40783292,"area_km2":3.008,"D":0.6281,"C":0.9937,"T":0.397,"U1":0.4414,"U2":0.3526,"couplingDegree":0.6281,"level":"良好协调","road_density":26.2215,"walk_accessibility":0.6031,"metro_line_density":5.2156,"station_count":2,"line_count":4,"population_density":43621.5178,"poi_density":0.0,"poi_diversity":0.0,"gdp_density":5135.2987,"P":43621.5178,"I":0.0,"G":5135.2987},{"stationName":"上海曹杨路(地铁站)","station_id":"上海曹杨路(地铁站)_31.24092_121.41402","lineId":"上海地铁11号线 / 上海地铁14号线 / 上海地铁3号线","lat":31.24092087,"lon":121.414017685,"area_km2":2.4253,"D":0.6525,"C":0.9987,"T":0.4263,"U1":0.4477,"U2":0.4049,"couplingDegree":0.6525,"level":"良好协调","road_density":27.2683,"walk_accessibility":0.4863,"metro_line_density":8.1738,"station_count":2,"line_count":4,"population_density":47124.162,"poi_density":0.0,"poi_diversity":0.0,"gdp_density":6369.1431,"P":47124.162,"I":0.0,"G":6369.1431},{"stationName":"上海镇坪路(地铁站)","station_id":"上海镇坪路(地铁站)_31.24841_121.42610","lineId":"上海地铁3号线 / 上海地铁7号线","lat":31.248411654999998,"lon":121.42609662999999,"area_km2":2.6791,"D":0.4665,"C":0.9951,"T":0.2187,"U1":0.197,"U2":0.2404,"couplingDegree":0.4665,"level":"勉强协调","road_density":24.3518,"walk_accessibility":0.5371,"metro_line_density":6.2364,"station_count":1,"line_count":2,"population_density":51759.281,"poi_density":0.0,"poi_diversity":0.0,"gdp_density":0.0,"P":51759.281,"I":0.0,"G":0.0},{"stationName":"上海中潭路(地铁站)","station_id":"上海中潭路(地铁站)_31.25643_121.43639","lineId":"上海地铁3号线","lat":31.25642627,"lon":121.43638781,"area_km2":2.4935,"D":0.462,"C":0.793,"T":0.2692,"U1":0.1052,"U2":0.4332,"couplingDegree":0.462,"level":"勉强协调","road_density":27.3354,"walk_accessibility":0.4999,"metro_line_density":4.409,"station_count":1,"line_count":1,"population_density":54434.748,"poi_density":0.0,"poi_diversity":0.0,"gdp_density":6177.6268,"P":54434.748,"I":0.0,"G":6177.6268},{"stationName":"上海宝山路(地铁站)","station_id":"上海宝山路(地铁站)_31.25346_121.47178","lineId":"上海地铁3号线","lat":31.25346217,"lon":121.47178086,"area_km2":2.6428,"D":0.6309,"C":0.9994,"T":0.3982,"U1":0.385,"U2":0.4115,"couplingDegree":0.6309,"level":"良好协调","road_density":21.1024,"walk_accessibility":0.5299,"metro_line_density":4.6083,"station_count":4,"line_count":2,"population_density":52121.504,"poi_density":0.0,"poi_diversity":0.0,"gdp_density":5802.1407,"P":52121.504,"I":0.0,"G":5802.1407},{"stationName":"上海东宝兴路(地铁站)","station_id":"上海东宝兴路(地铁站)_31.26183_121.47570","lineId":"上海地铁3号线","lat":31.26183279,"lon":121.47569748,"area_km2":3.1459,"D":0.6957,"C":0.9254,"T":0.523,"U1":0.7211,"U2":0.3248,"couplingDegree":0.6957,"level":"良好协调","road_density":20.2161,"walk_accessibility":0.6308,"metro_line_density":5.3534,"station_count":5,"line_count":5,"population_density":39288.9384,"poi_density":0.0,"poi_diversity":0.0,"gdp_density":4874.2178,"P":39288.9384,"I":0.0,"G":4874.2178},{"stationName":"上海虹口足球场(地铁站)","station_id":"上海虹口足球场(地铁站)_31.27283_121.47470","lineId":"上海地铁3号线 / 上海地铁8号线","lat":31.272831903333337,"lon":121.47470314666667,"area_km2":2.9026,"D":0.6065,"C":0.9976,"T":0.3687,"U1":0.3431,"U2":0.3944,"couplingDegree":0.6065,"level":"良好协调","road_density":25.0696,"walk_accessibility":0.582,"metro_line_density":6.1434,"station_count":3,"line_count":2,"population_density":51707.6699,"poi_density":0.0,"poi_diversity":0.0,"gdp_density":5279.8945,"P":51707.6699,"I":0.0,"G":5279.8945},{"stationName":"上海赤峰路(地铁站)","station_id":"上海赤峰路(地铁站)_31.28319_121.47793","lineId":"上海地铁3号线","lat":31.28319225,"lon":121.47793119,"area_km2":3.29,"D":0.6043,"C":0.9861,"T":0.3703,"U1":0.4317,"U2":0.3088,"couplingDegree":0.6043,"level":"良好协调","road_density":32.7444,"walk_accessibility":0.6596,"metro_line_density":4.1796,"station_count":4,"line_count":2,"population_density":37206.9488,"poi_density":0.0,"poi_diversity":0.0,"gdp_density":4658.2496,"P":37206.9488,"I":0.0,"G":4658.2496},{"stationName":"上海大柏树(地铁站)","station_id":"上海大柏树(地铁站)_31.29138_121.47872","lineId":"上海地铁3号线","lat":31.29137698,"lon":121.47871962,"area_km2":2.4501,"D":0.5198,"C":0.933,"T":0.2896,"U1":0.1854,"U2":0.3938,"couplingDegree":0.5198,"level":"勉强协调","road_density":34.1026,"walk_accessibility":0.4912,"metro_line_density":3.3025,"station_count":2,"line_count":1,"population_density":45606.4578,"poi_density":0.0,"poi_diversity":0.0,"gdp_density":6230.4356,"P":45606.4578,"I":0.0,"G":6230.4356},{"stationName":"上海江湾镇(地铁站)","station_id":"上海江湾镇(地铁站)_31.30873_121.48060","lineId":"上海地铁20号线 / 上海地铁3号线","lat":31.308728435,"lon":121.480602725,"area_km2":1.8997,"D":0.3398,"C":0.9274,"T":0.1245,"U1":0.1711,"U2":0.0779,"couplingDegree":0.3398,"level":"中度失调","road_density":24.3637,"walk_accessibility":0.3809,"metro_line_density":5.3492,"station_count":1,"line_count":2,"population_density":16768.8069,"poi_density":0.0,"poi_diversity":0.0,"gdp_density":0.0,"P":16768.8069,"I":0.0,"G":0.0},{"stationName":"上海殷高西路(地铁站)","station_id":"上海殷高西路(地铁站)_31.32194_121.48036","lineId":"上海地铁3号线","lat":31.32194102,"lon":121.48036209,"area_km2":1.8166,"D":0.0,"C":0.0,"T":0.041,"U1":0.082,"U2":0.0,"couplingDegree":0.0,"level":"极度失调","road_density":27.2187,"walk_accessibility":0.3642,"metro_line_density":3.5955,"station_count":1,"line_count":1,"population_density":0.0,"poi_density":0.0,"poi_diversity":0.0,"gdp_density":0.0,"P":0.0,"I":0.0,"G":0.0},{"stationName":"上海长江南路(地铁站)","station_id":"上海长江南路(地铁站)_31.33386_121.48603","lineId":"上海地铁18号线 / 上海地铁3号线","lat":31.33385695,"lon":121.48602720000001,"area_km2":1.454,"D":0.2729,"C":0.7113,"T":0.1047,"U1":0.1782,"U2":0.0311,"couplingDegree":0.2729,"level":"中度失调","road_density":26.6361,"walk_accessibility":0.2915,"metro_line_density":7.3406,"station_count":1,"line_count":2,"population_density":6693.9256,"poi_density":0.0,"poi_diversity":0.0,"gdp_density":0.0,"P":6693.9256,"I":0.0,"G":0.0},{"stationName":"上海淞发路(地铁站)","station_id":"上海淞发路(地铁站)_31.34711_121.49595","lineId":"上海地铁3号线","lat":31.34710814,"lon":121.49595013,"area_km2":2.0762,"D":0.3731,"C":0.8761,"T":0.1589,"U1":0.0823,"U2":0.2355,"couplingDegree":0.3731,"level":"中度失调","road_density":26.8095,"walk_accessibility":0.4163,"metro_line_density":2.74,"station_count":1,"line_count":1,"population_density":4974.4702,"poi_density":0.0,"poi_diversity":0.0,"gdp_density":7275.6054,"P":4974.4702,"I":0.0,"G":7275.6054},{"stationName":"上海张华浜(地铁站)","station_id":"上海张华浜(地铁站)_31.35998_121.49422","lineId":"上海地铁3号线","lat":31.35997956,"lon":121.4942232,"area_km2":1.2524,"D":0.4063,"C":0.7686,"T":0.2148,"U1":0.0774,"U2":0.3521,"couplingDegree":0.4063,"level":"勉强协调","road_density":28.8967,"walk_accessibility":0.2511,"metro_line_density":4.4628,"station_count":1,"line_count":1,"population_density":0.0,"poi_density":0.0,"poi_diversity":0.0,"gdp_density":12061.4619,"P":0.0,"I":0.0,"G":12061.4619},{"stationName":"上海淞滨路(地铁站)","station_id":"上海淞滨路(地铁站)_31.37287_121.48835","lineId":"上海地铁3号线","lat":31.37287018,"lon":121.48834979,"area_km2":1.6219,"D":0.4439,"C":0.9525,"T":0.2069,"U1":0.1439,"U2":0.2699,"couplingDegree":0.4439,"level":"勉强协调","road_density":26.9182,"walk_accessibility":0.3252,"metro_line_density":3.3413,"station_count":2,"line_count":1,"population_density":7127.5229,"poi_density":0.0,"poi_diversity":0.0,"gdp_density":8111.591,"P":7127.5229,"I":0.0,"G":8111.591},{"stationName":"上海水产路(地铁站)","station_id":"上海水产路(地铁站)_31.38323_121.48376","lineId":"上海地铁3号线","lat":31.38322778,"lon":121.48376147,"area_km2":1.0764,"D":0.0,"C":0.0,"T":0.0717,"U1":0.1434,"U2":0.0,"couplingDegree":0.0,"level":"极度失调","road_density":27.4228,"walk_accessibility":0.2158,"metro_line_density":5.3176,"station_count":2,"line_count":1,"population_density":0.0,"poi_density":0.0,"poi_diversity":0.0,"gdp_density":0.0,"P":0.0,"I":0.0,"G":0.0},{"stationName":"上海宝杨路(地铁站)","station_id":"上海宝杨路(地铁站)_31.39721_121.47506","lineId":"上海地铁3号线","lat":31.39721093,"lon":121.47505543,"area_km2":1.3211,"D":0.3186,"C":0.9588,"T":0.1058,"U1":0.1359,"U2":0.0758,"couplingDegree":0.3186,"level":"中度失调","road_density":24.539,"walk_accessibility":0.2649,"metro_line_density":4.3831,"station_count":2,"line_count":1,"population_density":16314.1346,"poi_density":0.0,"poi_diversity":0.0,"gdp_density":0.0,"P":16314.1346,"I":0.0,"G":0.0},{"stationName":"上海友谊路(地铁站)","station_id":"上海友谊路(地铁站)_31.40590_121.47139","lineId":"上海地铁3号线","lat":31.40589946,"lon":121.47139412,"area_km2":1.4863,"D":0.2825,"C":0.8793,"T":0.0907,"U1":0.134,"U2":0.0475,"couplingDegree":0.2825,"level":"中度失调","road_density":23.7229,"walk_accessibility":0.298,"metro_line_density":3.7479,"station_count":2,"line_count":1,"population_density":10230.7456,"poi_density":0.0,"poi_diversity":0.0,"gdp_density":0.0,"P":10230.7456,"I":0.0,"G":0.0},{"stationName":"上海铁力路(地铁站)","station_id":"上海铁力路(地铁站)_31.40996_121.45656","lineId":"上海地铁3号线","lat":31.409964685,"lon":121.456561565,"area_km2":1.6037,"D":0.389,"C":0.793,"T":0.1908,"U1":0.0746,"U2":0.307,"couplingDegree":0.389,"level":"中度失调","road_density":26.6508,"walk_accessibility":0.3215,"metro_line_density":3.5484,"station_count":1,"line_count":1,"population_density":7188.7835,"poi_density":0.0,"poi_diversity":0.0,"gdp_density":9370.8114,"P":7188.7835,"I":0.0,"G":9370.8114},{"stationName":"上海江杨北路(地铁站)","station_id":"上海江杨北路(地铁站)_31.40966_121.43519","lineId":"上海地铁3号线","lat":31.40965845,"lon":121.43519049,"area_km2":1.5497,"D":0.2028,"C":0.9919,"T":0.0414,"U1":0.0467,"U2":0.0362,"couplingDegree":0.2028,"level":"中度失调","road_density":24.9956,"walk_accessibility":0.3107,"metro_line_density":0.0789,"station_count":1,"line_count":1,"population_density":7789.8493,"poi_density":0.0,"poi_diversity":0.0,"gdp_density":0.0,"P":7789.8493,"I":0.0,"G":0.0},{"stationName":"上海海伦路(地铁站)","station_id":"上海海伦路(地铁站)_31.26110_121.48461","lineId":"上海地铁10号线 / 上海地铁19号线 / 上海地铁4号线","lat":31.2611021775,"lon":121.4846140375,"area_km2":3.0604,"D":0.6384,"C":0.9783,"T":0.4166,"U1":0.5029,"U2":0.3304,"couplingDegree":0.6384,"level":"良好协调","road_density":23.863,"walk_accessibility":0.6136,"metro_line_density":4.7847,"station_count":3,"line_count":4,"population_density":71116.7399,"poi_density":0.0,"poi_diversity":0.0,"gdp_density":0.0,"P":71116.7399,"I":0.0,"G":0.0},{"stationName":"上海临平路(地铁站)","station_id":"上海临平路(地铁站)_31.26288_121.49626","lineId":"上海地铁4号线","lat":31.262881505000003,"lon":121.496264755,"area_km2":3.157,"D":0.6083,"C":0.9945,"T":0.3721,"U1":0.4112,"U2":0.333,"couplingDegree":0.6083,"level":"良好协调","road_density":22.824,"walk_accessibility":0.633,"metro_line_density":3.5843,"station_count":3,"line_count":3,"population_density":41225.8162,"poi_density":0.0,"poi_diversity":0.0,"gdp_density":4846.6755,"P":41225.8162,"I":0.0,"G":4846.6755},{"stationName":"上海大连路(地铁站)","station_id":"上海大连路(地铁站)_31.25998_121.50870","lineId":"上海地铁4号线","lat":31.25998412,"lon":121.50870081,"area_km2":2.6899,"D":0.414,"C":0.9735,"T":0.1761,"U1":0.2164,"U2":0.1358,"couplingDegree":0.414,"level":"勉强协调","road_density":20.1692,"walk_accessibility":0.5393,"metro_line_density":2.3758,"station_count":3,"line_count":1,"population_density":29234.9827,"poi_density":0.0,"poi_diversity":0.0,"gdp_density":0.0,"P":29234.9827,"I":0.0,"G":0.0},{"stationName":"上海杨树浦路(地铁站)","station_id":"上海杨树浦路(地铁站)_31.25400_121.51284","lineId":"上海地铁4号线","lat":31.2539951,"lon":121.51283866,"area_km2":2.1994,"D":0.4162,"C":0.9663,"T":0.1793,"U1":0.1331,"U2":0.2254,"couplingDegree":0.4162,"level":"勉强协调","road_density":18.5555,"walk_accessibility":0.441,"metro_line_density":2.9333,"station_count":2,"line_count":1,"population_density":22844.8495,"poi_density":0.0,"poi_diversity":0.0,"gdp_density":4085.3608,"P":22844.8495,"I":0.0,"G":4085.3608},{"stationName":"上海浦东大道(地铁站)","station_id":"上海浦东大道(地铁站)_31.24238_121.51494","lineId":"上海地铁4号线","lat":31.24237941,"lon":121.51493791,"area_km2":3.488,"D":0.6315,"C":0.9532,"T":0.4183,"U1":0.5448,"U2":0.2919,"couplingDegree":0.6315,"level":"良好协调","road_density":33.3573,"walk_accessibility":0.6993,"metro_line_density":5.4561,"station_count":3,"line_count":4,"population_density":25798.3923,"poi_density":0.0,"poi_diversity":0.0,"gdp_density":5893.3887,"P":25798.3923,"I":0.0,"G":5893.3887},{"stationName":"上海向城路(地铁站)","station_id":"上海向城路(地铁站)_31.22440_121.52776","lineId":"上海地铁4号线","lat":31.22439979,"lon":121.52776134,"area_km2":3.9467,"D":0.4031,"C":0.456,"T":0.3564,"U1":0.6735,"U2":0.0392,"couplingDegree":0.4031,"level":"勉强协调","road_density":30.9933,"walk_accessibility":0.7913,"metro_line_density":5.2825,"station_count":6,"line_count":3,"population_density":8440.6355,"poi_density":0.0,"poi_diversity":0.0,"gdp_density":0.0,"P":8440.6355,"I":0.0,"G":0.0},{"stationName":"上海蓝村路(地铁站)","station_id":"上海蓝村路(地铁站)_31.21373_121.52343","lineId":"上海地铁4号线 / 上海地铁6号线","lat":31.21372554,"lon":121.523430885,"area_km2":2.5268,"D":0.6419,"C":0.9565,"T":0.4307,"U1":0.5564,"U2":0.3051,"couplingDegree":0.6419,"level":"良好协调","road_density":27.9217,"walk_accessibility":0.5066,"metro_line_density":4.9673,"station_count":5,"line_count":3,"population_density":14704.585,"poi_density":0.0,"poi_diversity":0.0,"gdp_density":8110.3925,"P":14704.585,"I":0.0,"G":8110.3925},{"stationName":"上海塘桥(地铁站)","station_id":"上海塘桥(地铁站)_31.21208_121.51389","lineId":"上海地铁19号线 / 上海地铁4号线","lat":31.212079146666667,"lon":121.51389470666668,"area_km2":2.552,"D":0.5987,"C":0.9904,"T":0.3619,"U1":0.4118,"U2":0.312,"couplingDegree":0.5987,"level":"勉强协调","road_density":26.1282,"walk_accessibility":0.5117,"metro_line_density":4.7454,"station_count":3,"line_count":3,"population_density":16690.8923,"poi_density":0.0,"poi_diversity":0.0,"gdp_density":8030.4335,"P":16690.8923,"I":0.0,"G":8030.4335},{"stationName":"上海南浦大桥(地铁站)","station_id":"上海南浦大桥(地铁站)_31.21053_121.49529","lineId":"上海地铁4号线","lat":31.21053316,"lon":121.49529392,"area_km2":2.8972,"D":0.5452,"C":0.9952,"T":0.2987,"U1":0.3279,"U2":0.2696,"couplingDegree":0.5452,"level":"勉强协调","road_density":27.2131,"walk_accessibility":0.5809,"metro_line_density":2.7974,"station_count":3,"line_count":2,"population_density":30056.5288,"poi_density":0.0,"poi_diversity":0.0,"gdp_density":4450.8733,"P":30056.5288,"I":0.0,"G":4450.8733},{"stationName":"上海西藏南路(地铁站)","station_id":"上海西藏南路(地铁站)_31.20397_121.48509","lineId":"上海地铁4号线","lat":31.20396821,"lon":121.48508793,"area_km2":2.9382,"D":0.4463,"C":0.886,"T":0.2248,"U1":0.3291,"U2":0.1206,"couplingDegree":0.4463,"level":"勉强协调","road_density":24.8853,"walk_accessibility":0.5891,"metro_line_density":3.8494,"station_count":3,"line_count":2,"population_density":25959.9417,"poi_density":0.0,"poi_diversity":0.0,"gdp_density":0.0,"P":25959.9417,"I":0.0,"G":0.0},{"stationName":"上海鲁班路(地铁站)","station_id":"上海鲁班路(地铁站)_31.20118_121.47063","lineId":"上海地铁4号线","lat":31.20118265,"lon":121.47063185,"area_km2":2.6139,"D":0.591,"C":0.9879,"T":0.3535,"U1":0.4083,"U2":0.2987,"couplingDegree":0.591,"level":"勉强协调","road_density":28.5494,"walk_accessibility":0.5241,"metro_line_density":2.8551,"station_count":3,"line_count":3,"population_density":42474.5814,"poi_density":0.0,"poi_diversity":0.0,"gdp_density":3473.9253,"P":42474.5814,"I":0.0,"G":3473.9253},{"stationName":"上海大木桥路(地铁站)","station_id":"上海大木桥路(地铁站)_31.19599_121.45873","lineId":"上海地铁4号线","lat":31.195989140000002,"lon":121.45872563500001,"area_km2":2.6763,"D":0.5894,"C":0.9953,"T":0.349,"U1":0.315,"U2":0.383,"couplingDegree":0.5894,"level":"勉强协调","road_density":24.297,"walk_accessibility":0.5366,"metro_line_density":2.9709,"station_count":3,"line_count":2,"population_density":46279.0684,"poi_density":0.0,"poi_diversity":0.0,"gdp_density":5754.1156,"P":46279.0684,"I":0.0,"G":5754.1156},{"stationName":"上海东安路(地铁站)","station_id":"上海东安路(地铁站)_31.19273_121.45032","lineId":"上海地铁4号线","lat":31.1927333,"lon":121.4503209,"area_km2":2.1722,"D":0.7154,"C":0.998,"T":0.5128,"U1":0.5452,"U2":0.4805,"couplingDegree":0.7154,"level":"良好协调","road_density":22.0654,"walk_accessibility":0.4355,"metro_line_density":4.9708,"station_count":4,"line_count":4,"population_density":58885.4155,"poi_density":0.0,"poi_diversity":0.0,"gdp_density":7089.48,"P":58885.4155,"I":0.0,"G":7089.48},{"stationName":"上海上海体育场(地铁站)","station_id":"上海上海体育场(地铁站)_31.18750_121.43892","lineId":"上海地铁23号线 / 上海地铁4号线","lat":31.187497855,"lon":121.43892246499999,"area_km2":2.3774,"D":0.6881,"C":0.8757,"T":0.5406,"U1":0.8016,"U2":0.2796,"couplingDegree":0.6881,"level":"良好协调","road_density":24.3677,"walk_accessibility":0.4767,"metro_line_density":6.1917,"station_count":5,"line_count":6,"population_density":60193.338,"poi_density":0.0,"poi_diversity":0.0,"gdp_density":0.0,"P":60193.338,"I":0.0,"G":0.0},{"stationName":"上海闵行开发区(地铁站)","station_id":"上海闵行开发区(地铁站)_31.00261_121.36511","lineId":"上海地铁5号线","lat":31.00260857,"lon":121.36510635,"area_km2":1.6655,"D":0.2012,"C":0.6953,"T":0.0582,"U1":0.1001,"U2":0.0164,"couplingDegree":0.2012,"level":"中度失调","road_density":16.4577,"walk_accessibility":0.3339,"metro_line_density":0.8352,"station_count":2,"line_count":1,"population_density":3526.2657,"poi_density":0.0,"poi_diversity":0.0,"gdp_density":0.0,"P":3526.2657,"I":0.0,"G":0.0},{"stationName":"上海文井路(地铁站)","station_id":"上海文井路(地铁站)_31.00556_121.37615","lineId":"上海地铁5号线","lat":31.00556401,"lon":121.3761541,"area_km2":1.5058,"D":0.2251,"C":0.8204,"T":0.0618,"U1":0.0971,"U2":0.0264,"couplingDegree":0.2251,"level":"中度失调","road_density":15.1949,"walk_accessibility":0.3019,"metro_line_density":1.5823,"station_count":2,"line_count":1,"population_density":5691.9692,"poi_density":0.0,"poi_diversity":0.0,"gdp_density":0.0,"P":5691.9692,"I":0.0,"G":0.0},{"stationName":"上海华宁路(地铁站)","station_id":"上海华宁路(地铁站)_31.00942_121.39062","lineId":"上海地铁5号线","lat":31.00942305,"lon":121.39062465,"area_km2":0.9148,"D":0.3605,"C":0.4197,"T":0.3096,"U1":0.0286,"U2":0.5907,"couplingDegree":0.3605,"level":"中度失调","road_density":17.586,"walk_accessibility":0.1834,"metro_line_density":3.129,"station_count":1,"line_count":1,"population_density":6396.8945,"poi_density":0.0,"poi_diversity":0.0,"gdp_density":19213.7905,"P":6396.8945,"I":0.0,"G":19213.7905},{"stationName":"上海金平路(地铁站)","station_id":"上海金平路(地铁站)_31.01324_121.40555","lineId":"上海地铁5号线","lat":31.01323606,"lon":121.40555436,"area_km2":1.9659,"D":0.4969,"C":0.9938,"T":0.2485,"U1":0.2208,"U2":0.2761,"couplingDegree":0.4969,"level":"勉强协调","road_density":25.3315,"walk_accessibility":0.3941,"metro_line_density":1.5281,"station_count":2,"line_count":2,"population_density":3363.9282,"poi_density":0.0,"poi_diversity":0.0,"gdp_density":8922.0488,"P":3363.9282,"I":0.0,"G":8922.0488},{"stationName":"上海东川路(地铁站)","station_id":"上海东川路(地铁站)_31.02015_121.41526","lineId":"上海地铁23号线 / 上海地铁5号线","lat":31.020148675,"lon":121.415260665,"area_km2":1.3099,"D":0.6017,"C":0.9897,"T":0.3658,"U1":0.3135,"U2":0.4182,"couplingDegree":0.6017,"level":"良好协调","road_density":29.0959,"walk_accessibility":0.2626,"metro_line_density":6.2899,"station_count":3,"line_count":2,"population_density":5865.1978,"poi_density":0.0,"poi_diversity":0.0,"gdp_density":13389.6192,"P":5865.1978,"I":0.0,"G":13389.6192},{"stationName":"上海剑川路(地铁站)","station_id":"上海剑川路(地铁站)_31.02843_121.41195","lineId":"上海地铁5号线","lat":31.0284323,"lon":121.41195429,"area_km2":1.5551,"D":0.2178,"C":0.4249,"T":0.1116,"U1":0.2126,"U2":0.0106,"couplingDegree":0.2178,"level":"中度失调","road_density":20.9175,"walk_accessibility":0.3118,"metro_line_density":3.8904,"station_count":2,"line_count":2,"population_density":2276.4121,"poi_density":0.0,"poi_diversity":0.0,"gdp_density":0.0,"P":2276.4121,"I":0.0,"G":0.0},{"stationName":"上海北桥(地铁站)","station_id":"上海北桥(地铁站)_31.04705_121.40542","lineId":"上海地铁5号线","lat":31.04704591,"lon":121.40542082,"area_km2":1.0863,"D":0.0909,"C":0.3203,"T":0.0258,"U1":0.0503,"U2":0.0014,"couplingDegree":0.0909,"level":"极度失调","road_density":21.1749,"walk_accessibility":0.2178,"metro_line_density":4.2705,"station_count":1,"line_count":1,"population_density":292.744,"poi_density":0.0,"poi_diversity":0.0,"gdp_density":0.0,"P":292.744,"I":0.0,"G":0.0},{"stationName":"上海颛桥(地铁站)","station_id":"上海颛桥(地铁站)_31.06893_121.39723","lineId":"上海地铁5号线","lat":31.06893414,"lon":121.39723048,"area_km2":1.6246,"D":0.3467,"C":0.6509,"T":0.1847,"U1":0.0445,"U2":0.3248,"couplingDegree":0.3467,"level":"中度失调","road_density":17.1506,"walk_accessibility":0.3257,"metro_line_density":2.8903,"station_count":1,"line_count":1,"population_density":1154.126,"poi_density":0.0,"poi_diversity":0.0,"gdp_density":10942.641,"P":1154.126,"I":0.0,"G":10942.641},{"stationName":"上海银都路(地铁站)","station_id":"上海银都路(地铁站)_31.09125_121.38563","lineId":"上海地铁5号线 / 上海地铁嘉闵线","lat":31.09124586,"lon":121.38562715,"area_km2":1.2933,"D":0.2927,"C":0.7218,"T":0.1187,"U1":0.2008,"U2":0.0365,"couplingDegree":0.2927,"level":"中度失调","road_density":18.8424,"walk_accessibility":0.2593,"metro_line_density":4.0251,"station_count":2,"line_count":2,"population_density":7866.6793,"poi_density":0.0,"poi_diversity":0.0,"gdp_density":0.0,"P":7866.6793,"I":0.0,"G":0.0},{"stationName":"上海春申路(地铁站)","station_id":"上海春申路(地铁站)_31.10016_121.38118","lineId":"上海地铁5号线","lat":31.10015955,"lon":121.381184825,"area_km2":1.4201,"D":0.2271,"C":0.4649,"T":0.1109,"U1":0.2091,"U2":0.0127,"couplingDegree":0.2271,"level":"中度失调","road_density":16.7411,"walk_accessibility":0.2847,"metro_line_density":5.7396,"station_count":2,"line_count":2,"population_density":2736.4518,"poi_density":0.0,"poi_diversity":0.0,"gdp_density":0.0,"P":2736.4518,"I":0.0,"G":0.0},{"stationName":"上海江川路(地铁站)","station_id":"上海江川路(地铁站)_31.00739_121.41885","lineId":"上海地铁5号线","lat":31.00739453,"lon":121.41885497,"area_km2":1.5696,"D":0.1433,"C":0.715,"T":0.0287,"U1":0.0488,"U2":0.0086,"couplingDegree":0.1433,"level":"极度失调","road_density":20.3012,"walk_accessibility":0.3147,"metro_line_density":2.4048,"station_count":1,"line_count":1,"population_density":1859.0175,"poi_density":0.0,"poi_diversity":0.0,"gdp_density":0.0,"P":1859.0175,"I":0.0,"G":0.0},{"stationName":"上海西渡(地铁站)","station_id":"上海西渡(地铁站)_30.99134_121.42783","lineId":"上海地铁5号线","lat":30.991337,"lon":121.42783429,"area_km2":1.3446,"D":0.1473,"C":0.8921,"T":0.0243,"U1":0.0353,"U2":0.0133,"couplingDegree":0.1473,"level":"极度失调","road_density":18.2224,"walk_accessibility":0.2696,"metro_line_density":2.1234,"station_count":1,"line_count":1,"population_density":2869.3197,"poi_density":0.0,"poi_diversity":0.0,"gdp_density":0.0,"P":2869.3197,"I":0.0,"G":0.0},{"stationName":"上海萧塘(地铁站)","station_id":"上海萧塘(地铁站)_30.96790_121.43727","lineId":"上海地铁5号线","lat":30.96790283,"lon":121.43726984,"area_km2":1.4716,"D":0.2629,"C":0.8588,"T":0.0805,"U1":0.0392,"U2":0.1217,"couplingDegree":0.2629,"level":"中度失调","road_density":18.8616,"walk_accessibility":0.295,"metro_line_density":1.9383,"station_count":1,"line_count":1,"population_density":1053.9785,"poi_density":0.0,"poi_diversity":0.0,"gdp_density":4000.6901,"P":1053.9785,"I":0.0,"G":4000.6901},{"stationName":"上海奉浦大道(地铁站)","station_id":"上海奉浦大道(地铁站)_30.94410_121.44441","lineId":"上海地铁5号线","lat":30.94409721,"lon":121.44441493,"area_km2":1.1087,"D":0.0,"C":0.0,"T":0.0127,"U1":0.0253,"U2":0.0,"couplingDegree":0.0,"level":"极度失调","road_density":16.1657,"walk_accessibility":0.2223,"metro_line_density":2.4305,"station_count":1,"line_count":1,"population_density":0.0,"poi_density":0.0,"poi_diversity":0.0,"gdp_density":0.0,"P":0.0,"I":0.0,"G":0.0},{"stationName":"上海环城东路(地铁站)","station_id":"上海环城东路(地铁站)_30.93325_121.45867","lineId":"上海地铁5号线","lat":30.93324829,"lon":121.45867408,"area_km2":1.1811,"D":0.3205,"C":0.7361,"T":0.1395,"U1":0.0451,"U2":0.2339,"couplingDegree":0.3205,"level":"中度失调","road_density":14.2141,"walk_accessibility":0.2368,"metro_line_density":6.1351,"station_count":1,"line_count":1,"population_density":3146.1151,"poi_density":0.0,"poi_diversity":0.0,"gdp_density":7512.342,"P":3146.1151,"I":0.0,"G":7512.342},{"stationName":"上海望园路(地铁站)","station_id":"上海望园路(地铁站)_30.93444_121.47839","lineId":"上海上海南枫线(枫泾站--滴水湖北) / 上海地铁15号线 / 上海地铁5号线","lat":30.93443741666667,"lon":121.47838775999999,"area_km2":1.9953,"D":0.2013,"C":0.2482,"T":0.1633,"U1":0.3216,"U2":0.0051,"couplingDegree":0.2013,"level":"中度失调","road_density":20.6521,"walk_accessibility":0.4001,"metro_line_density":6.1711,"station_count":2,"line_count":3,"population_density":1100.0681,"poi_density":0.0,"poi_diversity":0.0,"gdp_density":0.0,"P":1100.0681,"I":0.0,"G":0.0},{"stationName":"上海金海湖(地铁站)","station_id":"上海金海湖(地铁站)_30.93097_121.48807","lineId":"上海地铁5号线","lat":30.93096841,"lon":121.48807425,"area_km2":1.683,"D":0.1698,"C":0.1941,"T":0.1486,"U1":0.2944,"U2":0.0028,"couplingDegree":0.1698,"level":"极度失调","road_density":22.3848,"walk_accessibility":0.3374,"metro_line_density":2.3836,"station_count":2,"line_count":3,"population_density":608.4433,"poi_density":0.0,"poi_diversity":0.0,"gdp_density":0.0,"P":608.4433,"I":0.0,"G":0.0},{"stationName":"上海奉贤新城(地铁站)","station_id":"上海奉贤新城(地铁站)_30.91610_121.49187","lineId":"上海地铁5号线","lat":30.91609875,"lon":121.49187161,"area_km2":1.7155,"D":0.2564,"C":0.8737,"T":0.0753,"U1":0.0387,"U2":0.1119,"couplingDegree":0.2564,"level":"中度失调","road_density":18.8465,"walk_accessibility":0.3439,"metro_line_density":0.8355,"station_count":1,"line_count":1,"population_density":1239.3101,"poi_density":0.0,"poi_diversity":0.0,"gdp_density":3634.9596,"P":1239.3101,"I":0.0,"G":3634.9596},{"stationName":"上海东方体育中心(地铁站)","station_id":"上海东方体育中心(地铁站)_31.15658_121.47608","lineId":"上海地铁19号线 / 上海地铁6号线 / 上海地铁8号线","lat":31.156584353333333,"lon":121.47607742333332,"area_km2":2.1706,"D":0.4867,"C":0.9891,"T":0.2394,"U1":0.2747,"U2":0.2042,"couplingDegree":0.4867,"level":"勉强协调","road_density":24.7943,"walk_accessibility":0.4352,"metro_line_density":7.1867,"station_count":1,"line_count":3,"population_density":7917.5991,"poi_density":0.0,"poi_diversity":0.0,"gdp_density":5733.82,"P":7917.5991,"I":0.0,"G":5733.82},{"stationName":"上海灵岩南路(地铁站)","station_id":"上海灵岩南路(地铁站)_31.15071_121.49085","lineId":"上海地铁6号线","lat":31.15071059,"lon":121.49085397,"area_km2":2.3506,"D":0.5449,"C":0.9504,"T":0.3124,"U1":0.4096,"U2":0.2153,"couplingDegree":0.5449,"level":"勉强协调","road_density":28.3257,"walk_accessibility":0.4713,"metro_line_density":4.2466,"station_count":3,"line_count":3,"population_density":7086.1598,"poi_density":0.0,"poi_diversity":0.0,"gdp_density":6247.0373,"P":7086.1598,"I":0.0,"G":6247.0373},{"stationName":"上海上南路(地铁站)","station_id":"上海上南路(地铁站)_31.15090_121.50205","lineId":"上海地铁6号线","lat":31.15089773,"lon":121.50204605,"area_km2":1.9552,"D":0.282,"C":0.6048,"T":0.1315,"U1":0.2362,"U2":0.0268,"couplingDegree":0.282,"level":"中度失调","road_density":27.9791,"walk_accessibility":0.392,"metro_line_density":5.124,"station_count":3,"line_count":1,"population_density":5764.15,"poi_density":0.0,"poi_diversity":0.0,"gdp_density":0.0,"P":5764.15,"I":0.0,"G":0.0},{"stationName":"上海华夏西路(地铁站)","station_id":"上海华夏西路(地铁站)_31.15198_121.51017","lineId":"上海地铁6号线","lat":31.15198098,"lon":121.51016731,"area_km2":1.5525,"D":0.494,"C":0.9859,"T":0.2475,"U1":0.2061,"U2":0.289,"couplingDegree":0.494,"level":"勉强协调","road_density":24.4967,"walk_accessibility":0.3113,"metro_line_density":3.5681,"station_count":3,"line_count":1,"population_density":4948.7336,"poi_density":0.0,"poi_diversity":0.0,"gdp_density":9109.8765,"P":4948.7336,"I":0.0,"G":9109.8765},{"stationName":"上海高青路(地铁站)","station_id":"上海高青路(地铁站)_31.16201_121.51142","lineId":"上海地铁6号线","lat":31.16200657,"lon":121.51141843,"area_km2":1.5325,"D":0.288,"C":0.9357,"T":0.0887,"U1":0.1199,"U2":0.0574,"couplingDegree":0.288,"level":"中度失调","road_density":20.0671,"walk_accessibility":0.3073,"metro_line_density":2.9453,"station_count":2,"line_count":1,"population_density":12352.0964,"poi_density":0.0,"poi_diversity":0.0,"gdp_density":0.0,"P":12352.0964,"I":0.0,"G":0.0},{"stationName":"上海东明路(地铁站)","station_id":"上海东明路(地铁站)_31.17480_121.50693","lineId":"上海地铁13号线 / 上海地铁6号线","lat":31.17479533,"lon":121.50693477666668,"area_km2":1.8727,"D":0.2741,"C":0.8183,"T":0.0918,"U1":0.1446,"U2":0.0391,"couplingDegree":0.2741,"level":"中度失调","road_density":17.1011,"walk_accessibility":0.3755,"metro_line_density":4.4794,"station_count":1,"line_count":2,"population_density":8407.6112,"poi_density":0.0,"poi_diversity":0.0,"gdp_density":0.0,"P":8407.6112,"I":0.0,"G":0.0},{"stationName":"上海高科西路(地铁站)","station_id":"上海高科西路(地铁站)_31.18783_121.50545","lineId":"上海地铁6号线","lat":31.18783031,"lon":121.50545234,"area_km2":2.3571,"D":0.3149,"C":0.8826,"T":0.1124,"U1":0.1652,"U2":0.0595,"couplingDegree":0.3149,"level":"中度失调","road_density":21.5364,"walk_accessibility":0.4726,"metro_line_density":6.0542,"station_count":2,"line_count":1,"population_density":12818.5229,"poi_density":0.0,"poi_diversity":0.0,"gdp_density":0.0,"P":12818.5229,"I":0.0,"G":0.0},{"stationName":"上海临沂新村(地铁站)","station_id":"上海临沂新村(地铁站)_31.19529_121.51233","lineId":"上海地铁6号线","lat":31.19528786,"lon":121.51232588,"area_km2":1.8068,"D":0.4853,"C":0.9096,"T":0.2589,"U1":0.1513,"U2":0.3665,"couplingDegree":0.4853,"level":"勉强协调","road_density":23.0859,"walk_accessibility":0.3623,"metro_line_density":5.4494,"station_count":2,"line_count":1,"population_density":7265.7143,"poi_density":0.0,"poi_diversity":0.0,"gdp_density":11396.3135,"P":7265.7143,"I":0.0,"G":11396.3135},{"stationName":"上海上海儿童医学中心(地铁站)","station_id":"上海上海儿童医学中心(地铁站)_31.20538_121.51914","lineId":"上海地铁6号线","lat":31.20537817,"lon":121.51913574,"area_km2":1.9186,"D":0.4242,"C":0.738,"T":0.2439,"U1":0.4085,"U2":0.0793,"couplingDegree":0.4242,"level":"勉强协调","road_density":29.7189,"walk_accessibility":0.3847,"metro_line_density":5.2543,"station_count":3,"line_count":3,"population_density":17072.9548,"poi_density":0.0,"poi_diversity":0.0,"gdp_density":0.0,"P":17072.9548,"I":0.0,"G":0.0},{"stationName":"上海浦电路(地铁站)","station_id":"上海浦电路(地铁站)_31.22226_121.52502","lineId":"上海地铁6号线","lat":31.22226205,"lon":121.52502408,"area_km2":3.5274,"D":0.3899,"C":0.5329,"T":0.2852,"U1":0.5266,"U2":0.0439,"couplingDegree":0.3899,"level":"中度失调","road_density":30.6509,"walk_accessibility":0.7072,"metro_line_density":5.8811,"station_count":4,"line_count":3,"population_density":9444.1845,"poi_density":0.0,"poi_diversity":0.0,"gdp_density":0.0,"P":9444.1845,"I":0.0,"G":0.0},{"stationName":"上海源深体育中心(地铁站)","station_id":"上海源深体育中心(地铁站)_31.23512_121.53033","lineId":"上海地铁6号线","lat":31.2351201,"lon":121.53033035,"area_km2":3.228,"D":0.6004,"C":0.888,"T":0.406,"U1":0.5928,"U2":0.2193,"couplingDegree":0.6004,"level":"良好协调","road_density":28.6685,"walk_accessibility":0.6472,"metro_line_density":5.2135,"station_count":4,"line_count":4,"population_density":7407.6341,"poi_density":0.0,"poi_diversity":0.0,"gdp_density":6332.0992,"P":7407.6341,"I":0.0,"G":6332.0992},{"stationName":"上海民生路(地铁站)","station_id":"上海民生路(地铁站)_31.23738_121.53996","lineId":"上海地铁18号线 / 上海地铁6号线","lat":31.237378485,"lon":121.53996086999999,"area_km2":2.6983,"D":0.5909,"C":0.945,"T":0.3695,"U1":0.4904,"U2":0.2486,"couplingDegree":0.5909,"level":"勉强协调","road_density":27.0982,"walk_accessibility":0.541,"metro_line_density":5.1599,"station_count":4,"line_count":3,"population_density":5911.4034,"poi_density":0.0,"poi_diversity":0.0,"gdp_density":7575.0722,"P":5911.4034,"I":0.0,"G":7575.0722},{"stationName":"上海北洋泾路(地铁站)","station_id":"上海北洋泾路(地铁站)_31.24130_121.54805","lineId":"上海地铁6号线","lat":31.24129757,"lon":121.54804977,"area_km2":2.5411,"D":0.5857,"C":0.9887,"T":0.347,"U1":0.3991,"U2":0.2949,"couplingDegree":0.5857,"level":"勉强协调","road_density":24.0314,"walk_accessibility":0.5095,"metro_line_density":3.6914,"station_count":3,"line_count":3,"population_density":13051.1961,"poi_density":0.0,"poi_diversity":0.0,"gdp_density":8024.3308,"P":13051.1961,"I":0.0,"G":8024.3308},{"stationName":"上海德平路(地铁站)","station_id":"上海德平路(地铁站)_31.24757_121.56000","lineId":"上海地铁6号线","lat":31.24757182,"lon":121.55999933,"area_km2":2.0621,"D":0.4127,"C":0.9445,"T":0.1803,"U1":0.2396,"U2":0.1211,"couplingDegree":0.4127,"level":"勉强协调","road_density":25.1248,"walk_accessibility":0.4134,"metro_line_density":4.1938,"station_count":2,"line_count":2,"population_density":26067.5745,"poi_density":0.0,"poi_diversity":0.0,"gdp_density":0.0,"P":26067.5745,"I":0.0,"G":0.0},{"stationName":"上海云山路(地铁站)","station_id":"上海云山路(地铁站)_31.25287_121.56774","lineId":"上海地铁14号线 / 上海地铁6号线","lat":31.25286957,"lon":121.56773864499999,"area_km2":2.2351,"D":0.6196,"C":0.9774,"T":0.3928,"U1":0.4759,"U2":0.3098,"couplingDegree":0.6196,"level":"良好协调","road_density":26.627,"walk_accessibility":0.4481,"metro_line_density":4.9999,"station_count":4,"line_count":3,"population_density":9493.2371,"poi_density":0.0,"poi_diversity":0.0,"gdp_density":9099.6129,"P":9493.2371,"I":0.0,"G":9099.6129},{"stationName":"上海金桥路(地铁站)","station_id":"上海金桥路(地铁站)_31.25927_121.57760","lineId":"上海地铁6号线","lat":31.25926813,"lon":121.57760381,"area_km2":2.3315,"D":0.5722,"C":0.9999,"T":0.3274,"U1":0.322,"U2":0.3329,"couplingDegree":0.5722,"level":"勉强协调","road_density":30.9567,"walk_accessibility":0.4675,"metro_line_density":2.5563,"station_count":3,"line_count":2,"population_density":16836.2674,"poi_density":0.0,"poi_diversity":0.0,"gdp_density":8723.4041,"P":16836.2674,"I":0.0,"G":8723.4041},{"stationName":"上海博兴路(地铁站)","station_id":"上海博兴路(地铁站)_31.26571_121.58248","lineId":"上海地铁6号线","lat":31.26570519,"lon":121.582479955,"area_km2":2.5521,"D":0.3122,"C":0.7268,"T":0.1341,"U1":0.2262,"U2":0.042,"couplingDegree":0.3122,"level":"中度失调","road_density":25.2733,"walk_accessibility":0.5117,"metro_line_density":2.2492,"station_count":3,"line_count":1,"population_density":9037.6629,"poi_density":0.0,"poi_diversity":0.0,"gdp_density":0.0,"P":9037.6629,"I":0.0,"G":0.0},{"stationName":"上海五莲路(地铁站)","station_id":"上海五莲路(地铁站)_31.27421_121.58366","lineId":"上海地铁6号线","lat":31.27420761,"lon":121.58365608,"area_km2":2.5665,"D":0.5006,"C":0.9964,"T":0.2515,"U1":0.2301,"U2":0.273,"couplingDegree":0.5006,"level":"勉强协调","road_density":26.6698,"walk_accessibility":0.5146,"metro_line_density":2.1888,"station_count":3,"line_count":1,"population_density":8972.8743,"poi_density":0.0,"poi_diversity":0.0,"gdp_density":7923.0681,"P":8972.8743,"I":0.0,"G":7923.0681},{"stationName":"上海巨峰路(地铁站)","station_id":"上海巨峰路(地铁站)_31.28286_121.58416","lineId":"上海地铁6号线","lat":31.28286335,"lon":121.58415516,"area_km2":2.0424,"D":0.2776,"C":0.569,"T":0.1355,"U1":0.2468,"U2":0.0241,"couplingDegree":0.2776,"level":"中度失调","road_density":36.0094,"walk_accessibility":0.4095,"metro_line_density":2.8967,"station_count":3,"line_count":1,"population_density":5180.7467,"poi_density":0.0,"poi_diversity":0.0,"gdp_density":0.0,"P":5180.7467,"I":0.0,"G":0.0},{"stationName":"上海东靖路(地铁站)","station_id":"上海东靖路(地铁站)_31.29286_121.58453","lineId":"上海地铁6号线","lat":31.29285883,"lon":121.5845257,"area_km2":1.8289,"D":0.2057,"C":0.478,"T":0.0885,"U1":0.1662,"U2":0.0108,"couplingDegree":0.2057,"level":"中度失调","road_density":33.3699,"walk_accessibility":0.3667,"metro_line_density":3.1721,"station_count":2,"line_count":1,"population_density":2317.7961,"poi_density":0.0,"poi_diversity":0.0,"gdp_density":0.0,"P":2317.7961,"I":0.0,"G":0.0},{"stationName":"上海五洲大道(地铁站)","station_id":"上海五洲大道(地铁站)_31.30474_121.58500","lineId":"上海地铁6号线","lat":31.30473941,"lon":121.58500145,"area_km2":1.5003,"D":0.1576,"C":0.3429,"T":0.0725,"U1":0.1405,"U2":0.0044,"couplingDegree":0.1576,"level":"极度失调","road_density":25.7264,"walk_accessibility":0.3008,"metro_line_density":3.8411,"station_count":2,"line_count":1,"population_density":945.7913,"poi_density":0.0,"poi_diversity":0.0,"gdp_density":0.0,"P":945.7913,"I":0.0,"G":0.0},{"stationName":"上海洲海路(地铁站)","station_id":"上海洲海路(地铁站)_31.31440_121.58518","lineId":"上海地铁6号线","lat":31.314395570000002,"lon":121.585184605,"area_km2":1.6024,"D":0.2285,"C":0.6514,"T":0.0801,"U1":0.141,"U2":0.0193,"couplingDegree":0.2285,"level":"中度失调","road_density":20.5525,"walk_accessibility":0.3213,"metro_line_density":5.7799,"station_count":2,"line_count":1,"population_density":4162.6151,"poi_density":0.0,"poi_diversity":0.0,"gdp_density":0.0,"P":4162.6151,"I":0.0,"G":0.0},{"stationName":"上海外高桥保税区南(地铁站)","station_id":"上海外高桥保税区南(地铁站)_31.32374_121.59775","lineId":"上海地铁6号线","lat":31.32374186,"lon":121.59775472,"area_km2":1.5304,"D":0.1825,"C":0.7847,"T":0.0425,"U1":0.0688,"U2":0.0161,"couplingDegree":0.1825,"level":"极度失调","road_density":22.3189,"walk_accessibility":0.3068,"metro_line_density":4.8554,"station_count":1,"line_count":1,"population_density":3474.2321,"poi_density":0.0,"poi_diversity":0.0,"gdp_density":0.0,"P":3474.2321,"I":0.0,"G":0.0},{"stationName":"上海航津路(地铁站)","station_id":"上海航津路(地铁站)_31.33753_121.58976","lineId":"上海地铁6号线","lat":31.33752986,"lon":121.58976359,"area_km2":1.8542,"D":0.3623,"C":0.6646,"T":0.1975,"U1":0.0499,"U2":0.3451,"couplingDegree":0.3623,"level":"中度失调","road_density":16.9689,"walk_accessibility":0.3718,"metro_line_density":2.8817,"station_count":1,"line_count":1,"population_density":20751.8317,"poi_density":0.0,"poi_diversity":0.0,"gdp_density":8518.341,"P":20751.8317,"I":0.0,"G":8518.341},{"stationName":"上海外高桥保税区北(地铁站)","station_id":"上海外高桥保税区北(地铁站)_31.34996_121.58271","lineId":"上海地铁6号线","lat":31.34995506,"lon":121.582710265,"area_km2":2.1018,"D":0.2251,"C":0.9924,"T":0.0511,"U1":0.0574,"U2":0.0448,"couplingDegree":0.2251,"level":"中度失调","road_density":18.7316,"walk_accessibility":0.4214,"metro_line_density":2.2528,"station_count":1,"line_count":1,"population_density":9637.7668,"poi_density":0.0,"poi_diversity":0.0,"gdp_density":0.0,"P":9637.7668,"I":0.0,"G":0.0},{"stationName":"上海港城路(地铁站)","station_id":"上海港城路(地铁站)_31.35530_121.57079","lineId":"上海地铁10号线 / 上海地铁6号线","lat":31.355295995,"lon":121.5707851,"area_km2":1.9885,"D":0.4776,"C":0.9016,"T":0.253,"U1":0.1436,"U2":0.3625,"couplingDegree":0.4776,"level":"勉强协调","road_density":19.4051,"walk_accessibility":0.3987,"metro_line_density":2.8116,"station_count":1,"line_count":2,"population_density":14469.6654,"poi_density":0.0,"poi_diversity":0.0,"gdp_density":10112.9587,"P":14469.6654,"I":0.0,"G":10112.9587},{"stationName":"上海肇嘉浜路(地铁站)","station_id":"上海肇嘉浜路(地铁站)_31.20084_121.44576","lineId":"上海地铁7号线 / 上海地铁9号线","lat":31.200835186666666,"lon":121.44575531666668,"area_km2":2.6178,"D":0.6355,"C":0.949,"T":0.4255,"U1":0.5597,"U2":0.2914,"couplingDegree":0.6355,"level":"良好协调","road_density":19.953,"walk_accessibility":0.5249,"metro_line_density":6.3588,"station_count":4,"line_count":4,"population_density":62728.9604,"poi_density":0.0,"poi_diversity":0.0,"gdp_density":0.0,"P":62728.9604,"I":0.0,"G":0.0},{"stationName":"上海沈杜公路(地铁站)","station_id":"上海沈杜公路(地铁站)_31.06329_121.50803","lineId":"上海上海轨道交通浦江线(汇臻路--沈杜公路) / 上海上海轨道交通浦江线(沈杜公路--汇臻路) / 上海地铁8号线","lat":31.06329439,"lon":121.50802977666667,"area_km2":1.9034,"D":0.1727,"C":0.2604,"T":0.1146,"U1":0.2252,"U2":0.004,"couplingDegree":0.1727,"level":"极度失调","road_density":19.7658,"walk_accessibility":0.3816,"metro_line_density":2.6618,"station_count":1,"line_count":3,"population_density":851.0938,"poi_density":0.0,"poi_diversity":0.0,"gdp_density":0.0,"P":851.0938,"I":0.0,"G":0.0},{"stationName":"上海联航路(地铁站)","station_id":"上海联航路(地铁站)_31.07570_121.50621","lineId":"上海地铁8号线","lat":31.07569844,"lon":121.50621353,"area_km2":2.453,"D":0.19,"C":0.4719,"T":0.0765,"U1":0.1439,"U2":0.0091,"couplingDegree":0.19,"level":"极度失调","road_density":21.4697,"walk_accessibility":0.4918,"metro_line_density":2.3021,"station_count":2,"line_count":1,"population_density":1948.6293,"poi_density":0.0,"poi_diversity":0.0,"gdp_density":0.0,"P":1948.6293,"I":0.0,"G":0.0},{"stationName":"上海江月路(地铁站)","station_id":"上海江月路(地铁站)_31.08637_121.50422","lineId":"上海地铁8号线","lat":31.08637366,"lon":121.50421528000001,"area_km2":2.3797,"D":0.1432,"C":0.2841,"T":0.0722,"U1":0.1413,"U2":0.003,"couplingDegree":0.1432,"level":"极度失调","road_density":21.0974,"walk_accessibility":0.4771,"metro_line_density":2.3611,"station_count":2,"line_count":1,"population_density":639.9898,"poi_density":0.0,"poi_diversity":0.0,"gdp_density":0.0,"P":639.9898,"I":0.0,"G":0.0},{"stationName":"上海浦江镇(地铁站)","station_id":"上海浦江镇(地铁站)_31.09870_121.50187","lineId":"上海地铁8号线","lat":31.09869707,"lon":121.50187481,"area_km2":2.1311,"D":0.317,"C":0.8672,"T":0.1159,"U1":0.0582,"U2":0.1736,"couplingDegree":0.317,"level":"中度失调","road_density":19.7048,"walk_accessibility":0.4273,"metro_line_density":1.8296,"station_count":1,"line_count":1,"population_density":3195.6061,"poi_density":0.0,"poi_diversity":0.0,"gdp_density":5438.1027,"P":3195.6061,"I":0.0,"G":5438.1027},{"stationName":"上海芦恒路(地铁站)","station_id":"上海芦恒路(地铁站)_31.12113_121.49380","lineId":"上海地铁8号线","lat":31.12112846,"lon":121.49379766,"area_km2":1.9116,"D":0.3383,"C":0.8861,"T":0.1292,"U1":0.0693,"U2":0.1891,"couplingDegree":0.3383,"level":"中度失调","road_density":23.9106,"walk_accessibility":0.3833,"metro_line_density":2.6441,"station_count":1,"line_count":1,"population_density":665.4227,"poi_density":0.0,"poi_diversity":0.0,"gdp_density":6370.0586,"P":665.4227,"I":0.0,"G":6370.0586},{"stationName":"上海凌兆新村(地铁站)","station_id":"上海凌兆新村(地铁站)_31.14296_121.48393","lineId":"上海地铁19号线 / 上海地铁8号线","lat":31.142961285,"lon":121.48392774,"area_km2":2.1316,"D":0.3737,"C":0.7094,"T":0.1968,"U1":0.3356,"U2":0.0581,"couplingDegree":0.3737,"level":"中度失调","road_density":27.1382,"walk_accessibility":0.4274,"metro_line_density":4.9542,"station_count":2,"line_count":3,"population_density":12507.306,"poi_density":0.0,"poi_diversity":0.0,"gdp_density":0.0,"P":12507.306,"I":0.0,"G":0.0},{"stationName":"上海杨思(地铁站)","station_id":"上海杨思(地铁站)_31.16309_121.48899","lineId":"上海地铁8号线","lat":31.16308806,"lon":121.48899317,"area_km2":1.5984,"D":0.3037,"C":0.7745,"T":0.1191,"U1":0.1945,"U2":0.0438,"couplingDegree":0.3037,"level":"中度失调","road_density":15.7331,"walk_accessibility":0.3205,"metro_line_density":3.1212,"station_count":2,"line_count":2,"population_density":9421.2155,"poi_density":0.0,"poi_diversity":0.0,"gdp_density":0.0,"P":9421.2155,"I":0.0,"G":0.0},{"stationName":"上海成山路(地铁站)","station_id":"上海成山路(地铁站)_31.17302_121.49230","lineId":"上海地铁13号线 / 上海地铁8号线","lat":31.173015470000003,"lon":121.492296005,"area_km2":1.7549,"D":0.5301,"C":0.9637,"T":0.2916,"U1":0.2138,"U2":0.3695,"couplingDegree":0.5301,"level":"勉强协调","road_density":16.9118,"walk_accessibility":0.3518,"metro_line_density":5.016,"station_count":2,"line_count":2,"population_density":5877.9662,"poi_density":0.0,"poi_diversity":0.0,"gdp_density":11721.2034,"P":5877.9662,"I":0.0,"G":11721.2034},{"stationName":"上海中华艺术宫(地铁站)","station_id":"上海中华艺术宫(地铁站)_31.18726_121.48918","lineId":"上海地铁8号线","lat":31.1872639,"lon":121.48917574,"area_km2":2.3299,"D":0.4178,"C":0.8479,"T":0.2058,"U1":0.0967,"U2":0.3149,"couplingDegree":0.4178,"level":"勉强协调","road_density":22.2419,"walk_accessibility":0.4671,"metro_line_density":5.9999,"station_count":1,"line_count":1,"population_density":12103.5308,"poi_density":0.0,"poi_diversity":0.0,"gdp_density":8861.8058,"P":12103.5308,"I":0.0,"G":8861.8058},{"stationName":"上海陆家浜路(地铁站)","station_id":"上海陆家浜路(地铁站)_31.21378_121.48164","lineId":"上海地铁8号线","lat":31.213775425,"lon":121.48163531,"area_km2":3.6408,"D":0.6852,"C":0.9425,"T":0.4981,"U1":0.6646,"U2":0.3316,"couplingDegree":0.6852,"level":"良好协调","road_density":23.2047,"walk_accessibility":0.73,"metro_line_density":4.0091,"station_count":4,"line_count":5,"population_density":44870.392,"poi_density":0.0,"poi_diversity":0.0,"gdp_density":4218.5864,"P":44870.392,"I":0.0,"G":4218.5864},{"stationName":"上海老西门(地铁站)","station_id":"上海老西门(地铁站)_31.22087_121.47890","lineId":"上海地铁10号线 / 上海地铁8号线","lat":31.220867165,"lon":121.47890408,"area_km2":3.7962,"D":0.681,"C":0.8493,"T":0.5461,"U1":0.8343,"U2":0.2578,"couplingDegree":0.681,"level":"良好协调","road_density":25.9341,"walk_accessibility":0.7611,"metro_line_density":4.7906,"station_count":5,"line_count":6,"population_density":30065.5203,"poi_density":0.0,"poi_diversity":0.0,"gdp_density":4045.968,"P":30065.5203,"I":0.0,"G":4045.968},{"stationName":"上海大世界(地铁站)","station_id":"上海大世界(地铁站)_31.22911_121.47523","lineId":"上海地铁14号线 / 上海地铁8号线","lat":31.229105465,"lon":121.4752349,"area_km2":4.0319,"D":0.6836,"C":0.88,"T":0.531,"U1":0.7832,"U2":0.2788,"couplingDegree":0.6836,"level":"良好协调","road_density":33.8766,"walk_accessibility":0.8084,"metro_line_density":5.4774,"station_count":5,"line_count":5,"population_density":36101.7178,"poi_density":0.0,"poi_diversity":0.0,"gdp_density":3806.5893,"P":36101.7178,"I":0.0,"G":3806.5893},{"stationName":"上海曲阜路(地铁站)","station_id":"上海曲阜路(地铁站)_31.24424_121.46701","lineId":"上海地铁8号线","lat":31.24423809,"lon":121.46701185,"area_km2":3.5113,"D":0.609,"C":0.7544,"T":0.4916,"U1":0.8144,"U2":0.1689,"couplingDegree":0.609,"level":"良好协调","road_density":28.5897,"walk_accessibility":0.704,"metro_line_density":3.9146,"station_count":6,"line_count":5,"population_density":36361.2075,"poi_density":0.0,"poi_diversity":0.0,"gdp_density":0.0,"P":36361.2075,"I":0.0,"G":0.0},{"stationName":"上海中兴路(地铁站)","station_id":"上海中兴路(地铁站)_31.25515_121.46449","lineId":"上海地铁8号线","lat":31.25514782,"lon":121.46448545,"area_km2":2.6416,"D":0.7282,"C":0.9995,"T":0.5305,"U1":0.5472,"U2":0.5138,"couplingDegree":0.7282,"level":"良好协调","road_density":24.6901,"walk_accessibility":0.5296,"metro_line_density":4.4617,"station_count":5,"line_count":3,"population_density":74055.4727,"poi_density":0.0,"poi_diversity":0.0,"gdp_density":5816.7222,"P":74055.4727,"I":0.0,"G":5816.7222},{"stationName":"上海西藏北路(地铁站)","station_id":"上海西藏北路(地铁站)_31.26537_121.46428","lineId":"上海地铁8号线","lat":31.26536738,"lon":121.46427653,"area_km2":2.7645,"D":0.5933,"C":0.9646,"T":0.3649,"U1":0.4611,"U2":0.2687,"couplingDegree":0.5933,"level":"勉强协调","road_density":23.0797,"walk_accessibility":0.5543,"metro_line_density":2.0127,"station_count":4,"line_count":3,"population_density":57844.3797,"poi_density":0.0,"poi_diversity":0.0,"gdp_density":0.0,"P":57844.3797,"I":0.0,"G":0.0},{"stationName":"上海曲阳路(地铁站)","station_id":"上海曲阳路(地铁站)_31.27850_121.48667","lineId":"上海地铁8号线","lat":31.27849665,"lon":121.48667163,"area_km2":3.2734,"D":0.5852,"C":0.9988,"T":0.3429,"U1":0.3595,"U2":0.3262,"couplingDegree":0.5852,"level":"勉强协调","road_density":32.62,"walk_accessibility":0.6563,"metro_line_density":3.8666,"station_count":3,"line_count":2,"population_density":40861.5932,"poi_density":0.0,"poi_diversity":0.0,"gdp_density":4672.2861,"P":40861.5932,"I":0.0,"G":4672.2861},{"stationName":"上海四平路(地铁站)","station_id":"上海四平路(地铁站)_31.27688_121.49706","lineId":"上海地铁8号线","lat":31.27688415,"lon":121.49705802,"area_km2":3.3571,"D":0.5586,"C":0.9867,"T":0.3163,"U1":0.2648,"U2":0.3678,"couplingDegree":0.5586,"level":"勉强协调","road_density":29.1243,"walk_accessibility":0.6731,"metro_line_density":3.319,"station_count":3,"line_count":1,"population_density":50532.5951,"poi_density":0.0,"poi_diversity":0.0,"gdp_density":4555.8102,"P":50532.5951,"I":0.0,"G":4555.8102},{"stationName":"上海鞍山新村(地铁站)","station_id":"上海鞍山新村(地铁站)_31.27527_121.50528","lineId":"上海地铁8号线","lat":31.27527032,"lon":121.50528451,"area_km2":2.8775,"D":0.5343,"C":0.9914,"T":0.288,"U1":0.3257,"U2":0.2503,"couplingDegree":0.5343,"level":"勉强协调","road_density":24.9554,"walk_accessibility":0.5769,"metro_line_density":3.5302,"station_count":3,"line_count":2,"population_density":20549.1741,"poi_density":0.0,"poi_diversity":0.0,"gdp_density":5302.921,"P":20549.1741,"I":0.0,"G":5302.921},{"stationName":"上海江浦路(地铁站)","station_id":"上海江浦路(地铁站)_31.27640_121.51429","lineId":"上海地铁18号线 / 上海地铁8号线","lat":31.276395450000003,"lon":121.51428757,"area_km2":2.5623,"D":0.5761,"C":0.9994,"T":0.332,"U1":0.3205,"U2":0.3436,"couplingDegree":0.5761,"level":"勉强协调","road_density":24.1941,"walk_accessibility":0.5137,"metro_line_density":4.3641,"station_count":3,"line_count":2,"population_density":36528.3005,"poi_density":0.0,"poi_diversity":0.0,"gdp_density":5955.3623,"P":36528.3005,"I":0.0,"G":5955.3623},{"stationName":"上海黄兴路(地铁站)","station_id":"上海黄兴路(地铁站)_31.28089_121.52406","lineId":"上海地铁8号线","lat":31.280893405,"lon":121.52406494,"area_km2":2.3872,"D":0.4726,"C":0.9563,"T":0.2336,"U1":0.3019,"U2":0.1653,"couplingDegree":0.4726,"level":"勉强协调","road_density":22.7077,"walk_accessibility":0.4786,"metro_line_density":2.7884,"station_count":3,"line_count":2,"population_density":35576.9554,"poi_density":0.0,"poi_diversity":0.0,"gdp_density":0.0,"P":35576.9554,"I":0.0,"G":0.0},{"stationName":"上海延吉中路(地铁站)","station_id":"上海延吉中路(地铁站)_31.29064_121.53062","lineId":"上海地铁8号线","lat":31.29063633,"lon":121.5306242,"area_km2":2.309,"D":0.5097,"C":0.9688,"T":0.2682,"U1":0.2017,"U2":0.3347,"couplingDegree":0.5097,"level":"勉强协调","road_density":18.4816,"walk_accessibility":0.4629,"metro_line_density":2.3789,"station_count":3,"line_count":1,"population_density":30776.0826,"poi_density":0.0,"poi_diversity":0.0,"gdp_density":6566.2874,"P":30776.0826,"I":0.0,"G":6566.2874},{"stationName":"上海黄兴公园(地铁站)","station_id":"上海黄兴公园(地铁站)_31.29748_121.52906","lineId":"上海地铁8号线","lat":31.297475249999998,"lon":121.52906191,"area_km2":2.0047,"D":0.4091,"C":0.9821,"T":0.1704,"U1":0.2026,"U2":0.1383,"couplingDegree":0.4091,"level":"勉强协调","road_density":20.6544,"walk_accessibility":0.4019,"metro_line_density":2.8202,"station_count":3,"line_count":1,"population_density":29768.2588,"poi_density":0.0,"poi_diversity":0.0,"gdp_density":0.0,"P":29768.2588,"I":0.0,"G":0.0},{"stationName":"上海翔殷路(地铁站)","station_id":"上海翔殷路(地铁站)_31.30708_121.52765","lineId":"上海地铁8号线","lat":31.30708029,"lon":121.52764644,"area_km2":2.2193,"D":0.4619,"C":0.9477,"T":0.2252,"U1":0.297,"U2":0.1533,"couplingDegree":0.4619,"level":"勉强协调","road_density":21.9071,"walk_accessibility":0.445,"metro_line_density":3.0631,"station_count":3,"line_count":2,"population_density":33003.5062,"poi_density":0.0,"poi_diversity":0.0,"gdp_density":0.0,"P":33003.5062,"I":0.0,"G":0.0},{"stationName":"上海嫩江路(地铁站)","station_id":"上海嫩江路(地铁站)_31.31682_121.52763","lineId":"上海地铁20号线 / 上海地铁8号线","lat":31.316820865,"lon":121.52763156500001,"area_km2":2.7628,"D":0.2893,"C":0.4788,"T":0.1748,"U1":0.3283,"U2":0.0213,"couplingDegree":0.2893,"level":"中度失调","road_density":26.6957,"walk_accessibility":0.5539,"metro_line_density":3.6514,"station_count":3,"line_count":2,"population_density":4593.1121,"poi_density":0.0,"poi_diversity":0.0,"gdp_density":0.0,"P":4593.1121,"I":0.0,"G":0.0},{"stationName":"上海市光路(地铁站)","station_id":"上海市光路(地铁站)_31.32480_121.52760","lineId":"上海地铁8号线","lat":31.32479686,"lon":121.52760498,"area_km2":3.0928,"D":0.3171,"C":0.6574,"T":0.153,"U1":0.2683,"U2":0.0377,"couplingDegree":0.3171,"level":"中度失调","road_density":31.6403,"walk_accessibility":0.6201,"metro_line_density":1.5745,"station_count":2,"line_count":2,"population_density":8114.7174,"poi_density":0.0,"poi_diversity":0.0,"gdp_density":0.0,"P":8114.7174,"I":0.0,"G":0.0},{"stationName":"上海上海松江站(地铁站)","station_id":"上海上海松江站(地铁站)_30.98697_121.22647","lineId":"上海地铁9号线","lat":30.98696657,"lon":121.22647377,"area_km2":1.2,"D":0.1496,"C":0.8709,"T":0.0257,"U1":0.0383,"U2":0.0131,"couplingDegree":0.1496,"level":"极度失调","road_density":20.3385,"walk_accessibility":0.2406,"metro_line_density":2.2699,"station_count":1,"line_count":1,"population_density":2813.2388,"poi_density":0.0,"poi_diversity":0.0,"gdp_density":0.0,"P":2813.2388,"I":0.0,"G":0.0},{"stationName":"上海醉白池(地铁站)","station_id":"上海醉白池(地铁站)_31.00326_121.22495","lineId":"上海地铁9号线","lat":31.00326411,"lon":121.22494796,"area_km2":1.4468,"D":0.0,"C":0.0,"T":0.0143,"U1":0.0287,"U2":0.0,"couplingDegree":0.0,"level":"极度失调","road_density":14.2777,"walk_accessibility":0.2901,"metro_line_density":2.3933,"station_count":1,"line_count":1,"population_density":0.0,"poi_density":0.0,"poi_diversity":0.0,"gdp_density":0.0,"P":0.0,"I":0.0,"G":0.0},{"stationName":"上海松江体育中心(地铁站)","station_id":"上海松江体育中心(地铁站)_31.01814_121.22613","lineId":"上海地铁9号线","lat":31.01813752,"lon":121.22613289,"area_km2":1.6322,"D":0.1996,"C":0.9741,"T":0.0409,"U1":0.0501,"U2":0.0316,"couplingDegree":0.1996,"level":"极度失调","road_density":20.4853,"walk_accessibility":0.3272,"metro_line_density":2.2791,"station_count":1,"line_count":1,"population_density":6809.8806,"poi_density":0.0,"poi_diversity":0.0,"gdp_density":0.0,"P":6809.8806,"I":0.0,"G":0.0},{"stationName":"上海松江新城(地铁站)","station_id":"上海松江新城(地铁站)_31.03242_121.22632","lineId":"上海地铁9号线","lat":31.032417995,"lon":121.226324765,"area_km2":2.2249,"D":0.3348,"C":0.843,"T":0.1329,"U1":0.0614,"U2":0.2044,"couplingDegree":0.3348,"level":"中度失调","road_density":18.9058,"walk_accessibility":0.4461,"metro_line_density":2.3077,"station_count":1,"line_count":1,"population_density":1429.2786,"poi_density":0.0,"poi_diversity":0.0,"gdp_density":6775.2442,"P":1429.2786,"I":0.0,"G":6775.2442},{"stationName":"上海松江大学城(地铁站)","station_id":"上海松江大学城(地铁站)_31.05609_121.22816","lineId":"上海地铁9号线","lat":31.0560943,"lon":121.22816102,"area_km2":1.1224,"D":0.1445,"C":0.7477,"T":0.0279,"U1":0.0465,"U2":0.0094,"couplingDegree":0.1445,"level":"极度失调","road_density":18.4722,"walk_accessibility":0.225,"metro_line_density":4.715,"station_count":1,"line_count":1,"population_density":2019.8427,"poi_density":0.0,"poi_diversity":0.0,"gdp_density":0.0,"P":2019.8427,"I":0.0,"G":0.0},{"stationName":"上海洞泾(地铁站)","station_id":"上海洞泾(地铁站)_31.08755_121.22653","lineId":"上海地铁12号线 / 上海地铁9号线","lat":31.087548495,"lon":121.226528635,"area_km2":1.3544,"D":0.2391,"C":0.6685,"T":0.0855,"U1":0.1491,"U2":0.0219,"couplingDegree":0.2391,"level":"中度失调","road_density":17.9555,"walk_accessibility":0.2715,"metro_line_density":6.9769,"station_count":1,"line_count":2,"population_density":4718.1227,"poi_density":0.0,"poi_diversity":0.0,"gdp_density":0.0,"P":4718.1227,"I":0.0,"G":0.0},{"stationName":"上海佘山(地铁站)","station_id":"上海佘山(地铁站)_31.10618_121.22526","lineId":"上海地铁9号线","lat":31.10617731,"lon":121.22526439,"area_km2":1.0185,"D":0.0,"C":0.0,"T":0.0155,"U1":0.031,"U2":0.0,"couplingDegree":0.0,"level":"极度失调","road_density":17.73,"walk_accessibility":0.2042,"metro_line_density":3.0154,"station_count":1,"line_count":1,"population_density":0.0,"poi_density":0.0,"poi_diversity":0.0,"gdp_density":0.0,"P":0.0,"I":0.0,"G":0.0},{"stationName":"上海泗泾(地铁站)","station_id":"上海泗泾(地铁站)_31.12035_121.25583","lineId":"上海地铁9号线","lat":31.12034919,"lon":121.25582661,"area_km2":1.2809,"D":0.3134,"C":0.6578,"T":0.1493,"U1":0.0368,"U2":0.2617,"couplingDegree":0.3134,"level":"中度失调","road_density":14.6097,"walk_accessibility":0.2568,"metro_line_density":4.2346,"station_count":1,"line_count":1,"population_density":1450.4988,"poi_density":0.0,"poi_diversity":0.0,"gdp_density":8732.5483,"P":1450.4988,"I":0.0,"G":8732.5483},{"stationName":"上海九亭(地铁站)","station_id":"上海九亭(地铁站)_31.13924_121.31491","lineId":"上海地铁9号线","lat":31.13924213,"lon":121.31490693,"area_km2":2.3095,"D":0.1934,"C":0.7432,"T":0.0503,"U1":0.084,"U2":0.0167,"couplingDegree":0.1934,"level":"极度失调","road_density":25.8945,"walk_accessibility":0.463,"metro_line_density":2.441,"station_count":1,"line_count":1,"population_density":3584.3933,"poi_density":0.0,"poi_diversity":0.0,"gdp_density":0.0,"P":3584.3933,"I":0.0,"G":0.0},{"stationName":"上海中春路(地铁站)","station_id":"上海中春路(地铁站)_31.15136_121.33314","lineId":"上海地铁9号线","lat":31.15136424,"lon":121.33314206,"area_km2":1.8707,"D":0.5073,"C":0.9932,"T":0.2591,"U1":0.229,"U2":0.2892,"couplingDegree":0.5073,"level":"勉强协调","road_density":25.3538,"walk_accessibility":0.3751,"metro_line_density":3.2076,"station_count":2,"line_count":2,"population_density":1855.4877,"poi_density":0.0,"poi_diversity":0.0,"gdp_density":9611.9467,"P":1855.4877,"I":0.0,"G":9611.9467},{"stationName":"上海七宝(地铁站)","station_id":"上海七宝(地铁站)_31.15692_121.34418","lineId":"上海地铁9号线 / 上海地铁嘉闵线","lat":31.156921466666663,"lon":121.34417625333333,"area_km2":1.9671,"D":0.5072,"C":0.9954,"T":0.2585,"U1":0.2338,"U2":0.2832,"couplingDegree":0.5072,"level":"勉强协调","road_density":20.2477,"walk_accessibility":0.3944,"metro_line_density":5.8346,"station_count":2,"line_count":2,"population_density":3509.1582,"poi_density":0.0,"poi_diversity":0.0,"gdp_density":9140.563,"P":3509.1582,"I":0.0,"G":9140.563},{"stationName":"上海星中路(地铁站)","station_id":"上海星中路(地铁站)_31.16000_121.36428","lineId":"上海地铁9号线","lat":31.16000252,"lon":121.36428409,"area_km2":1.7559,"D":0.1761,"C":0.8744,"T":0.0355,"U1":0.0527,"U2":0.0182,"couplingDegree":0.1761,"level":"极度失调","road_density":19.0233,"walk_accessibility":0.352,"metro_line_density":2.8139,"station_count":1,"line_count":1,"population_density":3928.5381,"poi_density":0.0,"poi_diversity":0.0,"gdp_density":0.0,"P":3928.5381,"I":0.0,"G":0.0},{"stationName":"上海合川路(地铁站)","station_id":"上海合川路(地铁站)_31.16842_121.38013","lineId":"上海地铁9号线","lat":31.168415080000003,"lon":121.380134035,"area_km2":1.7037,"D":0.1895,"C":0.973,"T":0.0369,"U1":0.0454,"U2":0.0284,"couplingDegree":0.1895,"level":"极度失调","road_density":16.7016,"walk_accessibility":0.3416,"metro_line_density":2.9129,"station_count":1,"line_count":1,"population_density":6111.5152,"poi_density":0.0,"poi_diversity":0.0,"gdp_density":0.0,"P":6111.5152,"I":0.0,"G":0.0},{"stationName":"上海漕河泾开发区(地铁站)","station_id":"上海漕河泾开发区(地铁站)_31.17251_121.39312","lineId":"上海地铁9号线","lat":31.17250887,"lon":121.3931236,"area_km2":2.2468,"D":0.3552,"C":0.8354,"T":0.1511,"U1":0.068,"U2":0.2341,"couplingDegree":0.3552,"level":"中度失调","road_density":20.5243,"walk_accessibility":0.4505,"metro_line_density":2.5474,"station_count":1,"line_count":1,"population_density":6962.7373,"poi_density":0.0,"poi_diversity":0.0,"gdp_density":6910.5653,"P":6962.7373,"I":0.0,"G":6910.5653},{"stationName":"上海桂林路(地铁站)","station_id":"上海桂林路(地铁站)_31.17776_121.41207","lineId":"上海地铁15号线 / 上海地铁9号线","lat":31.177757465,"lon":121.412065185,"area_km2":1.4365,"D":0.4654,"C":0.8901,"T":0.2433,"U1":0.1324,"U2":0.3542,"couplingDegree":0.4654,"level":"勉强协调","road_density":15.8224,"walk_accessibility":0.288,"metro_line_density":4.9229,"station_count":1,"line_count":2,"population_density":8476.703,"poi_density":0.0,"poi_diversity":0.0,"gdp_density":10781.8155,"P":8476.703,"I":0.0,"G":10781.8155},{"stationName":"上海嘉善路(地铁站)","station_id":"上海嘉善路(地铁站)_31.20474_121.45614","lineId":"上海地铁9号线","lat":31.20474139,"lon":121.45614375,"area_km2":2.9395,"D":0.6415,"C":0.9933,"T":0.4143,"U1":0.4621,"U2":0.3665,"couplingDegree":0.6415,"level":"良好协调","road_density":20.5107,"walk_accessibility":0.5894,"metro_line_density":2.5865,"station_count":4,"line_count":3,"population_density":45994.8003,"poi_density":0.0,"poi_diversity":0.0,"gdp_density":5234.7119,"P":45994.8003,"I":0.0,"G":5234.7119},{"stationName":"上海打浦桥(地铁站)","station_id":"上海打浦桥(地铁站)_31.20825_121.46414","lineId":"上海地铁9号线","lat":31.20824992,"lon":121.46414482,"area_km2":2.6557,"D":0.6685,"C":0.9992,"T":0.4472,"U1":0.4649,"U2":0.4296,"couplingDegree":0.6685,"level":"良好协调","road_density":23.2659,"walk_accessibility":0.5325,"metro_line_density":2.9828,"station_count":4,"line_count":3,"population_density":92478.2633,"poi_density":0.0,"poi_diversity":0.0,"gdp_density":0.0,"P":92478.2633,"I":0.0,"G":0.0},{"stationName":"上海马当路(地铁站)","station_id":"上海马当路(地铁站)_31.21169_121.47222","lineId":"上海地铁13号线 / 上海地铁9号线","lat":31.21168604,"lon":121.47222043,"area_km2":2.9886,"D":0.7483,"C":0.9702,"T":0.5771,"U1":0.7171,"U2":0.4372,"couplingDegree":0.7483,"level":"良好协调","road_density":22.8414,"walk_accessibility":0.5992,"metro_line_density":4.2039,"station_count":5,"line_count":5,"population_density":61820.1436,"poi_density":0.0,"poi_diversity":0.0,"gdp_density":5139.2,"P":61820.1436,"I":0.0,"G":5139.2},{"stationName":"上海小南门(地铁站)","station_id":"上海小南门(地铁站)_31.21889_121.49396","lineId":"上海地铁9号线","lat":31.21888723,"lon":121.49396252,"area_km2":3.5563,"D":0.4911,"C":0.9867,"T":0.2445,"U1":0.2842,"U2":0.2047,"couplingDegree":0.4911,"level":"勉强协调","road_density":31.8174,"walk_accessibility":0.713,"metro_line_density":2.0957,"station_count":2,"line_count":2,"population_density":21286.4209,"poi_density":0.0,"poi_diversity":0.0,"gdp_density":3625.9422,"P":21286.4209,"I":0.0,"G":3625.9422},{"stationName":"上海商城路(地铁站)","station_id":"上海商城路(地铁站)_31.23215_121.51133","lineId":"上海地铁19号线 / 上海地铁9号线","lat":31.232148855,"lon":121.511331095,"area_km2":4.1883,"D":0.6292,"C":0.8985,"T":0.4406,"U1":0.6339,"U2":0.2472,"couplingDegree":0.6292,"level":"良好协调","road_density":34.9753,"walk_accessibility":0.8397,"metro_line_density":4.9627,"station_count":4,"line_count":4,"population_density":22361.3573,"poi_density":0.0,"poi_diversity":0.0,"gdp_density":4908.0064,"P":22361.3573,"I":0.0,"G":4908.0064},{"stationName":"上海杨高中路(地铁站)","station_id":"上海杨高中路(地铁站)_31.22898_121.54460","lineId":"上海地铁18号线 / 上海地铁9号线","lat":31.228979550000002,"lon":121.54460059333333,"area_km2":3.432,"D":0.3621,"C":0.4186,"T":0.3132,"U1":0.5977,"U2":0.0288,"couplingDegree":0.3621,"level":"中度失调","road_density":32.1662,"walk_accessibility":0.6881,"metro_line_density":3.5943,"station_count":4,"line_count":4,"population_density":6191.9929,"poi_density":0.0,"poi_diversity":0.0,"gdp_density":0.0,"P":6191.9929,"I":0.0,"G":0.0},{"stationName":"上海芳甸路(地铁站)","station_id":"上海芳甸路(地铁站)_31.23401_121.55418","lineId":"上海地铁9号线","lat":31.23401308,"lon":121.55418296,"area_km2":3.5854,"D":0.5481,"C":0.9338,"T":0.3217,"U1":0.4369,"U2":0.2066,"couplingDegree":0.5481,"level":"勉强协调","road_density":31.5332,"walk_accessibility":0.7189,"metro_line_density":2.0282,"station_count":3,"line_count":3,"population_density":8729.334,"poi_density":0.0,"poi_diversity":0.0,"gdp_density":5687.0879,"P":8729.334,"I":0.0,"G":5687.0879},{"stationName":"上海蓝天路(地铁站)","station_id":"上海蓝天路(地铁站)_31.24322_121.57378","lineId":"上海地铁9号线","lat":31.24321721,"lon":121.57377788,"area_km2":2.4877,"D":0.3406,"C":0.5871,"T":0.1976,"U1":0.3576,"U2":0.0376,"couplingDegree":0.3406,"level":"中度失调","road_density":32.6772,"walk_accessibility":0.4988,"metro_line_density":4.5206,"station_count":2,"line_count":3,"population_density":8102.508,"poi_density":0.0,"poi_diversity":0.0,"gdp_density":0.0,"P":8102.508,"I":0.0,"G":0.0},{"stationName":"上海台儿庄路(地铁站)","station_id":"上海台儿庄路(地铁站)_31.25502_121.59326","lineId":"上海地铁9号线","lat":31.255017475,"lon":121.59325525,"area_km2":2.34,"D":0.4422,"C":0.9219,"T":0.2121,"U1":0.1299,"U2":0.2942,"couplingDegree":0.4422,"level":"勉强协调","road_density":41.9035,"walk_accessibility":0.4692,"metro_line_density":2.5164,"station_count":1,"line_count":1,"population_density":9078.9235,"poi_density":0.0,"poi_diversity":0.0,"gdp_density":8634.0455,"P":9078.9235,"I":0.0,"G":8634.0455},{"stationName":"上海金桥(地铁站)","station_id":"上海金桥(地铁站)_31.26303_121.60713","lineId":"上海地铁9号线","lat":31.26303485,"lon":121.60713097499999,"area_km2":1.7599,"D":0.2911,"C":0.9135,"T":0.0928,"U1":0.1305,"U2":0.055,"couplingDegree":0.2911,"level":"中度失调","road_density":45.8194,"walk_accessibility":0.3529,"metro_line_density":3.2965,"station_count":1,"line_count":1,"population_density":11847.2376,"poi_density":0.0,"poi_diversity":0.0,"gdp_density":0.0,"P":11847.2376,"I":0.0,"G":0.0},{"stationName":"上海金吉路(地铁站)","station_id":"上海金吉路(地铁站)_31.26649_121.62280","lineId":"上海地铁22号线 / 上海地铁9号线","lat":31.266493240000003,"lon":121.62280082999999,"area_km2":1.9916,"D":0.2828,"C":0.5312,"T":0.1505,"U1":0.278,"U2":0.023,"couplingDegree":0.2828,"level":"中度失调","road_density":39.6388,"walk_accessibility":0.3993,"metro_line_density":4.1688,"station_count":2,"line_count":2,"population_density":4949.2943,"poi_density":0.0,"poi_diversity":0.0,"gdp_density":0.0,"P":4949.2943,"I":0.0,"G":0.0},{"stationName":"上海金海路(地铁站)","station_id":"上海金海路(地铁站)_31.26596_121.63473","lineId":"上海地铁9号线","lat":31.26596009,"lon":121.63473323,"area_km2":1.8053,"D":0.0,"C":0.0,"T":0.1249,"U1":0.2498,"U2":0.0,"couplingDegree":0.0,"level":"极度失调","road_density":33.396,"walk_accessibility":0.362,"metro_line_density":3.2233,"station_count":2,"line_count":2,"population_density":0.0,"poi_density":0.0,"poi_diversity":0.0,"gdp_density":0.0,"P":0.0,"I":0.0,"G":0.0},{"stationName":"上海顾唐路(地铁站)","station_id":"上海顾唐路(地铁站)_31.26820_121.65220","lineId":"上海地铁9号线","lat":31.26819839,"lon":121.65220211,"area_km2":2.1006,"D":0.4105,"C":0.9931,"T":0.1697,"U1":0.1498,"U2":0.1897,"couplingDegree":0.4105,"level":"勉强协调","road_density":25.8551,"walk_accessibility":0.4212,"metro_line_density":2.7544,"station_count":2,"line_count":1,"population_density":3706.6343,"poi_density":0.0,"poi_diversity":0.0,"gdp_density":5906.8927,"P":3706.6343,"I":0.0,"G":5906.8927},{"stationName":"上海民雷路(地铁站)","station_id":"上海民雷路(地铁站)_31.27044_121.66384","lineId":"上海地铁9号线","lat":31.27043577,"lon":121.66383869,"area_km2":1.5937,"D":0.2234,"C":0.6253,"T":0.0798,"U1":0.1421,"U2":0.0175,"couplingDegree":0.2234,"level":"中度失调","road_density":26.1163,"walk_accessibility":0.3195,"metro_line_density":3.5389,"station_count":2,"line_count":1,"population_density":3774.2578,"poi_density":0.0,"poi_diversity":0.0,"gdp_density":0.0,"P":3774.2578,"I":0.0,"G":0.0},{"stationName":"上海曹路(地铁站)","station_id":"上海曹路(地铁站)_31.27337_121.67884","lineId":"上海地铁9号线","lat":31.27336834,"lon":121.67883823,"area_km2":1.7004,"D":0.1856,"C":0.866,"T":0.0398,"U1":0.0597,"U2":0.0199,"couplingDegree":0.1856,"level":"极度失调","road_density":24.5041,"walk_accessibility":0.3409,"metro_line_density":1.7292,"station_count":1,"line_count":1,"population_density":4281.2293,"poi_density":0.0,"poi_diversity":0.0,"gdp_density":0.0,"P":4281.2293,"I":0.0,"G":0.0}]}