{"cityCode":"110000","year":2006,"stations":[{"stationName":"北京环球度假区(地铁站)","station_id":"北京环球度假区(地铁站)_39.84801_116.67316","lineId":"北京地铁1号线","lat":39.84800964,"lon":116.67315754,"area_km2":2.0677,"D":0.1746,"C":0.7426,"T":0.0411,"U1":0.0686,"U2":0.0136,"couplingDegree":0.1746,"level":"极度失调","road_density":38.0489,"walk_accessibility":0.4146,"metro_line_density":1.3888,"station_count":1,"line_count":1,"population_density":1301.4552,"poi_density":0.0,"poi_diversity":0.0,"gdp_density":0.0,"P":1301.4552,"I":0.0,"G":0.0},{"stationName":"北京花庄(地铁站)","station_id":"北京花庄(地铁站)_39.85555_116.68951","lineId":"北京地铁1号线","lat":39.85555015,"lon":116.68950889,"area_km2":2.3043,"D":0.1435,"C":0.4201,"T":0.049,"U1":0.0935,"U2":0.0045,"couplingDegree":0.1435,"level":"极度失调","road_density":30.8062,"walk_accessibility":0.462,"metro_line_density":4.5734,"station_count":1,"line_count":1,"population_density":565.46,"poi_density":0.0,"poi_diversity":0.0,"gdp_density":0.0,"P":565.46,"I":0.0,"G":0.0},{"stationName":"北京土桥(地铁站)","station_id":"北京土桥(地铁站)_39.87077_116.68039","lineId":"北京地铁1号线","lat":39.87076864,"lon":116.68038605,"area_km2":1.7638,"D":0.231,"C":0.5642,"T":0.0946,"U1":0.1727,"U2":0.0165,"couplingDegree":0.231,"level":"中度失调","road_density":28.2233,"walk_accessibility":0.3536,"metro_line_density":3.747,"station_count":2,"line_count":1,"population_density":1540.9544,"poi_density":0.0,"poi_diversity":0.0,"gdp_density":0.0,"P":1540.9544,"I":0.0,"G":0.0},{"stationName":"北京临河里(地铁站)","station_id":"北京临河里(地铁站)_39.87435_116.67287","lineId":"北京地铁1号线","lat":39.87435269,"lon":116.67286862,"area_km2":1.8452,"D":0.502,"C":0.9963,"T":0.253,"U1":0.2746,"U2":0.2313,"couplingDegree":0.502,"level":"勉强协调","road_density":27.1937,"walk_accessibility":0.37,"metro_line_density":3.4878,"station_count":3,"line_count":1,"population_density":602.6313,"poi_density":0.0,"poi_diversity":0.0,"gdp_density":1803.7202,"P":602.6313,"I":0.0,"G":1803.7202},{"stationName":"北京梨园(地铁站)","station_id":"北京梨园(地铁站)_39.88255_116.66280","lineId":"北京地铁1号线","lat":39.88255308,"lon":116.6628048,"area_km2":2.0685,"D":0.5036,"C":0.9961,"T":0.2546,"U1":0.2772,"U2":0.2321,"couplingDegree":0.5036,"level":"勉强协调","road_density":28.2457,"walk_accessibility":0.4147,"metro_line_density":3.0464,"station_count":3,"line_count":1,"population_density":2655.5727,"poi_density":0.0,"poi_diversity":0.0,"gdp_density":1609.0548,"P":2655.5727,"I":0.0,"G":1609.0548},{"stationName":"北京九棵树(地铁站)","station_id":"北京九棵树(地铁站)_39.88917_116.65165","lineId":"北京地铁1号线","lat":39.88917482,"lon":116.6516474,"area_km2":2.5061,"D":0.26,"C":0.4453,"T":0.1519,"U1":0.2878,"U2":0.0159,"couplingDegree":0.26,"level":"中度失调","road_density":31.6124,"walk_accessibility":0.5025,"metro_line_density":2.5238,"station_count":3,"line_count":1,"population_density":1491.1323,"poi_density":0.0,"poi_diversity":0.0,"gdp_density":0.0,"P":1491.1323,"I":0.0,"G":0.0},{"stationName":"北京果园(地铁站)","station_id":"北京果园(地铁站)_39.89225_116.64076","lineId":"北京地铁1号线","lat":39.89224577,"lon":116.64076483,"area_km2":2.2972,"D":0.2763,"C":0.7097,"T":0.1076,"U1":0.1833,"U2":0.0318,"couplingDegree":0.2763,"level":"中度失调","road_density":32.396,"walk_accessibility":0.4606,"metro_line_density":2.8587,"station_count":2,"line_count":1,"population_density":2787.3525,"poi_density":0.0,"poi_diversity":0.0,"gdp_density":0.0,"P":2787.3525,"I":0.0,"G":0.0},{"stationName":"北京通州北苑(地铁站)","station_id":"北京通州北苑(地铁站)_39.90279_116.63142","lineId":"北京地铁1号线","lat":39.90279433,"lon":116.631416,"area_km2":1.9621,"D":0.3587,"C":0.7952,"T":0.1618,"U1":0.0637,"U2":0.2599,"couplingDegree":0.3587,"level":"中度失调","road_density":25.6805,"walk_accessibility":0.3934,"metro_line_density":3.2334,"station_count":1,"line_count":1,"population_density":2118.6504,"poi_density":0.0,"poi_diversity":0.0,"gdp_density":1883.1666,"P":2118.6504,"I":0.0,"G":1883.1666},{"stationName":"北京八里桥(地铁站)","station_id":"北京八里桥(地铁站)_39.90507_116.61286","lineId":"北京地铁1号线","lat":39.90507299,"lon":116.61285555,"area_km2":1.9573,"D":0.5072,"C":0.558,"T":0.461,"U1":0.0784,"U2":0.8435,"couplingDegree":0.5072,"level":"勉强协调","road_density":20.3,"walk_accessibility":0.3924,"metro_line_density":5.6412,"station_count":1,"line_count":1,"population_density":4394.2697,"poi_density":0.0,"poi_diversity":0.0,"gdp_density":6311.4082,"P":4394.2697,"I":0.0,"G":6311.4082},{"stationName":"北京管庄(地铁站)","station_id":"北京管庄(地铁站)_39.90803_116.59313","lineId":"北京地铁1号线 / 北京地铁22号线","lat":39.908028335,"lon":116.59312795,"area_km2":2.5021,"D":0.6176,"C":0.8613,"T":0.4429,"U1":0.2178,"U2":0.6679,"couplingDegree":0.6176,"level":"良好协调","road_density":22.7424,"walk_accessibility":0.5017,"metro_line_density":4.6255,"station_count":1,"line_count":2,"population_density":4135.4036,"poi_density":0.0,"poi_diversity":0.0,"gdp_density":4937.3278,"P":4135.4036,"I":0.0,"G":4937.3278},{"stationName":"北京双桥(地铁站)","station_id":"北京双桥(地铁站)_39.90909_116.57096","lineId":"北京地铁1号线","lat":39.9090938,"lon":116.57096023,"area_km2":2.9269,"D":0.4847,"C":0.6151,"T":0.3819,"U1":0.0808,"U2":0.6831,"couplingDegree":0.4847,"level":"勉强协调","road_density":21.4926,"walk_accessibility":0.5868,"metro_line_density":3.4012,"station_count":1,"line_count":1,"population_density":12963.1643,"poi_density":0.0,"poi_diversity":0.0,"gdp_density":4195.6902,"P":12963.1643,"I":0.0,"G":4195.6902},{"stationName":"北京传媒大学(地铁站)","station_id":"北京传媒大学(地铁站)_39.90814_116.54881","lineId":"北京地铁1号线","lat":39.90813539,"lon":116.5488103,"area_km2":2.8283,"D":0.4706,"C":0.5911,"T":0.3747,"U1":0.0725,"U2":0.6769,"couplingDegree":0.4706,"level":"勉强协调","road_density":20.0299,"walk_accessibility":0.5671,"metro_line_density":3.0389,"station_count":1,"line_count":1,"population_density":10755.0128,"poi_density":0.0,"poi_diversity":0.0,"gdp_density":4362.1941,"P":10755.0128,"I":0.0,"G":4362.1941},{"stationName":"北京高碑店(地铁站)","station_id":"北京高碑店(地铁站)_39.90832_116.52553","lineId":"北京地铁1号线","lat":39.90831553,"lon":116.52552782,"area_km2":2.8891,"D":0.3227,"C":0.9431,"T":0.1104,"U1":0.0737,"U2":0.1471,"couplingDegree":0.3227,"level":"中度失调","road_density":22.0198,"walk_accessibility":0.5793,"metro_line_density":2.6857,"station_count":1,"line_count":1,"population_density":12195.1719,"poi_density":0.0,"poi_diversity":0.0,"gdp_density":0.0,"P":12195.1719,"I":0.0,"G":0.0},{"stationName":"北京四惠东(地铁站)","station_id":"北京四惠东(地铁站)_39.90732_116.50972","lineId":"北京地铁1号线","lat":39.90731937,"lon":116.50971598,"area_km2":2.8478,"D":0.4594,"C":0.5937,"T":0.3554,"U1":0.0694,"U2":0.6414,"couplingDegree":0.4594,"level":"勉强协调","road_density":21.4999,"walk_accessibility":0.571,"metro_line_density":2.4388,"station_count":1,"line_count":1,"population_density":8199.6373,"poi_density":0.0,"poi_diversity":0.0,"gdp_density":4329.1516,"P":8199.6373,"I":0.0,"G":4329.1516},{"stationName":"北京四惠(地铁站)","station_id":"北京四惠(地铁站)_39.90751_116.48943","lineId":"北京地铁1号线","lat":39.90751336,"lon":116.48943115,"area_km2":2.6535,"D":0.4985,"C":0.5982,"T":0.4154,"U1":0.0825,"U2":0.7483,"couplingDegree":0.4985,"level":"勉强协调","road_density":32.088,"walk_accessibility":0.532,"metro_line_density":2.4254,"station_count":1,"line_count":1,"population_density":13696.1844,"poi_density":0.0,"poi_diversity":0.0,"gdp_density":4643.8425,"P":13696.1844,"I":0.0,"G":4643.8425},{"stationName":"北京大望路(地铁站)","station_id":"北京大望路(地铁站)_39.90731_116.47022","lineId":"北京地铁14号线 / 北京地铁1号线 / 北京地铁28号线","lat":39.907310545,"lon":116.470221045,"area_km2":3.2643,"D":0.5323,"C":0.9469,"T":0.2992,"U1":0.3954,"U2":0.203,"couplingDegree":0.5323,"level":"勉强协调","road_density":29.1489,"walk_accessibility":0.6545,"metro_line_density":6.2836,"station_count":1,"line_count":3,"population_density":16750.993,"poi_density":0.0,"poi_diversity":0.0,"gdp_density":0.0,"P":16750.993,"I":0.0,"G":0.0},{"stationName":"北京国贸(地铁站)","station_id":"北京国贸(地铁站)_39.90743_116.45463","lineId":"北京地铁10号线 / 北京地铁1号线","lat":39.90743234,"lon":116.454626935,"area_km2":3.5147,"D":0.7399,"C":0.9958,"T":0.5498,"U1":0.4992,"U2":0.6003,"couplingDegree":0.7399,"level":"良好协调","road_density":31.697,"walk_accessibility":0.7047,"metro_line_density":5.2167,"station_count":2,"line_count":3,"population_density":13309.2259,"poi_density":0.0,"poi_diversity":0.0,"gdp_density":3502.2894,"P":13309.2259,"I":0.0,"G":3502.2894},{"stationName":"北京永安里(地铁站)","station_id":"北京永安里(地铁站)_39.90712_116.44414","lineId":"北京地铁17号线 / 北京地铁1号线","lat":39.907116145,"lon":116.4441439,"area_km2":3.4313,"D":0.7288,"C":0.9962,"T":0.5332,"U1":0.4868,"U2":0.5796,"couplingDegree":0.7288,"level":"良好协调","road_density":28.5775,"walk_accessibility":0.688,"metro_line_density":4.6829,"station_count":2,"line_count":3,"population_density":10753.5878,"poi_density":0.0,"poi_diversity":0.0,"gdp_density":3587.3989,"P":10753.5878,"I":0.0,"G":3587.3989},{"stationName":"北京建国门(地铁站)","station_id":"北京建国门(地铁站)_39.90718_116.42900","lineId":"北京地铁1号线 / 北京地铁2号线","lat":39.907178425,"lon":116.42900401,"area_km2":3.6693,"D":0.6713,"C":0.9782,"T":0.4606,"U1":0.365,"U2":0.5563,"couplingDegree":0.6713,"level":"良好协调","road_density":28.7287,"walk_accessibility":0.7357,"metro_line_density":5.195,"station_count":2,"line_count":2,"population_density":11243.4407,"poi_density":0.0,"poi_diversity":0.0,"gdp_density":3353.2689,"P":11243.4407,"I":0.0,"G":3353.2689},{"stationName":"北京东单(地铁站)","station_id":"北京东单(地铁站)_39.90692_116.41286","lineId":"北京地铁1号线 / 北京地铁5号线","lat":39.906924186666664,"lon":116.41286102333333,"area_km2":3.6488,"D":0.5439,"C":0.6253,"T":0.4732,"U1":0.8425,"U2":0.1039,"couplingDegree":0.5439,"level":"勉强协调","road_density":24.066,"walk_accessibility":0.7316,"metro_line_density":6.3931,"station_count":4,"line_count":4,"population_density":8668.9217,"poi_density":0.0,"poi_diversity":0.0,"gdp_density":0.0,"P":8668.9217,"I":0.0,"G":0.0},{"stationName":"北京王府井(地铁站)","station_id":"北京王府井(地铁站)_39.90733_116.40522","lineId":"北京地铁1号线 / 北京地铁8号线","lat":39.907334565,"lon":116.405216115,"area_km2":3.821,"D":0.5654,"C":0.6672,"T":0.4791,"U1":0.8359,"U2":0.1222,"couplingDegree":0.5654,"level":"勉强协调","road_density":22.8988,"walk_accessibility":0.7661,"metro_line_density":5.5191,"station_count":4,"line_count":4,"population_density":10162.0698,"poi_density":0.0,"poi_diversity":0.0,"gdp_density":0.0,"P":10162.0698,"I":0.0,"G":0.0},{"stationName":"北京天安门东(地铁站)","station_id":"北京天安门东(地铁站)_39.90638_116.39497","lineId":"北京地铁1号线","lat":39.90637578,"lon":116.39497219,"area_km2":3.7633,"D":0.7662,"C":0.9871,"T":0.5948,"U1":0.6899,"U2":0.4996,"couplingDegree":0.7662,"level":"良好协调","road_density":27.7532,"walk_accessibility":0.7545,"metro_line_density":3.4932,"station_count":4,"line_count":3,"population_density":7510.3388,"poi_density":0.0,"poi_diversity":0.0,"gdp_density":3266.6806,"P":7510.3388,"I":0.0,"G":3266.6806},{"stationName":"北京天安门西(地铁站)","station_id":"北京天安门西(地铁站)_39.90607_116.38504","lineId":"北京地铁1号线","lat":39.90607009,"lon":116.38503632,"area_km2":3.6935,"D":0.7653,"C":0.9881,"T":0.5927,"U1":0.6839,"U2":0.5016,"couplingDegree":0.7653,"level":"良好协调","road_density":27.7263,"walk_accessibility":0.7405,"metro_line_density":3.0536,"station_count":4,"line_count":3,"population_density":7038.019,"poi_density":0.0,"poi_diversity":0.0,"gdp_density":3328.4449,"P":7038.019,"I":0.0,"G":3328.4449},{"stationName":"北京西单(地铁站)","station_id":"北京西单(地铁站)_39.90590_116.36902","lineId":"北京地铁1号线 / 北京地铁4号线","lat":39.905897895,"lon":116.36902326,"area_km2":3.9957,"D":0.7428,"C":0.9957,"T":0.5541,"U1":0.6054,"U2":0.5029,"couplingDegree":0.7428,"level":"良好协调","road_density":30.6563,"walk_accessibility":0.8011,"metro_line_density":4.4522,"station_count":3,"line_count":3,"population_density":9721.1892,"poi_density":0.0,"poi_diversity":0.0,"gdp_density":3076.3688,"P":9721.1892,"I":0.0,"G":3076.3688},{"stationName":"北京复兴门(地铁站)","station_id":"北京复兴门(地铁站)_39.90584_116.35113","lineId":"北京地铁1号线 / 北京地铁2号线","lat":39.905843565,"lon":116.351132115,"area_km2":3.6028,"D":0.5532,"C":0.9067,"T":0.3375,"U1":0.4798,"U2":0.1952,"couplingDegree":0.5532,"level":"勉强协调","road_density":27.0003,"walk_accessibility":0.7223,"metro_line_density":6.7051,"station_count":3,"line_count":2,"population_density":16111.5211,"poi_density":0.0,"poi_diversity":0.0,"gdp_density":0.0,"P":16111.5211,"I":0.0,"G":0.0},{"stationName":"北京南礼士路(地铁站)","station_id":"北京南礼士路(地铁站)_39.90588_116.34640","lineId":"北京地铁1号线","lat":39.90587754,"lon":116.34639530000001,"area_km2":3.4212,"D":0.4998,"C":0.9414,"T":0.2654,"U1":0.3549,"U2":0.1759,"couplingDegree":0.4998,"level":"勉强协调","road_density":25.1947,"walk_accessibility":0.6859,"metro_line_density":5.3555,"station_count":2,"line_count":2,"population_density":14540.333,"poi_density":0.0,"poi_diversity":0.0,"gdp_density":0.0,"P":14540.333,"I":0.0,"G":0.0},{"stationName":"北京木樨地(地铁站)","station_id":"北京木樨地(地铁站)_39.90703_116.32963","lineId":"北京地铁16号线 / 北京地铁1号线","lat":39.90703202,"lon":116.32962928500001,"area_km2":2.8043,"D":0.765,"C":0.9703,"T":0.6031,"U1":0.4573,"U2":0.7489,"couplingDegree":0.765,"level":"良好协调","road_density":21.4198,"walk_accessibility":0.5622,"metro_line_density":4.3887,"station_count":2,"line_count":3,"population_density":16424.9324,"poi_density":0.0,"poi_diversity":0.0,"gdp_density":4382.0215,"P":16424.9324,"I":0.0,"G":4382.0215},{"stationName":"北京军事博物馆(地铁站)","station_id":"北京军事博物馆(地铁站)_39.90612_116.31630","lineId":"北京地铁1号线 / 北京地铁9号线","lat":39.906120994999995,"lon":116.31630097,"area_km2":2.4966,"D":0.872,"C":0.9966,"T":0.7629,"U1":0.7004,"U2":0.8254,"couplingDegree":0.872,"level":"优质协调","road_density":23.2785,"walk_accessibility":0.5006,"metro_line_density":5.4167,"station_count":3,"line_count":4,"population_density":17158.0382,"poi_density":0.0,"poi_diversity":0.0,"gdp_density":4920.0713,"P":17158.0382,"I":0.0,"G":4920.0713},{"stationName":"北京公主坟(地铁站)","station_id":"北京公主坟(地铁站)_39.90620_116.30420","lineId":"北京地铁10号线 / 北京地铁1号线","lat":39.90619958,"lon":116.30419570999999,"area_km2":2.8029,"D":0.7632,"C":0.9774,"T":0.5959,"U1":0.47,"U2":0.7217,"couplingDegree":0.7632,"level":"良好协调","road_density":25.7154,"walk_accessibility":0.562,"metro_line_density":4.9468,"station_count":2,"line_count":3,"population_density":14206.1323,"poi_density":0.0,"poi_diversity":0.0,"gdp_density":4382.4728,"P":14206.1323,"I":0.0,"G":4382.4728},{"stationName":"北京万寿路(地铁站)","station_id":"北京万寿路(地铁站)_39.90622_116.28870","lineId":"北京地铁1号线","lat":39.90622098,"lon":116.28870022,"area_km2":2.8749,"D":0.2913,"C":0.9744,"T":0.0871,"U1":0.0675,"U2":0.1066,"couplingDegree":0.2913,"level":"中度失调","road_density":21.3955,"walk_accessibility":0.5764,"metro_line_density":2.1997,"station_count":1,"line_count":1,"population_density":8889.973,"poi_density":0.0,"poi_diversity":0.0,"gdp_density":0.0,"P":8889.973,"I":0.0,"G":0.0},{"stationName":"北京五棵松(地铁站)","station_id":"北京五棵松(地铁站)_39.90623_116.26795","lineId":"北京地铁1号线","lat":39.90623005,"lon":116.26794898,"area_km2":2.4903,"D":0.4699,"C":0.5655,"T":0.3905,"U1":0.0684,"U2":0.7126,"couplingDegree":0.4699,"level":"勉强协调","road_density":24.8974,"walk_accessibility":0.4993,"metro_line_density":2.6041,"station_count":1,"line_count":1,"population_density":7862.82,"poi_density":0.0,"poi_diversity":0.0,"gdp_density":4929.5855,"P":7862.82,"I":0.0,"G":4929.5855},{"stationName":"北京玉泉路(地铁站)","station_id":"北京玉泉路(地铁站)_39.90622_116.24686","lineId":"北京地铁1号线","lat":39.90621796,"lon":116.24685843,"area_km2":2.5928,"D":0.4605,"C":0.5706,"T":0.3716,"U1":0.0664,"U2":0.6768,"couplingDegree":0.4605,"level":"勉强协调","road_density":23.6016,"walk_accessibility":0.5198,"metro_line_density":2.3819,"station_count":1,"line_count":1,"population_density":6955.5307,"poi_density":0.0,"poi_diversity":0.0,"gdp_density":4733.1332,"P":6955.5307,"I":0.0,"G":4733.1332},{"stationName":"北京八宝山(地铁站)","station_id":"北京八宝山(地铁站)_39.90620_116.22987","lineId":"北京地铁1号线","lat":39.90619866,"lon":116.22986889,"area_km2":2.8626,"D":0.2883,"C":0.991,"T":0.0839,"U1":0.0727,"U2":0.0951,"couplingDegree":0.2883,"level":"中度失调","road_density":24.138,"walk_accessibility":0.5739,"metro_line_density":2.2868,"station_count":1,"line_count":1,"population_density":7951.4411,"poi_density":0.0,"poi_diversity":0.0,"gdp_density":0.0,"P":7951.4411,"I":0.0,"G":0.0},{"stationName":"北京八角游乐园(地铁站)","station_id":"北京八角游乐园(地铁站)_39.90620_116.20678","lineId":"北京地铁1号线","lat":39.906202304999994,"lon":116.20678491999999,"area_km2":2.7879,"D":0.4721,"C":0.6348,"T":0.3511,"U1":0.0798,"U2":0.6224,"couplingDegree":0.4721,"level":"勉强协调","road_density":23.1062,"walk_accessibility":0.559,"metro_line_density":3.3559,"station_count":1,"line_count":1,"population_density":5922.3289,"poi_density":0.0,"poi_diversity":0.0,"gdp_density":4400.3269,"P":5922.3289,"I":0.0,"G":4400.3269},{"stationName":"北京古城(地铁站)","station_id":"北京古城(地铁站)_39.90618_116.18421","lineId":"北京地铁1号线","lat":39.90617559,"lon":116.1842117,"area_km2":2.4431,"D":0.4549,"C":0.5311,"T":0.3897,"U1":0.0595,"U2":0.7199,"couplingDegree":0.4549,"level":"勉强协调","road_density":20.2471,"walk_accessibility":0.4898,"metro_line_density":2.6,"station_count":1,"line_count":1,"population_density":7534.3606,"poi_density":0.0,"poi_diversity":0.0,"gdp_density":5019.8437,"P":7534.3606,"I":0.0,"G":5019.8437},{"stationName":"北京苹果园(地铁站)","station_id":"北京苹果园(地铁站)_39.92449_116.17224","lineId":"北京地铁1号线","lat":39.92449224,"lon":116.17223959,"area_km2":2.3904,"D":0.1823,"C":0.9071,"T":0.0366,"U1":0.052,"U2":0.0212,"couplingDegree":0.1823,"level":"极度失调","road_density":26.17,"walk_accessibility":0.4793,"metro_line_density":0.9727,"station_count":1,"line_count":1,"population_density":1925.186,"poi_density":0.0,"poi_diversity":0.0,"gdp_density":0.0,"P":1925.186,"I":0.0,"G":0.0},{"stationName":"北京福寿岭(地铁站)","station_id":"北京福寿岭(地铁站)_39.93874_116.16497","lineId":"北京地铁1号线","lat":39.93873974,"lon":116.16497423,"area_km2":2.2947,"D":0.2178,"C":0.9584,"T":0.0495,"U1":0.0354,"U2":0.0636,"couplingDegree":0.2178,"level":"中度失调","road_density":19.268,"walk_accessibility":0.4601,"metro_line_density":0.683,"station_count":1,"line_count":1,"population_density":5384.9734,"poi_density":0.0,"poi_diversity":0.0,"gdp_density":0.0,"P":5384.9734,"I":0.0,"G":0.0},{"stationName":"北京体育场南街(地铁站)","station_id":"北京体育场南街(地铁站)_39.89169_116.19704","lineId":"北京地铁1号线","lat":39.89168669,"lon":116.19703968,"area_km2":2.0885,"D":0.2591,"C":0.9163,"T":0.0733,"U1":0.0439,"U2":0.1026,"couplingDegree":0.2591,"level":"中度失调","road_density":22.2167,"walk_accessibility":0.4187,"metro_line_density":1.5312,"station_count":1,"line_count":1,"population_density":8562.9177,"poi_density":0.0,"poi_diversity":0.0,"gdp_density":0.0,"P":8562.9177,"I":0.0,"G":0.0},{"stationName":"北京园博园西门(地铁站)","station_id":"北京园博园西门(地铁站)_39.86921_116.18661","lineId":"北京地铁1号线","lat":39.86920673,"lon":116.18661128,"area_km2":2.3562,"D":0.2384,"C":0.9957,"T":0.0571,"U1":0.0624,"U2":0.0518,"couplingDegree":0.2384,"level":"中度失调","road_density":25.0701,"walk_accessibility":0.4724,"metro_line_density":2.2814,"station_count":1,"line_count":1,"population_density":4416.4272,"poi_density":0.0,"poi_diversity":0.0,"gdp_density":0.0,"P":4416.4272,"I":0.0,"G":0.0},{"stationName":"北京张郭庄(地铁站)","station_id":"北京张郭庄(地铁站)_39.85682_116.18107","lineId":"北京地铁1号线","lat":39.85682242,"lon":116.181065005,"area_km2":1.6625,"D":0.1313,"C":0.556,"T":0.031,"U1":0.0568,"U2":0.0052,"couplingDegree":0.1313,"level":"极度失调","road_density":18.2609,"walk_accessibility":0.3333,"metro_line_density":4.4957,"station_count":1,"line_count":1,"population_density":622.5437,"poi_density":0.0,"poi_diversity":0.0,"gdp_density":0.0,"P":622.5437,"I":0.0,"G":0.0},{"stationName":"北京西二区(地铁站)","station_id":"北京西二区(地铁站)_39.84771_116.15500","lineId":"北京地铁1号线","lat":39.84771116,"lon":116.15500443,"area_km2":1.7649,"D":0.3769,"C":0.4727,"T":0.3005,"U1":0.0357,"U2":0.5653,"couplingDegree":0.3769,"level":"中度失调","road_density":16.0777,"walk_accessibility":0.3539,"metro_line_density":2.4971,"station_count":1,"line_count":1,"population_density":195.4776,"poi_density":0.0,"poi_diversity":0.0,"gdp_density":4505.2826,"P":195.4776,"I":0.0,"G":4505.2826},{"stationName":"北京后吕村(地铁站)","station_id":"北京后吕村(地铁站)_39.82696_116.16591","lineId":"北京地铁1号线","lat":39.82696008,"lon":116.16591237,"area_km2":1.3813,"D":0.0778,"C":0.5042,"T":0.012,"U1":0.0016,"U2":0.0224,"couplingDegree":0.0778,"level":"极度失调","road_density":12.4527,"walk_accessibility":0.277,"metro_line_density":0.5772,"station_count":1,"line_count":1,"population_density":2020.5399,"poi_density":0.0,"poi_diversity":0.0,"gdp_density":0.0,"P":2020.5399,"I":0.0,"G":0.0},{"stationName":"北京云岗(地铁站)","station_id":"北京云岗(地铁站)_39.80876_116.15281","lineId":"北京地铁1号线","lat":39.80875963,"lon":116.15281228,"area_km2":2.7667,"D":0.4061,"C":0.5894,"T":0.2798,"U1":0.0538,"U2":0.5057,"couplingDegree":0.4061,"level":"勉强协调","road_density":14.7173,"walk_accessibility":0.5547,"metro_line_density":2.1976,"station_count":1,"line_count":1,"population_density":8040.5305,"poi_density":0.0,"poi_diversity":0.0,"gdp_density":3263.6645,"P":8040.5305,"I":0.0,"G":3263.6645},{"stationName":"北京王佐(地铁站)","station_id":"北京王佐(地铁站)_39.80826_116.12665","lineId":"北京地铁1号线","lat":39.80826184,"lon":116.1266468,"area_km2":1.3109,"D":0.2108,"C":0.9961,"T":0.0446,"U1":0.0486,"U2":0.0407,"couplingDegree":0.2108,"level":"中度失调","road_density":16.4552,"walk_accessibility":0.2628,"metro_line_density":4.797,"station_count":1,"line_count":1,"population_density":3511.9889,"poi_density":0.0,"poi_diversity":0.0,"gdp_density":0.0,"P":3511.9889,"I":0.0,"G":0.0},{"stationName":"北京民族大学(地铁站)","station_id":"北京民族大学(地铁站)_39.80524_116.10527","lineId":"北京地铁1号线","lat":39.80523643,"lon":116.10527306,"area_km2":1.8957,"D":0.2387,"C":0.9992,"T":0.057,"U1":0.0593,"U2":0.0548,"couplingDegree":0.2387,"level":"中度失调","road_density":22.9548,"walk_accessibility":0.3801,"metro_line_density":3.4053,"station_count":1,"line_count":1,"population_density":4662.068,"poi_density":0.0,"poi_diversity":0.0,"gdp_density":0.0,"P":4662.068,"I":0.0,"G":0.0},{"stationName":"北京青龙湖东(地铁站)","station_id":"北京青龙湖东(地铁站)_39.80529_116.08906","lineId":"北京地铁1号线","lat":39.80529198,"lon":116.08905708,"area_km2":1.4982,"D":0.1539,"C":0.9633,"T":0.0246,"U1":0.0312,"U2":0.018,"couplingDegree":0.1539,"level":"极度失调","road_density":19.0694,"walk_accessibility":0.3004,"metro_line_density":2.165,"station_count":1,"line_count":1,"population_density":1662.639,"poi_density":0.0,"poi_diversity":0.0,"gdp_density":0.0,"P":1662.639,"I":0.0,"G":0.0},{"stationName":"北京积水潭(地铁站)","station_id":"北京积水潭(地铁站)_39.94656_116.36623","lineId":"北京地铁19号线 / 北京地铁2号线","lat":39.946563575,"lon":116.366230905,"area_km2":3.6303,"D":0.4066,"C":0.916,"T":0.1805,"U1":0.2529,"U2":0.1081,"couplingDegree":0.4066,"level":"勉强协调","road_density":26.9792,"walk_accessibility":0.7279,"metro_line_density":4.8,"station_count":1,"line_count":2,"population_density":9011.5721,"poi_density":0.0,"poi_diversity":0.0,"gdp_density":0.0,"P":9011.5721,"I":0.0,"G":0.0},{"stationName":"北京鼓楼大街(地铁站)","station_id":"北京鼓楼大街(地铁站)_39.94686_116.38759","lineId":"北京地铁2号线 / 北京地铁8号线","lat":39.946858335,"lon":116.38759394499999,"area_km2":3.7252,"D":0.5035,"C":0.9493,"T":0.2671,"U1":0.351,"U2":0.1831,"couplingDegree":0.5035,"level":"勉强协调","road_density":21.8484,"walk_accessibility":0.7469,"metro_line_density":4.8215,"station_count":2,"line_count":2,"population_density":15126.3048,"poi_density":0.0,"poi_diversity":0.0,"gdp_density":0.0,"P":15126.3048,"I":0.0,"G":0.0},{"stationName":"北京安定门(地铁站)","station_id":"北京安定门(地铁站)_39.94768_116.40198","lineId":"北京地铁2号线","lat":39.94768258,"lon":116.4019787,"area_km2":3.6951,"D":0.5108,"C":0.7412,"T":0.352,"U1":0.5883,"U2":0.1157,"couplingDegree":0.5108,"level":"勉强协调","road_density":24.7675,"walk_accessibility":0.7409,"metro_line_density":4.4294,"station_count":3,"line_count":3,"population_density":9633.2634,"poi_density":0.0,"poi_diversity":0.0,"gdp_density":0.0,"P":9633.2634,"I":0.0,"G":0.0},{"stationName":"北京雍和宫(地铁站)","station_id":"北京雍和宫(地铁站)_39.94768_116.41095","lineId":"北京地铁2号线 / 北京地铁5号线","lat":39.947683266666665,"lon":116.41094894666666,"area_km2":3.5745,"D":0.5014,"C":0.9377,"T":0.2681,"U1":0.3612,"U2":0.175,"couplingDegree":0.5014,"level":"勉强协调","road_density":25.18,"walk_accessibility":0.7167,"metro_line_density":5.6349,"station_count":2,"line_count":2,"population_density":14463.4344,"poi_density":0.0,"poi_diversity":0.0,"gdp_density":0.0,"P":14463.4344,"I":0.0,"G":0.0},{"stationName":"北京东直门(地铁站)","station_id":"北京东直门(地铁站)_39.94034_116.42887","lineId":"北京北京地铁13B号线(马连洼--东直门) / 北京北京首都机场线(3号航站楼--北新桥) / 北京北京首都机场线(北新桥--2号航站楼) / 北京地铁2号线","lat":39.9403378925,"lon":116.428868765,"area_km2":3.3235,"D":0.8019,"C":1.0,"T":0.643,"U1":0.6414,"U2":0.6446,"couplingDegree":0.8019,"level":"优质协调","road_density":27.5548,"walk_accessibility":0.6663,"metro_line_density":7.3245,"station_count":2,"line_count":4,"population_density":14892.0205,"poi_density":0.0,"poi_diversity":0.0,"gdp_density":3700.8894,"P":14892.0205,"I":0.0,"G":3700.8894},{"stationName":"北京东四十条(地铁站)","station_id":"北京东四十条(地铁站)_39.93237_116.42792","lineId":"北京地铁2号线","lat":39.932369255,"lon":116.427919215,"area_km2":3.7501,"D":0.7931,"C":0.9908,"T":0.6348,"U1":0.7206,"U2":0.549,"couplingDegree":0.7931,"level":"良好协调","road_density":26.2386,"walk_accessibility":0.7519,"metro_line_density":4.0106,"station_count":3,"line_count":4,"population_density":11403.5772,"poi_density":0.0,"poi_diversity":0.0,"gdp_density":3279.8883,"P":11403.5772,"I":0.0,"G":3279.8883},{"stationName":"北京朝阳门(地铁站)","station_id":"北京朝阳门(地铁站)_39.92311_116.42829","lineId":"北京地铁2号线","lat":39.923105074999995,"lon":116.428294025,"area_km2":3.7714,"D":0.4264,"C":0.9883,"T":0.184,"U1":0.212,"U2":0.1559,"couplingDegree":0.4264,"level":"勉强协调","road_density":25.5415,"walk_accessibility":0.7562,"metro_line_density":3.4459,"station_count":2,"line_count":1,"population_density":12911.7574,"poi_density":0.0,"poi_diversity":0.0,"gdp_density":0.0,"P":12911.7574,"I":0.0,"G":0.0},{"stationName":"北京北京站(地铁站)","station_id":"北京北京站(地铁站)_39.90359_116.42106","lineId":"北京地铁2号线","lat":39.90359251,"lon":116.42106293,"area_km2":2.9365,"D":0.8335,"C":0.9999,"T":0.6948,"U1":0.7033,"U2":0.6863,"couplingDegree":0.8335,"level":"优质协调","road_density":27.6918,"walk_accessibility":0.5888,"metro_line_density":6.7913,"station_count":4,"line_count":3,"population_density":13285.0623,"poi_density":0.0,"poi_diversity":0.0,"gdp_density":4190.181,"P":13285.0623,"I":0.0,"G":4190.181},{"stationName":"北京崇文门(地铁站)","station_id":"北京崇文门(地铁站)_39.89951_116.41151","lineId":"北京地铁2号线 / 北京地铁5号线","lat":39.89950931,"lon":116.411513985,"area_km2":3.9634,"D":0.6369,"C":0.7749,"T":0.5234,"U1":0.8543,"U2":0.1926,"couplingDegree":0.6369,"level":"良好协调","road_density":24.3115,"walk_accessibility":0.7947,"metro_line_density":6.797,"station_count":4,"line_count":4,"population_density":15902.5973,"poi_density":0.0,"poi_diversity":0.0,"gdp_density":0.0,"P":15902.5973,"I":0.0,"G":0.0},{"stationName":"北京前门(地铁站)","station_id":"北京前门(地铁站)_39.89818_116.39258","lineId":"北京地铁2号线 / 北京地铁8号线","lat":39.8981820075,"lon":116.3925803075,"area_km2":4.5298,"D":0.7623,"C":0.9783,"T":0.5939,"U1":0.7168,"U2":0.4709,"couplingDegree":0.7623,"level":"良好协调","road_density":25.3332,"walk_accessibility":0.9082,"metro_line_density":4.8168,"station_count":4,"line_count":3,"population_density":10828.249,"poi_density":0.0,"poi_diversity":0.0,"gdp_density":2713.9384,"P":10828.249,"I":0.0,"G":2713.9384},{"stationName":"北京和平门(地铁站)","station_id":"北京和平门(地铁站)_39.89870_116.37797","lineId":"北京地铁2号线","lat":39.89870226,"lon":116.37797399,"area_km2":4.2017,"D":0.623,"C":0.7053,"T":0.5503,"U1":0.9403,"U2":0.1602,"couplingDegree":0.623,"level":"良好协调","road_density":24.835,"walk_accessibility":0.8424,"metro_line_density":4.3145,"station_count":5,"line_count":4,"population_density":13256.8686,"poi_density":0.0,"poi_diversity":0.0,"gdp_density":0.0,"P":13256.8686,"I":0.0,"G":0.0},{"stationName":"北京宣武门(地铁站)","station_id":"北京宣武门(地铁站)_39.89840_116.36813","lineId":"北京地铁2号线","lat":39.89839593,"lon":116.36813067,"area_km2":4.1688,"D":0.781,"C":0.9861,"T":0.6185,"U1":0.7212,"U2":0.5159,"couplingDegree":0.781,"level":"良好协调","road_density":26.6319,"walk_accessibility":0.8358,"metro_line_density":5.8839,"station_count":4,"line_count":3,"population_density":12088.6658,"poi_density":0.0,"poi_diversity":0.0,"gdp_density":2948.6464,"P":12088.6658,"I":0.0,"G":2948.6464},{"stationName":"北京长椿街(地铁站)","station_id":"北京长椿街(地铁站)_39.89806_116.35715","lineId":"北京地铁2号线","lat":39.89805898,"lon":116.35714731,"area_km2":4.0156,"D":0.5231,"C":0.8598,"T":0.3183,"U1":0.4808,"U2":0.1558,"couplingDegree":0.5231,"level":"勉强协调","road_density":25.4901,"walk_accessibility":0.8051,"metro_line_density":6.0873,"station_count":3,"line_count":2,"population_density":12897.5206,"poi_density":0.0,"poi_diversity":0.0,"gdp_density":0.0,"P":12897.5206,"I":0.0,"G":0.0},{"stationName":"北京阜成门(地铁站)","station_id":"北京阜成门(地铁站)_39.92231_116.35002","lineId":"北京地铁2号线","lat":39.92231433,"lon":116.35001838,"area_km2":3.4745,"D":0.4336,"C":0.8389,"T":0.2242,"U1":0.3461,"U2":0.1022,"couplingDegree":0.4336,"level":"勉强协调","road_density":24.4268,"walk_accessibility":0.6966,"metro_line_density":4.4805,"station_count":2,"line_count":2,"population_density":8526.3674,"poi_density":0.0,"poi_diversity":0.0,"gdp_density":0.0,"P":8526.3674,"I":0.0,"G":0.0},{"stationName":"北京车公庄(地铁站)","station_id":"北京车公庄(地铁站)_39.93115_116.34843","lineId":"北京北京地铁13A号线(车公庄--天通苑东) / 北京地铁2号线","lat":39.931151185,"lon":116.34842879,"area_km2":3.4683,"D":0.5546,"C":0.8149,"T":0.3774,"U1":0.5962,"U2":0.1586,"couplingDegree":0.5546,"level":"勉强协调","road_density":28.7058,"walk_accessibility":0.6954,"metro_line_density":5.0896,"station_count":3,"line_count":3,"population_density":13132.5134,"poi_density":0.0,"poi_diversity":0.0,"gdp_density":0.0,"P":13132.5134,"I":0.0,"G":0.0},{"stationName":"北京西直门(地铁站)","station_id":"北京西直门(地铁站)_39.93987_116.34739","lineId":"北京北京地铁13A号线(车公庄--天通苑东) / 北京地铁13号线 / 北京地铁2号线","lat":39.93986700333333,"lon":116.34738996,"area_km2":3.6222,"D":0.5297,"C":0.8523,"T":0.3292,"U1":0.5014,"U2":0.157,"couplingDegree":0.5297,"level":"勉强协调","road_density":29.6218,"walk_accessibility":0.7262,"metro_line_density":5.527,"station_count":2,"line_count":3,"population_density":12997.5105,"poi_density":0.0,"poi_diversity":0.0,"gdp_density":0.0,"P":12997.5105,"I":0.0,"G":0.0},{"stationName":"北京霍营(地铁站)","station_id":"北京霍营(地铁站)_40.06962_116.35440","lineId":"北京北京地铁13B号线(马连洼--东直门) / 北京地铁13号线 / 北京地铁8号线","lat":40.06962005333333,"lon":116.35440401333334,"area_km2":2.3604,"D":0.2051,"C":0.2292,"T":0.1836,"U1":0.3624,"U2":0.0049,"couplingDegree":0.2051,"level":"中度失调","road_density":34.5637,"walk_accessibility":0.4733,"metro_line_density":4.1566,"station_count":1,"line_count":3,"population_density":593.9673,"poi_density":0.0,"poi_diversity":0.0,"gdp_density":0.0,"P":593.9673,"I":0.0,"G":0.0},{"stationName":"北京知春路(地铁站)","station_id":"北京知春路(地铁站)_39.97514_116.33426","lineId":"北京北京地铁13A号线(车公庄--天通苑东) / 北京地铁10号线 / 北京地铁13号线","lat":39.975138136666665,"lon":116.33425766333333,"area_km2":3.2917,"D":0.445,"C":0.8166,"T":0.2425,"U1":0.3825,"U2":0.1025,"couplingDegree":0.445,"level":"勉强协调","road_density":30.731,"walk_accessibility":0.66,"metro_line_density":4.6442,"station_count":1,"line_count":3,"population_density":8554.8253,"poi_density":0.0,"poi_diversity":0.0,"gdp_density":0.0,"P":8554.8253,"I":0.0,"G":0.0},{"stationName":"北京五道口(地铁站)","station_id":"北京五道口(地铁站)_39.99156_116.33157","lineId":"北京北京地铁13A号线(车公庄--天通苑东) / 北京地铁13号线","lat":39.99156226333333,"lon":116.33157444666666,"area_km2":4.2726,"D":0.5952,"C":0.9597,"T":0.3691,"U1":0.2654,"U2":0.4729,"couplingDegree":0.5952,"level":"勉强协调","road_density":35.0944,"walk_accessibility":0.8566,"metro_line_density":3.1782,"station_count":1,"line_count":2,"population_density":9329.7037,"poi_density":0.0,"poi_diversity":0.0,"gdp_density":2875.5933,"P":9329.7037,"I":0.0,"G":2875.5933}]}