{"cityCode":"310000","year":2020,"stations":[{"stationName":"上海富锦路(地铁站)","station_id":"上海富锦路(地铁站)_31.39404_121.42001","lineId":"上海地铁1号线","lat":31.39404489,"lon":121.42000867499999,"area_km2":2.0533,"D":0.2249,"C":0.6746,"T":0.075,"U1":0.1304,"U2":0.0196,"couplingDegree":0.2249,"level":"中度失调","road_density":31.6805,"walk_accessibility":0.4117,"metro_line_density":1.4156,"station_count":2,"line_count":1,"population_density":808.9258,"poi_density":0.0,"poi_diversity":0.0,"gdp_density":32017.586,"P":808.9258,"I":0.0,"G":32017.586},{"stationName":"上海友谊西路(地铁站)","station_id":"上海友谊西路(地铁站)_31.38309_121.42331","lineId":"上海地铁1号线","lat":31.38308783,"lon":121.42330572,"area_km2":1.188,"D":0.2239,"C":0.715,"T":0.0701,"U1":0.1191,"U2":0.0211,"couplingDegree":0.2239,"level":"中度失调","road_density":28.6859,"walk_accessibility":0.2382,"metro_line_density":4.7423,"station_count":2,"line_count":1,"population_density":11853.076,"poi_density":0.0,"poi_diversity":0.0,"gdp_density":0.0,"P":11853.076,"I":0.0,"G":0.0},{"stationName":"上海宝安公路(地铁站)","station_id":"上海宝安公路(地铁站)_31.37135_121.42627","lineId":"上海地铁1号线","lat":31.37135416,"lon":121.42627176,"area_km2":1.2393,"D":0.1731,"C":0.9095,"T":0.0329,"U1":0.0466,"U2":0.0192,"couplingDegree":0.1731,"level":"极度失调","road_density":20.7865,"walk_accessibility":0.2485,"metro_line_density":4.6309,"station_count":1,"line_count":1,"population_density":10809.8269,"poi_density":0.0,"poi_diversity":0.0,"gdp_density":0.0,"P":10809.8269,"I":0.0,"G":0.0},{"stationName":"上海共富新村(地铁站)","station_id":"上海共富新村(地铁站)_31.35689_121.42943","lineId":"上海地铁1号线","lat":31.35688994,"lon":121.42942848,"area_km2":1.4132,"D":0.197,"C":0.8732,"T":0.0444,"U1":0.0661,"U2":0.0228,"couplingDegree":0.197,"level":"极度失调","road_density":26.9439,"walk_accessibility":0.2834,"metro_line_density":4.0267,"station_count":1,"line_count":1,"population_density":12801.0744,"poi_density":0.0,"poi_diversity":0.0,"gdp_density":0.0,"P":12801.0744,"I":0.0,"G":0.0},{"stationName":"上海呼兰路(地铁站)","station_id":"上海呼兰路(地铁站)_31.34153_121.43226","lineId":"上海地铁18号线 / 上海地铁1号线","lat":31.34152552666667,"lon":121.43226472666667,"area_km2":1.7114,"D":0.342,"C":0.7828,"T":0.1494,"U1":0.2423,"U2":0.0564,"couplingDegree":0.342,"level":"中度失调","road_density":20.7949,"walk_accessibility":0.3431,"metro_line_density":5.797,"station_count":3,"line_count":2,"population_density":18038.1879,"poi_density":0.5843,"poi_diversity":0.0,"gdp_density":40812.1962,"P":18038.1879,"I":0.5843,"G":40812.1962},{"stationName":"上海通河新村(地铁站)","station_id":"上海通河新村(地铁站)_31.33296_121.43693","lineId":"上海地铁1号线","lat":31.33295683,"lon":121.43692739,"area_km2":1.6916,"D":0.308,"C":0.8029,"T":0.1181,"U1":0.1885,"U2":0.0477,"couplingDegree":0.308,"level":"中度失调","road_density":21.5739,"walk_accessibility":0.3392,"metro_line_density":3.7826,"station_count":2,"line_count":2,"population_density":13615.9386,"poi_density":0.0,"poi_diversity":0.0,"gdp_density":41289.9954,"P":13615.9386,"I":0.0,"G":41289.9954},{"stationName":"上海共康路(地铁站)","station_id":"上海共康路(地铁站)_31.32078_121.44246","lineId":"上海地铁1号线","lat":31.32077824,"lon":121.44245648,"area_km2":1.3298,"D":0.2086,"C":0.9828,"T":0.0443,"U1":0.0524,"U2":0.0361,"couplingDegree":0.2086,"level":"中度失调","road_density":22.4955,"walk_accessibility":0.2666,"metro_line_density":4.3892,"station_count":1,"line_count":1,"population_density":19464.7888,"poi_density":0.752,"poi_diversity":0.0,"gdp_density":0.0,"P":19464.7888,"I":0.752,"G":0.0},{"stationName":"上海彭浦新村(地铁站)","station_id":"上海彭浦新村(地铁站)_31.30845_121.44404","lineId":"上海地铁1号线","lat":31.30845444,"lon":121.44404066,"area_km2":1.8545,"D":0.2342,"C":0.9952,"T":0.0551,"U1":0.0605,"U2":0.0497,"couplingDegree":0.2342,"level":"中度失调","road_density":23.8212,"walk_accessibility":0.3718,"metro_line_density":3.1529,"station_count":1,"line_count":1,"population_density":27946.2105,"poi_density":0.0,"poi_diversity":0.0,"gdp_density":0.0,"P":27946.2105,"I":0.0,"G":0.0},{"stationName":"上海汶水路(地铁站)","station_id":"上海汶水路(地铁站)_31.29442_121.44566","lineId":"上海地铁1号线","lat":31.294415684999997,"lon":121.445655105,"area_km2":2.4114,"D":0.37,"C":0.922,"T":0.1485,"U1":0.091,"U2":0.206,"couplingDegree":0.37,"level":"中度失调","road_density":31.8277,"walk_accessibility":0.4835,"metro_line_density":2.3334,"station_count":1,"line_count":1,"population_density":14998.7601,"poi_density":1.6588,"poi_diversity":1.3863,"gdp_density":193434.9876,"P":14998.7601,"I":1.6588,"G":193434.9876},{"stationName":"上海上海马戏城(地铁站)","station_id":"上海上海马戏城(地铁站)_31.28150_121.44747","lineId":"上海地铁1号线 / 上海地铁20号线","lat":31.281495435,"lon":121.44747032999999,"area_km2":2.2037,"D":0.4256,"C":0.9906,"T":0.1828,"U1":0.2078,"U2":0.1578,"couplingDegree":0.4256,"level":"勉强协调","road_density":24.6408,"walk_accessibility":0.4418,"metro_line_density":4.2661,"station_count":2,"line_count":2,"population_density":18581.5447,"poi_density":6.8068,"poi_diversity":2.3384,"gdp_density":0.0,"P":18581.5447,"I":6.8068,"G":0.0},{"stationName":"上海延长路(地铁站)","station_id":"上海延长路(地铁站)_31.27355_121.45075","lineId":"上海地铁1号线","lat":31.27355265,"lon":121.45074729,"area_km2":2.2407,"D":0.5017,"C":0.9743,"T":0.2583,"U1":0.2001,"U2":0.3165,"couplingDegree":0.5017,"level":"勉强协调","road_density":23.0699,"walk_accessibility":0.4492,"metro_line_density":3.2934,"station_count":2,"line_count":2,"population_density":34531.0224,"poi_density":4.0167,"poi_diversity":2.0432,"gdp_density":263357.734,"P":34531.0224,"I":4.0167,"G":263357.734},{"stationName":"上海中山北路(地铁站)","station_id":"上海中山北路(地铁站)_31.26078_121.45463","lineId":"上海地铁1号线","lat":31.26078422,"lon":121.45463391,"area_km2":2.4942,"D":0.6232,"C":0.9991,"T":0.3887,"U1":0.405,"U2":0.3725,"couplingDegree":0.6232,"level":"良好协调","road_density":28.4711,"walk_accessibility":0.5001,"metro_line_density":3.345,"station_count":4,"line_count":3,"population_density":57043.7317,"poi_density":5.6131,"poi_diversity":2.3046,"gdp_density":264046.1193,"P":57043.7317,"I":5.6131,"G":264046.1193},{"stationName":"上海上海火车站(地铁站)","station_id":"上海上海火车站(地铁站)_31.24994_121.45186","lineId":"上海地铁1号线 / 上海地铁3号线","lat":31.249938473333334,"lon":121.45185925666665,"area_km2":2.6664,"D":0.6485,"C":0.9997,"T":0.4207,"U1":0.4307,"U2":0.4107,"couplingDegree":0.6485,"level":"良好协调","road_density":33.3555,"walk_accessibility":0.5346,"metro_line_density":5.6336,"station_count":4,"line_count":3,"population_density":50812.6704,"poi_density":26.2522,"poi_diversity":2.7112,"gdp_density":246987.254,"P":50812.6704,"I":26.2522,"G":246987.254},{"stationName":"上海汉中路(地铁站)","station_id":"上海汉中路(地铁站)_31.24314_121.45424","lineId":"上海地铁13号线 / 上海地铁1号线","lat":31.24313625,"lon":121.454244305,"area_km2":3.0643,"D":0.6233,"C":0.9394,"T":0.4135,"U1":0.5553,"U2":0.2718,"couplingDegree":0.6233,"level":"良好协调","road_density":31.0079,"walk_accessibility":0.6144,"metro_line_density":2.8236,"station_count":5,"line_count":4,"population_density":36612.256,"poi_density":34.5916,"poi_diversity":2.9353,"gdp_density":0.0,"P":36612.256,"I":34.5916,"G":0.0},{"stationName":"上海新闸路(地铁站)","station_id":"上海新闸路(地铁站)_31.24030_121.46361","lineId":"上海地铁1号线","lat":31.24029698,"lon":121.46360999,"area_km2":3.6056,"D":0.6826,"C":0.9615,"T":0.4845,"U1":0.6177,"U2":0.3514,"couplingDegree":0.6826,"level":"良好协调","road_density":31.3025,"walk_accessibility":0.7229,"metro_line_density":3.9865,"station_count":6,"line_count":4,"population_density":28585.6163,"poi_density":75.9939,"poi_diversity":3.2374,"gdp_density":0.0,"P":28585.6163,"I":75.9939,"G":0.0},{"stationName":"上海人民广场(地铁站)","station_id":"上海人民广场(地铁站)_31.23485_121.46990","lineId":"上海地铁1号线 / 上海地铁2号线 / 上海地铁8号线","lat":31.234849183333335,"lon":121.46989588999999,"area_km2":3.6983,"D":0.8799,"C":0.9957,"T":0.7775,"U1":0.8496,"U2":0.7055,"couplingDegree":0.8799,"level":"优质协调","road_density":33.0418,"walk_accessibility":0.7415,"metro_line_density":4.913,"station_count":7,"line_count":6,"population_density":31568.5763,"poi_density":125.1938,"poi_diversity":3.1821,"gdp_density":452165.3907,"P":31568.5763,"I":125.1938,"G":452165.3907},{"stationName":"上海一大会址·黄陂南路(地铁站)","station_id":"上海一大会址·黄陂南路(地铁站)_31.22513_121.46825","lineId":"上海地铁14号线 / 上海地铁1号线","lat":31.225133919999998,"lon":121.468253215,"area_km2":3.8548,"D":0.7598,"C":0.9472,"T":0.6095,"U1":0.8049,"U2":0.414,"couplingDegree":0.7598,"level":"良好协调","road_density":32.6645,"walk_accessibility":0.7729,"metro_line_density":5.6979,"station_count":6,"line_count":6,"population_density":38459.2417,"poi_density":101.6912,"poi_diversity":3.1479,"gdp_density":0.0,"P":38459.2417,"I":101.6912,"G":0.0},{"stationName":"上海陕西南路(地铁站)","station_id":"上海陕西南路(地铁站)_31.21810_121.45478","lineId":"上海地铁10号线 / 上海地铁1号线","lat":31.21810256,"lon":121.454784855,"area_km2":3.1202,"D":0.6857,"C":0.9981,"T":0.4711,"U1":0.4419,"U2":0.5003,"couplingDegree":0.6857,"level":"良好协调","road_density":22.7303,"walk_accessibility":0.6256,"metro_line_density":5.2781,"station_count":3,"line_count":4,"population_density":15599.8042,"poi_density":134.9287,"poi_diversity":3.0228,"gdp_density":121607.5792,"P":15599.8042,"I":134.9287,"G":121607.5792},{"stationName":"上海常熟路(地铁站)","station_id":"上海常熟路(地铁站)_31.21535_121.44550","lineId":"上海地铁1号线 / 上海地铁7号线","lat":31.21534568,"lon":121.44550402499999,"area_km2":3.0427,"D":0.7939,"C":0.9999,"T":0.6303,"U1":0.6224,"U2":0.6381,"couplingDegree":0.7939,"level":"良好协调","road_density":20.8342,"walk_accessibility":0.6101,"metro_line_density":6.2526,"station_count":5,"line_count":5,"population_density":32447.4619,"poi_density":153.4804,"poi_diversity":2.9964,"gdp_density":250901.6452,"P":32447.4619,"I":153.4804,"G":250901.6452},{"stationName":"上海衡山路(地铁站)","station_id":"上海衡山路(地铁站)_31.20642_121.44183","lineId":"上海地铁1号线","lat":31.20641737,"lon":121.44182586,"area_km2":2.9236,"D":0.6681,"C":0.9853,"T":0.4531,"U1":0.5305,"U2":0.3756,"couplingDegree":0.6681,"level":"良好协调","road_density":19.5005,"walk_accessibility":0.5862,"metro_line_density":6.4337,"station_count":5,"line_count":4,"population_density":33447.0277,"poi_density":90.3003,"poi_diversity":2.9882,"gdp_density":0.0,"P":33447.0277,"I":90.3003,"G":0.0},{"stationName":"上海徐家汇(地铁站)","station_id":"上海徐家汇(地铁站)_31.19576_121.43236","lineId":"上海地铁11号线 / 上海地铁1号线 / 上海地铁9号线","lat":31.19576220333333,"lon":121.43235650333334,"area_km2":2.9778,"D":0.6892,"C":0.9681,"T":0.4906,"U1":0.6136,"U2":0.3676,"couplingDegree":0.6892,"level":"良好协调","road_density":22.6277,"walk_accessibility":0.597,"metro_line_density":5.6079,"station_count":3,"line_count":6,"population_density":25885.3128,"poi_density":53.7318,"poi_diversity":2.9728,"gdp_density":134474.67,"P":25885.3128,"I":53.7318,"G":134474.67},{"stationName":"上海上海体育馆(地铁站)","station_id":"上海上海体育馆(地铁站)_31.18429_121.43223","lineId":"上海地铁1号线 / 上海地铁4号线","lat":31.18429184,"lon":121.43223302,"area_km2":2.523,"D":0.6553,"C":0.8779,"T":0.4891,"U1":0.7232,"U2":0.2549,"couplingDegree":0.6553,"level":"良好协调","road_density":25.1698,"walk_accessibility":0.5058,"metro_line_density":8.8936,"station_count":5,"line_count":6,"population_density":29220.8708,"poi_density":38.4469,"poi_diversity":2.7026,"gdp_density":0.0,"P":29220.8708,"I":38.4469,"G":0.0},{"stationName":"上海漕宝路(地铁站)","station_id":"上海漕宝路(地铁站)_31.17012_121.43008","lineId":"上海地铁1号线","lat":31.17011773,"lon":121.43008327,"area_km2":1.8959,"D":0.518,"C":0.9981,"T":0.2689,"U1":0.2522,"U2":0.2855,"couplingDegree":0.518,"level":"勉强协调","road_density":24.9072,"walk_accessibility":0.3801,"metro_line_density":4.1904,"station_count":3,"line_count":2,"population_density":15206.2025,"poi_density":10.0214,"poi_diversity":2.1285,"gdp_density":241996.4536,"P":15206.2025,"I":10.0214,"G":241996.4536},{"stationName":"上海上海南站(地铁站)","station_id":"上海上海南站(地铁站)_31.15635_121.42606","lineId":"上海地铁15号线 / 上海地铁1号线 / 上海地铁3号线","lat":31.156352245,"lon":121.42606245,"area_km2":1.9356,"D":0.4455,"C":0.9063,"T":0.219,"U1":0.3115,"U2":0.1264,"couplingDegree":0.4455,"level":"勉强协调","road_density":31.4808,"walk_accessibility":0.3881,"metro_line_density":4.4154,"station_count":2,"line_count":3,"population_density":15420.6373,"poi_density":4.1331,"poi_diversity":1.9062,"gdp_density":0.0,"P":15420.6373,"I":4.1331,"G":0.0},{"stationName":"上海锦江乐园(地铁站)","station_id":"上海锦江乐园(地铁站)_31.14410_121.40947","lineId":"上海地铁1号线","lat":31.14409852,"lon":121.40946646,"area_km2":1.5731,"D":0.2759,"C":0.9991,"T":0.0762,"U1":0.0729,"U2":0.0795,"couplingDegree":0.2759,"level":"中度失调","road_density":30.945,"walk_accessibility":0.3154,"metro_line_density":1.7564,"station_count":1,"line_count":1,"population_density":5466.8325,"poi_density":3.1784,"poi_diversity":1.3322,"gdp_density":0.0,"P":5466.8325,"I":3.1784,"G":0.0},{"stationName":"上海莲花路(地铁站)","station_id":"上海莲花路(地铁站)_31.13279_121.39827","lineId":"上海地铁1号线","lat":31.132785175000002,"lon":121.39826690000001,"area_km2":2.0028,"D":0.3397,"C":0.853,"T":0.1352,"U1":0.0647,"U2":0.2058,"couplingDegree":0.3397,"level":"中度失调","road_density":26.7181,"walk_accessibility":0.4016,"metro_line_density":1.1499,"station_count":1,"line_count":1,"population_density":8289.2839,"poi_density":20.4711,"poi_diversity":2.6309,"gdp_density":45933.0783,"P":8289.2839,"I":20.4711,"G":45933.0783},{"stationName":"上海外环路(地铁站)","station_id":"上海外环路(地铁站)_31.12279_121.38838","lineId":"上海地铁1号线","lat":31.12279218,"lon":121.38838039,"area_km2":2.444,"D":0.1746,"C":0.6127,"T":0.0497,"U1":0.089,"U2":0.0104,"couplingDegree":0.1746,"level":"极度失调","road_density":31.9405,"walk_accessibility":0.49,"metro_line_density":1.5335,"station_count":1,"line_count":1,"population_density":5858.1283,"poi_density":0.0,"poi_diversity":0.0,"gdp_density":0.0,"P":5858.1283,"I":0.0,"G":0.0},{"stationName":"上海莘庄(地铁站)","station_id":"上海莘庄(地铁站)_31.11305_121.38074","lineId":"上海地铁1号线","lat":31.11305321,"lon":121.38073913,"area_km2":2.2667,"D":0.3546,"C":0.8468,"T":0.1485,"U1":0.0695,"U2":0.2274,"couplingDegree":0.3546,"level":"中度失调","road_density":24.0807,"walk_accessibility":0.4545,"metro_line_density":3.6097,"station_count":1,"line_count":1,"population_density":6572.9843,"poi_density":33.5289,"poi_diversity":2.6778,"gdp_density":41326.1114,"P":6572.9843,"I":33.5289,"G":41326.1114},{"stationName":"上海虹桥火车站(地铁站)","station_id":"上海虹桥火车站(地铁站)_31.19604_121.31717","lineId":"上海地铁2号线 / 上海地铁示范区线","lat":31.196040484999997,"lon":121.31717220499999,"area_km2":2.0239,"D":0.4904,"C":0.8392,"T":0.2866,"U1":0.4425,"U2":0.1307,"couplingDegree":0.4904,"level":"勉强协调","road_density":44.3455,"walk_accessibility":0.4058,"metro_line_density":5.4505,"station_count":2,"line_count":4,"population_density":5586.6518,"poi_density":6.4231,"poi_diversity":1.8849,"gdp_density":32443.7875,"P":5586.6518,"I":6.4231,"G":32443.7875},{"stationName":"上海虹桥2号航站楼(地铁站)","station_id":"上海虹桥2号航站楼(地铁站)_31.19613_121.32116","lineId":"上海地铁10号线 / 上海地铁2号线 / 上海地铁嘉闵线","lat":31.196134086666664,"lon":121.32115698,"area_km2":1.8675,"D":0.4638,"C":0.787,"T":0.2734,"U1":0.4421,"U2":0.1047,"couplingDegree":0.4638,"level":"勉强协调","road_density":43.9779,"walk_accessibility":0.3744,"metro_line_density":6.3702,"station_count":2,"line_count":4,"population_density":8454.2796,"poi_density":3.2129,"poi_diversity":1.3297,"gdp_density":35162.2635,"P":8454.2796,"I":3.2129,"G":35162.2635},{"stationName":"上海淞虹路(地铁站)","station_id":"上海淞虹路(地铁站)_31.22010_121.35493","lineId":"上海地铁2号线","lat":31.22010141,"lon":121.35492751,"area_km2":2.8041,"D":0.4139,"C":0.7532,"T":0.2275,"U1":0.0779,"U2":0.3771,"couplingDegree":0.4139,"level":"勉强协调","road_density":25.7624,"walk_accessibility":0.5622,"metro_line_density":2.0913,"station_count":1,"line_count":1,"population_density":20165.2181,"poi_density":56.3454,"poi_diversity":3.0416,"gdp_density":154477.2109,"P":20165.2181,"I":56.3454,"G":154477.2109},{"stationName":"上海中山公园(地铁站)","station_id":"上海中山公园(地铁站)_31.22006_121.41225","lineId":"上海地铁2号线 / 上海地铁3号线","lat":31.220058209999998,"lon":121.4122525,"area_km2":2.9313,"D":0.5129,"C":0.9958,"T":0.2641,"U1":0.2399,"U2":0.2884,"couplingDegree":0.5129,"level":"勉强协调","road_density":30.2753,"walk_accessibility":0.5877,"metro_line_density":5.1788,"station_count":2,"line_count":2,"population_density":16849.6963,"poi_density":26.2685,"poi_diversity":2.768,"gdp_density":133328.2411,"P":16849.6963,"I":26.2685,"G":133328.2411},{"stationName":"上海静安寺(地铁站)","station_id":"上海静安寺(地铁站)_31.22463_121.44222","lineId":"上海地铁14号线 / 上海地铁2号线 / 上海地铁7号线","lat":31.22463062,"lon":121.44222156333335,"area_km2":2.9821,"D":0.6591,"C":0.995,"T":0.4366,"U1":0.393,"U2":0.4802,"couplingDegree":0.6591,"level":"良好协调","road_density":23.427,"walk_accessibility":0.5979,"metro_line_density":5.2455,"station_count":2,"line_count":4,"population_density":35181.2707,"poi_density":143.1891,"poi_diversity":2.9879,"gdp_density":0.0,"P":35181.2707,"I":143.1891,"G":0.0},{"stationName":"上海世纪大道(地铁站)","station_id":"上海世纪大道(地铁站)_31.23078_121.52288","lineId":"上海地铁2号线","lat":31.23078121,"lon":121.522877,"area_km2":3.8492,"D":0.6086,"C":0.8191,"T":0.4522,"U1":0.7117,"U2":0.1928,"couplingDegree":0.6086,"level":"良好协调","road_density":30.6493,"walk_accessibility":0.7718,"metro_line_density":5.5745,"station_count":6,"line_count":5,"population_density":11707.273,"poi_density":11.4309,"poi_diversity":2.5488,"gdp_density":49737.4652,"P":11707.273,"I":11.4309,"G":49737.4652},{"stationName":"上海龙阳路(地铁站)","station_id":"上海龙阳路(地铁站)_31.20426_121.55296","lineId":"上海地铁16号线 / 上海地铁18号线 / 上海地铁2号线 / 上海地铁7号线","lat":31.204256895999997,"lon":121.55296048,"area_km2":2.1669,"D":0.5951,"C":0.9131,"T":0.3879,"U1":0.5461,"U2":0.2297,"couplingDegree":0.5951,"level":"勉强协调","road_density":28.0113,"walk_accessibility":0.4345,"metro_line_density":6.8877,"station_count":5,"line_count":4,"population_density":9907.8413,"poi_density":14.7678,"poi_diversity":2.8265,"gdp_density":85724.1251,"P":9907.8413,"I":14.7678,"G":85724.1251},{"stationName":"上海浦东1号2号航站楼(地铁站)","station_id":"上海浦东1号2号航站楼(地铁站)_31.15359_121.80159","lineId":"上海上海市域机场线后通段(浦东1号2号航站楼--上海东站) / 上海地铁2号线","lat":31.153591245,"lon":121.80159420999999,"area_km2":1.1491,"D":0.1636,"C":0.2939,"T":0.0911,"U1":0.1781,"U2":0.004,"couplingDegree":0.1636,"level":"极度失调","road_density":33.7813,"walk_accessibility":0.2304,"metro_line_density":6.5051,"station_count":1,"line_count":2,"population_density":1320.1323,"poi_density":0.8702,"poi_diversity":0.0,"gdp_density":0.0,"P":1320.1323,"I":0.8702,"G":0.0},{"stationName":"上海海天三路(地铁站)","station_id":"上海海天三路(地铁站)_31.17054_121.79257","lineId":"上海地铁2号线","lat":31.17054153,"lon":121.79256704,"area_km2":2.3425,"D":0.1204,"C":0.4803,"T":0.0302,"U1":0.0567,"U2":0.0037,"couplingDegree":0.1204,"level":"极度失调","road_density":22.5574,"walk_accessibility":0.4697,"metro_line_density":0.9631,"station_count":1,"line_count":1,"population_density":1624.7809,"poi_density":0.4269,"poi_diversity":0.0,"gdp_density":0.0,"P":1624.7809,"I":0.4269,"G":0.0},{"stationName":"上海远东大道(地铁站)","station_id":"上海远东大道(地铁站)_31.20141_121.75093","lineId":"上海地铁2号线","lat":31.20141446,"lon":121.75092969,"area_km2":1.5171,"D":0.1943,"C":0.9751,"T":0.0387,"U1":0.0301,"U2":0.0473,"couplingDegree":0.1943,"level":"极度失调","road_density":18.379,"walk_accessibility":0.3042,"metro_line_density":0.7895,"station_count":1,"line_count":1,"population_density":4499.4054,"poi_density":0.0,"poi_diversity":0.0,"gdp_density":69090.1963,"P":4499.4054,"I":0.0,"G":69090.1963},{"stationName":"上海凌空路(地铁站)","station_id":"上海凌空路(地铁站)_31.19491_121.71973","lineId":"上海地铁2号线","lat":31.19490762,"lon":121.7197285,"area_km2":1.8958,"D":0.1916,"C":1.0,"T":0.0367,"U1":0.0369,"U2":0.0365,"couplingDegree":0.1916,"level":"极度失调","road_density":17.8912,"walk_accessibility":0.3801,"metro_line_density":1.4293,"station_count":1,"line_count":1,"population_density":4690.9594,"poi_density":0.0,"poi_diversity":0.0,"gdp_density":49497.4553,"P":4690.9594,"I":0.0,"G":49497.4553},{"stationName":"上海川沙(地铁站)","station_id":"上海川沙(地铁站)_31.18882_121.69387","lineId":"上海地铁2号线","lat":31.1888237,"lon":121.69387453,"area_km2":2.2367,"D":0.2475,"C":0.8999,"T":0.068,"U1":0.0384,"U2":0.0977,"couplingDegree":0.2475,"level":"中度失调","road_density":16.8357,"walk_accessibility":0.4485,"metro_line_density":1.2116,"station_count":1,"line_count":1,"population_density":11160.9329,"poi_density":1.7883,"poi_diversity":0.5623,"gdp_density":83690.0073,"P":11160.9329,"I":1.7883,"G":83690.0073},{"stationName":"上海华夏东路(地铁站)","station_id":"上海华夏东路(地铁站)_31.19868_121.67667","lineId":"上海地铁2号线","lat":31.19868363,"lon":121.67666725,"area_km2":1.6418,"D":0.2046,"C":0.993,"T":0.0422,"U1":0.0372,"U2":0.0471,"couplingDegree":0.2046,"level":"中度失调","road_density":19.195,"walk_accessibility":0.3292,"metro_line_density":1.518,"station_count":1,"line_count":1,"population_density":7434.5026,"poi_density":1.8273,"poi_diversity":0.6365,"gdp_density":0.0,"P":7434.5026,"I":1.8273,"G":0.0},{"stationName":"上海创新中路(地铁站)","station_id":"上海创新中路(地铁站)_31.21599_121.66942","lineId":"上海地铁2号线","lat":31.21598559,"lon":121.66942139,"area_km2":1.2733,"D":0.0901,"C":0.4349,"T":0.0187,"U1":0.0355,"U2":0.0019,"couplingDegree":0.0901,"level":"极度失调","road_density":20.353,"walk_accessibility":0.2553,"metro_line_density":1.7037,"station_count":1,"line_count":1,"population_density":1044.5149,"poi_density":0.0,"poi_diversity":0.0,"gdp_density":0.0,"P":1044.5149,"I":0.0,"G":0.0},{"stationName":"上海唐镇(地铁站)","station_id":"上海唐镇(地铁站)_31.21625_121.65201","lineId":"上海地铁2号线","lat":31.21625474,"lon":121.65201072,"area_km2":1.7434,"D":0.2644,"C":0.8016,"T":0.0872,"U1":0.0351,"U2":0.1393,"couplingDegree":0.2644,"level":"中度失调","road_density":18.5302,"walk_accessibility":0.3495,"metro_line_density":1.0376,"station_count":1,"line_count":1,"population_density":6135.7346,"poi_density":4.0152,"poi_diversity":1.9459,"gdp_density":48824.8917,"P":6135.7346,"I":4.0152,"G":48824.8917},{"stationName":"上海广兰路(地铁站)","station_id":"上海广兰路(地铁站)_31.21325_121.61686","lineId":"上海地铁2号线","lat":31.21324925,"lon":121.61686455,"area_km2":1.9865,"D":0.3327,"C":0.8513,"T":0.13,"U1":0.0618,"U2":0.1983,"couplingDegree":0.3327,"level":"中度失调","road_density":25.4756,"walk_accessibility":0.3983,"metro_line_density":1.4912,"station_count":1,"line_count":1,"population_density":6259.2297,"poi_density":9.0611,"poi_diversity":2.3513,"gdp_density":101016.0332,"P":6259.2297,"I":9.0611,"G":101016.0332},{"stationName":"上海金科路(地铁站)","station_id":"上海金科路(地铁站)_31.20643_121.59779","lineId":"上海地铁2号线","lat":31.20642676,"lon":121.59778968,"area_km2":1.9092,"D":0.2479,"C":0.9154,"T":0.0671,"U1":0.0401,"U2":0.0942,"couplingDegree":0.2479,"level":"中度失调","road_density":18.7748,"walk_accessibility":0.3828,"metro_line_density":1.5023,"station_count":1,"line_count":1,"population_density":6894.505,"poi_density":2.6189,"poi_diversity":1.6094,"gdp_density":0.0,"P":6894.505,"I":2.6189,"G":0.0},{"stationName":"上海张江高科(地铁站)","station_id":"上海张江高科(地铁站)_31.20409_121.58329","lineId":"上海地铁2号线","lat":31.20408548,"lon":121.58328664,"area_km2":2.1967,"D":0.2624,"C":0.9233,"T":0.0746,"U1":0.0459,"U2":0.1032,"couplingDegree":0.2624,"level":"中度失调","road_density":19.4865,"walk_accessibility":0.4404,"metro_line_density":1.2367,"station_count":1,"line_count":1,"population_density":7825.4361,"poi_density":5.918,"poi_diversity":1.6313,"gdp_density":0.0,"P":7825.4361,"I":5.918,"G":0.0},{"stationName":"上海世纪公园(地铁站)","station_id":"上海世纪公园(地铁站)_31.21159_121.54665","lineId":"上海地铁2号线","lat":31.21158603,"lon":121.54664538,"area_km2":2.445,"D":0.5778,"C":0.9305,"T":0.3588,"U1":0.4902,"U2":0.2274,"couplingDegree":0.5778,"level":"勉强协调","road_density":27.5647,"walk_accessibility":0.4902,"metro_line_density":4.0049,"station_count":4,"line_count":4,"population_density":6732.1757,"poi_density":14.7241,"poi_diversity":2.8613,"gdp_density":88764.5136,"P":6732.1757,"I":14.7241,"G":88764.5136},{"stationName":"上海上海科技馆(地铁站)","station_id":"上海上海科技馆(地铁站)_31.22097_121.54016","lineId":"上海地铁2号线","lat":31.22096549,"lon":121.54015729,"area_km2":3.2412,"D":0.5684,"C":0.8608,"T":0.3753,"U1":0.5663,"U2":0.1843,"couplingDegree":0.5684,"level":"勉强协调","road_density":32.9555,"walk_accessibility":0.6499,"metro_line_density":3.4672,"station_count":5,"line_count":4,"population_density":2491.6551,"poi_density":9.2558,"poi_diversity":2.5284,"gdp_density":72800.3857,"P":2491.6551,"I":9.2558,"G":72800.3857},{"stationName":"上海浦东南路(原东昌路)(地铁站)","station_id":"上海浦东南路(原东昌路)(地铁站)_31.23533_121.51118","lineId":"上海地铁2号线","lat":31.2353341,"lon":121.5111808,"area_km2":4.2622,"D":0.588,"C":0.8986,"T":0.3847,"U1":0.5535,"U2":0.2159,"couplingDegree":0.588,"level":"勉强协调","road_density":36.9841,"walk_accessibility":0.8546,"metro_line_density":5.5519,"station_count":4,"line_count":4,"population_density":16324.0092,"poi_density":11.9655,"poi_diversity":2.8964,"gdp_density":44917.8303,"P":16324.0092,"I":11.9655,"G":44917.8303},{"stationName":"上海陆家嘴(地铁站)","station_id":"上海陆家嘴(地铁站)_31.23875_121.49806","lineId":"上海地铁14号线 / 上海地铁2号线","lat":31.238746165000002,"lon":121.49806153,"area_km2":3.0308,"D":0.4901,"C":0.9982,"T":0.2407,"U1":0.2261,"U2":0.2553,"couplingDegree":0.4901,"level":"勉强协调","road_density":42.5232,"walk_accessibility":0.6077,"metro_line_density":4.0086,"station_count":1,"line_count":2,"population_density":12683.5349,"poi_density":29.3654,"poi_diversity":2.6561,"gdp_density":87089.4708,"P":12683.5349,"I":29.3654,"G":87089.4708},{"stationName":"上海南京东路(地铁站)","station_id":"上海南京东路(地铁站)_31.23957_121.47963","lineId":"上海地铁10号线 / 上海地铁2号线","lat":31.23956866,"lon":121.47962986499999,"area_km2":3.7709,"D":0.8101,"C":1.0,"T":0.6563,"U1":0.6567,"U2":0.656,"couplingDegree":0.8101,"level":"优质协调","road_density":31.081,"walk_accessibility":0.7561,"metro_line_density":3.7855,"station_count":5,"line_count":5,"population_density":30628.5244,"poi_density":106.6059,"poi_diversity":3.0303,"gdp_density":443456.3323,"P":30628.5244,"I":106.6059,"G":443456.3323},{"stationName":"上海南京西路(地铁站)","station_id":"上海南京西路(地铁站)_31.23112_121.45664","lineId":"上海地铁13号线 / 上海地铁2号线","lat":31.231121675,"lon":121.456641515,"area_km2":3.1486,"D":0.6954,"C":0.9883,"T":0.4894,"U1":0.4147,"U2":0.564,"couplingDegree":0.6954,"level":"良好协调","road_density":28.6172,"walk_accessibility":0.6313,"metro_line_density":3.0223,"station_count":4,"line_count":3,"population_density":28603.3323,"poi_density":128.9468,"poi_diversity":3.0744,"gdp_density":208876.4218,"P":28603.3323,"I":128.9468,"G":208876.4218},{"stationName":"上海江苏路(地铁站)","station_id":"上海江苏路(地铁站)_31.22201_121.42692","lineId":"上海地铁11号线 / 上海地铁2号线","lat":31.222012560000003,"lon":121.42691964,"area_km2":2.9026,"D":0.4482,"C":0.9889,"T":0.2031,"U1":0.1729,"U2":0.2334,"couplingDegree":0.4482,"level":"勉强协调","road_density":25.8125,"walk_accessibility":0.582,"metro_line_density":4.0316,"station_count":1,"line_count":2,"population_density":19652.3411,"poi_density":36.5189,"poi_diversity":2.6856,"gdp_density":0.0,"P":19652.3411,"I":36.5189,"G":0.0},{"stationName":"上海娄山关路(地铁站)","station_id":"上海娄山关路(地铁站)_31.21395_121.39738","lineId":"上海地铁15号线 / 上海地铁2号线","lat":31.213947245,"lon":121.39738009,"area_km2":2.7612,"D":0.5689,"C":0.7874,"T":0.411,"U1":0.1576,"U2":0.6644,"couplingDegree":0.5689,"level":"勉强协调","road_density":23.1715,"walk_accessibility":0.5536,"metro_line_density":2.6256,"station_count":1,"line_count":2,"population_density":26353.1754,"poi_density":202.8087,"poi_diversity":3.0423,"gdp_density":145815.4475,"P":26353.1754,"I":202.8087,"G":145815.4475},{"stationName":"上海威宁路(地铁站)","station_id":"上海威宁路(地铁站)_31.21672_121.38264","lineId":"上海地铁2号线","lat":31.21671684,"lon":121.38263986,"area_km2":2.3448,"D":0.3437,"C":0.8407,"T":0.1405,"U1":0.0644,"U2":0.2166,"couplingDegree":0.3437,"level":"中度失调","road_density":23.4281,"walk_accessibility":0.4701,"metro_line_density":2.3906,"station_count":1,"line_count":1,"population_density":22018.159,"poi_density":24.3087,"poi_diversity":2.7383,"gdp_density":0.0,"P":22018.159,"I":24.3087,"G":0.0},{"stationName":"上海北新泾(地铁站)","station_id":"上海北新泾(地铁站)_31.21825_121.36937","lineId":"上海地铁2号线","lat":31.21825356,"lon":121.3693669,"area_km2":2.5871,"D":0.4157,"C":0.7812,"T":0.2212,"U1":0.0831,"U2":0.3593,"couplingDegree":0.4157,"level":"勉强协调","road_density":28.4442,"walk_accessibility":0.5187,"metro_line_density":2.2398,"station_count":1,"line_count":1,"population_density":10960.6401,"poi_density":43.2921,"poi_diversity":3.3732,"gdp_density":168180.269,"P":10960.6401,"I":43.2921,"G":168180.269},{"stationName":"上海国家会展中心(2号线)(地铁站)","station_id":"上海国家会展中心(2号线)(地铁站)_31.19037_121.29473","lineId":"上海地铁2号线","lat":31.19036678,"lon":121.29472806,"area_km2":1.9167,"D":0.3546,"C":0.6466,"T":0.1945,"U1":0.3429,"U2":0.0461,"couplingDegree":0.3546,"level":"中度失调","road_density":26.4079,"walk_accessibility":0.3843,"metro_line_density":3.9686,"station_count":3,"line_count":3,"population_density":2673.3101,"poi_density":1.5652,"poi_diversity":0.6365,"gdp_density":14012.9656,"P":2673.3101,"I":1.5652,"G":14012.9656},{"stationName":"上海蟠祥路(地铁站)","station_id":"上海蟠祥路(地铁站)_31.18406_121.28299","lineId":"上海地铁2号线","lat":31.1840645,"lon":121.28298674,"area_km2":1.6661,"D":0.2132,"C":0.3723,"T":0.1221,"U1":0.2355,"U2":0.0088,"couplingDegree":0.2132,"level":"中度失调","road_density":21.8203,"walk_accessibility":0.334,"metro_line_density":3.1707,"station_count":3,"line_count":2,"population_density":4931.3241,"poi_density":0.0,"poi_diversity":0.0,"gdp_density":0.0,"P":4931.3241,"I":0.0,"G":0.0},{"stationName":"上海石龙路(地铁站)","station_id":"上海石龙路(地铁站)_31.15986_121.43860","lineId":"上海地铁3号线","lat":31.159856395,"lon":121.43860487,"area_km2":1.434,"D":0.5373,"C":0.9967,"T":0.2896,"U1":0.266,"U2":0.3133,"couplingDegree":0.5373,"level":"勉强协调","road_density":18.6084,"walk_accessibility":0.2875,"metro_line_density":4.9467,"station_count":2,"line_count":3,"population_density":41277.8503,"poi_density":2.7893,"poi_diversity":1.3863,"gdp_density":296003.3433,"P":41277.8503,"I":2.7893,"G":296003.3433},{"stationName":"上海龙漕路(地铁站)","station_id":"上海龙漕路(地铁站)_31.17136_121.43978","lineId":"上海地铁3号线","lat":31.17136246,"lon":121.43978352,"area_km2":2.0729,"D":0.5866,"C":0.9705,"T":0.3545,"U1":0.44,"U2":0.2691,"couplingDegree":0.5866,"level":"勉强协调","road_density":22.0931,"walk_accessibility":0.4156,"metro_line_density":6.8827,"station_count":5,"line_count":3,"population_density":27315.3375,"poi_density":5.3066,"poi_diversity":1.7678,"gdp_density":221337.1127,"P":27315.3375,"I":5.3066,"G":221337.1127},{"stationName":"上海漕溪路(地铁站)","station_id":"上海漕溪路(地铁站)_31.17864_121.43380","lineId":"上海地铁3号线","lat":31.17863651,"lon":121.43379847,"area_km2":1.9684,"D":0.6805,"C":0.9258,"T":0.5002,"U1":0.6893,"U2":0.3112,"couplingDegree":0.6805,"level":"良好协调","road_density":28.7905,"walk_accessibility":0.3947,"metro_line_density":9.3366,"station_count":6,"line_count":5,"population_density":13780.6929,"poi_density":18.2889,"poi_diversity":2.4924,"gdp_density":233087.0651,"P":13780.6929,"I":18.2889,"G":233087.0651},{"stationName":"上海宜山路(地铁站)","station_id":"上海宜山路(地铁站)_31.18788_121.42264","lineId":"上海地铁3号线 / 上海地铁4号线 / 上海地铁9号线","lat":31.1878847,"lon":121.42264432,"area_km2":2.5916,"D":0.5196,"C":0.9235,"T":0.2923,"U1":0.4044,"U2":0.1802,"couplingDegree":0.5196,"level":"勉强协调","road_density":26.941,"walk_accessibility":0.5196,"metro_line_density":7.1891,"station_count":2,"line_count":4,"population_density":22415.5089,"poi_density":10.4183,"poi_diversity":2.5189,"gdp_density":0.0,"P":22415.5089,"I":10.4183,"G":0.0},{"stationName":"上海虹桥路(地铁站)","station_id":"上海虹桥路(地铁站)_31.19894_121.41700","lineId":"上海地铁10号线 / 上海地铁3号线 / 上海地铁4号线","lat":31.19893825,"lon":121.4169995475,"area_km2":3.1907,"D":0.5465,"C":0.9985,"T":0.2991,"U1":0.3155,"U2":0.2828,"couplingDegree":0.5465,"level":"勉强协调","road_density":25.1448,"walk_accessibility":0.6397,"metro_line_density":5.3623,"station_count":2,"line_count":3,"population_density":20879.9903,"poi_density":18.4912,"poi_diversity":2.9536,"gdp_density":121482.0415,"P":20879.9903,"I":18.4912,"G":121482.0415},{"stationName":"上海延安西路(地铁站)","station_id":"上海延安西路(地铁站)_31.21147_121.41242","lineId":"上海地铁3号线","lat":31.21146575,"lon":121.41241925,"area_km2":3.3431,"D":0.5312,"C":0.9893,"T":0.2852,"U1":0.2437,"U2":0.3268,"couplingDegree":0.5312,"level":"勉强协调","road_density":30.6086,"walk_accessibility":0.6703,"metro_line_density":4.1026,"station_count":2,"line_count":2,"population_density":34958.1377,"poi_density":31.1087,"poi_diversity":2.8986,"gdp_density":116903.322,"P":34958.1377,"I":31.1087,"G":116903.322},{"stationName":"上海金沙江路(地铁站)","station_id":"上海金沙江路(地铁站)_31.23350_121.40783","lineId":"上海地铁13号线 / 上海地铁3号线","lat":31.233497315,"lon":121.40783292,"area_km2":3.008,"D":0.5966,"C":0.9452,"T":0.3765,"U1":0.4994,"U2":0.2536,"couplingDegree":0.5966,"level":"勉强协调","road_density":26.2215,"walk_accessibility":0.6031,"metro_line_density":5.2156,"station_count":4,"line_count":4,"population_density":33759.7761,"poi_density":25.5985,"poi_diversity":2.1494,"gdp_density":73404.2168,"P":33759.7761,"I":25.5985,"G":73404.2168},{"stationName":"上海曹杨路(地铁站)","station_id":"上海曹杨路(地铁站)_31.24092_121.41402","lineId":"上海地铁11号线 / 上海地铁14号线 / 上海地铁3号线","lat":31.24092087,"lon":121.414017685,"area_km2":2.4253,"D":0.6014,"C":0.9475,"T":0.3817,"U1":0.5037,"U2":0.2596,"couplingDegree":0.6014,"level":"良好协调","road_density":27.2683,"walk_accessibility":0.4863,"metro_line_density":8.1738,"station_count":4,"line_count":4,"population_density":35627.3162,"poi_density":14.019,"poi_diversity":2.4609,"gdp_density":91040.8512,"P":35627.3162,"I":14.019,"G":91040.8512},{"stationName":"上海镇坪路(地铁站)","station_id":"上海镇坪路(地铁站)_31.24841_121.42610","lineId":"上海地铁3号线 / 上海地铁7号线","lat":31.248411654999998,"lon":121.42609662999999,"area_km2":2.6791,"D":0.5165,"C":0.9898,"T":0.2695,"U1":0.308,"U2":0.2311,"couplingDegree":0.5165,"level":"勉强协调","road_density":24.3518,"walk_accessibility":0.5371,"metro_line_density":6.2364,"station_count":2,"line_count":3,"population_density":41959.1863,"poi_density":14.5574,"poi_diversity":2.6901,"gdp_density":0.0,"P":41959.1863,"I":14.5574,"G":0.0},{"stationName":"上海中潭路(地铁站)","station_id":"上海中潭路(地铁站)_31.25643_121.43639","lineId":"上海地铁3号线","lat":31.25642627,"lon":121.43638781,"area_km2":2.4935,"D":0.5042,"C":0.9904,"T":0.2567,"U1":0.2212,"U2":0.2923,"couplingDegree":0.5042,"level":"勉强协调","road_density":27.3354,"walk_accessibility":0.4999,"metro_line_density":4.409,"station_count":2,"line_count":2,"population_density":41669.6484,"poi_density":16.0416,"poi_diversity":2.9735,"gdp_density":79721.115,"P":41669.6484,"I":16.0416,"G":79721.115},{"stationName":"上海宝山路(地铁站)","station_id":"上海宝山路(地铁站)_31.25346_121.47178","lineId":"上海地铁3号线","lat":31.25346217,"lon":121.47178086,"area_km2":2.6428,"D":0.6414,"C":0.986,"T":0.4172,"U1":0.4868,"U2":0.3476,"couplingDegree":0.6414,"level":"良好协调","road_density":21.1024,"walk_accessibility":0.5299,"metro_line_density":4.6083,"station_count":6,"line_count":3,"population_density":40864.2308,"poi_density":11.3515,"poi_diversity":2.5345,"gdp_density":232311.6594,"P":40864.2308,"I":11.3515,"G":232311.6594},{"stationName":"上海东宝兴路(地铁站)","station_id":"上海东宝兴路(地铁站)_31.26183_121.47570","lineId":"上海地铁3号线","lat":31.26183279,"lon":121.47569748,"area_km2":3.1459,"D":0.6875,"C":0.9431,"T":0.5011,"U1":0.6678,"U2":0.3345,"couplingDegree":0.6875,"level":"良好协调","road_density":20.2161,"walk_accessibility":0.6308,"metro_line_density":5.3534,"station_count":6,"line_count":5,"population_density":33408.3601,"poi_density":19.39,"poi_diversity":2.6574,"gdp_density":195158.5935,"P":33408.3601,"I":19.39,"G":195158.5935},{"stationName":"上海虹口足球场(地铁站)","station_id":"上海虹口足球场(地铁站)_31.27283_121.47470","lineId":"上海地铁3号线 / 上海地铁8号线","lat":31.272831903333337,"lon":121.47470314666667,"area_km2":2.9026,"D":0.5434,"C":0.9976,"T":0.296,"U1":0.2757,"U2":0.3164,"couplingDegree":0.5434,"level":"勉强协调","road_density":25.0696,"walk_accessibility":0.582,"metro_line_density":6.1434,"station_count":3,"line_count":2,"population_density":46174.0959,"poi_density":13.7805,"poi_diversity":2.5149,"gdp_density":154114.2745,"P":46174.0959,"I":13.7805,"G":154114.2745},{"stationName":"上海赤峰路(地铁站)","station_id":"上海赤峰路(地铁站)_31.28319_121.47793","lineId":"上海地铁3号线","lat":31.28319225,"lon":121.47793119,"area_km2":3.29,"D":0.5279,"C":0.9763,"T":0.2854,"U1":0.3472,"U2":0.2237,"couplingDegree":0.5279,"level":"勉强协调","road_density":32.7444,"walk_accessibility":0.6596,"metro_line_density":4.1796,"station_count":4,"line_count":2,"population_density":32222.152,"poi_density":1.8237,"poi_diversity":1.7918,"gdp_density":135969.1471,"P":32222.152,"I":1.8237,"G":135969.1471},{"stationName":"上海大柏树(地铁站)","station_id":"上海大柏树(地铁站)_31.29138_121.47872","lineId":"上海地铁3号线","lat":31.29137698,"lon":121.47871962,"area_km2":2.4501,"D":0.4254,"C":0.9835,"T":0.184,"U1":0.1508,"U2":0.2173,"couplingDegree":0.4254,"level":"勉强协调","road_density":34.1026,"walk_accessibility":0.4912,"metro_line_density":3.3025,"station_count":2,"line_count":1,"population_density":39391.1244,"poi_density":0.8163,"poi_diversity":0.6931,"gdp_density":197913.1456,"P":39391.1244,"I":0.8163,"G":197913.1456},{"stationName":"上海江湾镇(地铁站)","station_id":"上海江湾镇(地铁站)_31.30873_121.48060","lineId":"上海地铁20号线 / 上海地铁3号线","lat":31.308728435,"lon":121.480602725,"area_km2":1.8997,"D":0.3672,"C":0.7605,"T":0.1773,"U1":0.2924,"U2":0.0622,"couplingDegree":0.3672,"level":"中度失调","road_density":24.3637,"walk_accessibility":0.3809,"metro_line_density":5.3492,"station_count":2,"line_count":3,"population_density":15193.3096,"poi_density":1.0528,"poi_diversity":0.6931,"gdp_density":0.0,"P":15193.3096,"I":1.0528,"G":0.0},{"stationName":"上海殷高西路(地铁站)","station_id":"上海殷高西路(地铁站)_31.32194_121.48036","lineId":"上海地铁3号线","lat":31.32194102,"lon":121.48036209,"area_km2":1.8166,"D":0.0,"C":0.0,"T":0.1036,"U1":0.2071,"U2":0.0,"couplingDegree":0.0,"level":"极度失调","road_density":27.2187,"walk_accessibility":0.3642,"metro_line_density":3.5955,"station_count":2,"line_count":2,"population_density":0.0,"poi_density":0.0,"poi_diversity":0.0,"gdp_density":0.0,"P":0.0,"I":0.0,"G":0.0},{"stationName":"上海长江南路(地铁站)","station_id":"上海长江南路(地铁站)_31.33386_121.48603","lineId":"上海地铁18号线 / 上海地铁3号线","lat":31.33385695,"lon":121.48602720000001,"area_km2":1.454,"D":0.3812,"C":0.9313,"T":0.156,"U1":0.2128,"U2":0.0992,"couplingDegree":0.3812,"level":"中度失调","road_density":26.6361,"walk_accessibility":0.2915,"metro_line_density":7.3406,"station_count":2,"line_count":2,"population_density":10954.5717,"poi_density":4.8143,"poi_diversity":1.4751,"gdp_density":0.0,"P":10954.5717,"I":4.8143,"G":0.0},{"stationName":"上海淞发路(地铁站)","station_id":"上海淞发路(地铁站)_31.34711_121.49595","lineId":"上海地铁3号线","lat":31.34710814,"lon":121.49595013,"area_km2":2.0762,"D":0.2697,"C":0.9999,"T":0.0728,"U1":0.0717,"U2":0.0738,"couplingDegree":0.2697,"level":"中度失调","road_density":26.8095,"walk_accessibility":0.4163,"metro_line_density":2.74,"station_count":1,"line_count":1,"population_density":9486.0758,"poi_density":0.9633,"poi_diversity":0.6931,"gdp_density":38615.7218,"P":9486.0758,"I":0.9633,"G":38615.7218},{"stationName":"上海张华浜(地铁站)","station_id":"上海张华浜(地铁站)_31.35998_121.49422","lineId":"上海地铁3号线","lat":31.35997956,"lon":121.4942232,"area_km2":1.2524,"D":0.2255,"C":0.9465,"T":0.0537,"U1":0.0711,"U2":0.0364,"couplingDegree":0.2255,"level":"中度失调","road_density":28.8967,"walk_accessibility":0.2511,"metro_line_density":4.4628,"station_count":1,"line_count":1,"population_density":0.0,"poi_density":0.0,"poi_diversity":0.0,"gdp_density":64016.9486,"P":0.0,"I":0.0,"G":64016.9486},{"stationName":"上海淞滨路(地铁站)","station_id":"上海淞滨路(地铁站)_31.37287_121.48835","lineId":"上海地铁3号线","lat":31.37287018,"lon":121.48834979,"area_km2":1.6219,"D":0.2691,"C":0.8994,"T":0.0805,"U1":0.1157,"U2":0.0453,"couplingDegree":0.2691,"level":"中度失调","road_density":26.9182,"walk_accessibility":0.3252,"metro_line_density":3.3413,"station_count":2,"line_count":1,"population_density":11587.7738,"poi_density":0.6166,"poi_diversity":0.0,"gdp_density":41346.4149,"P":11587.7738,"I":0.6166,"G":41346.4149},{"stationName":"上海水产路(地铁站)","station_id":"上海水产路(地铁站)_31.38323_121.48376","lineId":"上海地铁3号线","lat":31.38322778,"lon":121.48376147,"area_km2":1.0764,"D":0.0,"C":0.0,"T":0.0578,"U1":0.1155,"U2":0.0,"couplingDegree":0.0,"level":"极度失调","road_density":27.4228,"walk_accessibility":0.2158,"metro_line_density":5.3176,"station_count":2,"line_count":1,"population_density":0.0,"poi_density":0.0,"poi_diversity":0.0,"gdp_density":0.0,"P":0.0,"I":0.0,"G":0.0},{"stationName":"上海宝杨路(地铁站)","station_id":"上海宝杨路(地铁站)_31.39721_121.47506","lineId":"上海地铁3号线","lat":31.39721093,"lon":121.47505543,"area_km2":1.3211,"D":0.3223,"C":0.9995,"T":0.104,"U1":0.1073,"U2":0.1006,"couplingDegree":0.3223,"level":"中度失调","road_density":24.539,"walk_accessibility":0.2649,"metro_line_density":4.3831,"station_count":2,"line_count":1,"population_density":24599.1292,"poi_density":2.2709,"poi_diversity":1.0986,"gdp_density":0.0,"P":24599.1292,"I":2.2709,"G":0.0},{"stationName":"上海友谊路(地铁站)","station_id":"上海友谊路(地铁站)_31.40590_121.47139","lineId":"上海地铁3号线","lat":31.40589946,"lon":121.47139412,"area_km2":1.4863,"D":0.2397,"C":0.8412,"T":0.0683,"U1":0.1052,"U2":0.0314,"couplingDegree":0.2397,"level":"中度失调","road_density":23.7229,"walk_accessibility":0.298,"metro_line_density":3.7479,"station_count":2,"line_count":1,"population_density":16890.2169,"poi_density":0.6728,"poi_diversity":0.0,"gdp_density":0.0,"P":16890.2169,"I":0.6728,"G":0.0},{"stationName":"上海铁力路(地铁站)","station_id":"上海铁力路(地铁站)_31.40996_121.45656","lineId":"上海地铁3号线","lat":31.409964685,"lon":121.456561565,"area_km2":1.6037,"D":0.2263,"C":0.9667,"T":0.053,"U1":0.0666,"U2":0.0394,"couplingDegree":0.2263,"level":"中度失调","road_density":26.6508,"walk_accessibility":0.3215,"metro_line_density":3.5484,"station_count":1,"line_count":1,"population_density":9906.7909,"poi_density":0.0,"poi_diversity":0.0,"gdp_density":38356.3906,"P":9906.7909,"I":0.0,"G":38356.3906},{"stationName":"上海江杨北路(地铁站)","station_id":"上海江杨北路(地铁站)_31.40966_121.43519","lineId":"上海地铁3号线","lat":31.40965845,"lon":121.43519049,"area_km2":1.5497,"D":0.1857,"C":0.9453,"T":0.0365,"U1":0.0484,"U2":0.0246,"couplingDegree":0.1857,"level":"极度失调","road_density":24.9956,"walk_accessibility":0.3107,"metro_line_density":0.0789,"station_count":1,"line_count":1,"population_density":13812.27,"poi_density":0.0,"poi_diversity":0.0,"gdp_density":0.0,"P":13812.27,"I":0.0,"G":0.0},{"stationName":"上海海伦路(地铁站)","station_id":"上海海伦路(地铁站)_31.26110_121.48461","lineId":"上海地铁10号线 / 上海地铁19号线 / 上海地铁4号线","lat":31.2611021775,"lon":121.4846140375,"area_km2":3.0604,"D":0.6161,"C":0.9408,"T":0.4035,"U1":0.5403,"U2":0.2667,"couplingDegree":0.6161,"level":"良好协调","road_density":23.863,"walk_accessibility":0.6136,"metro_line_density":4.7847,"station_count":5,"line_count":4,"population_density":63009.642,"poi_density":16.3377,"poi_diversity":2.5788,"gdp_density":0.0,"P":63009.642,"I":16.3377,"G":0.0},{"stationName":"上海临平路(地铁站)","station_id":"上海临平路(地铁站)_31.26288_121.49626","lineId":"上海地铁4号线","lat":31.262881505000003,"lon":121.496264755,"area_km2":3.157,"D":0.5678,"C":0.9777,"T":0.3298,"U1":0.3991,"U2":0.2605,"couplingDegree":0.5678,"level":"勉强协调","road_density":22.824,"walk_accessibility":0.633,"metro_line_density":3.5843,"station_count":4,"line_count":3,"population_density":35801.6001,"poi_density":6.3352,"poi_diversity":2.082,"gdp_density":149810.2346,"P":35801.6001,"I":6.3352,"G":149810.2346},{"stationName":"上海大连路(地铁站)","station_id":"上海大连路(地铁站)_31.25998_121.50870","lineId":"上海地铁4号线","lat":31.25998412,"lon":121.50870081,"area_km2":2.6899,"D":0.475,"C":0.9671,"T":0.2333,"U1":0.2927,"U2":0.174,"couplingDegree":0.475,"level":"勉强协调","road_density":20.1692,"walk_accessibility":0.5393,"metro_line_density":2.3758,"station_count":4,"line_count":2,"population_density":28881.4417,"poi_density":8.9222,"poi_diversity":2.2074,"gdp_density":0.0,"P":28881.4417,"I":8.9222,"G":0.0},{"stationName":"上海杨树浦路(地铁站)","station_id":"上海杨树浦路(地铁站)_31.25400_121.51284","lineId":"上海地铁4号线","lat":31.2539951,"lon":121.51283866,"area_km2":2.1994,"D":0.4841,"C":1.0,"T":0.2344,"U1":0.2332,"U2":0.2356,"couplingDegree":0.4841,"level":"勉强协调","road_density":18.5555,"walk_accessibility":0.441,"metro_line_density":2.9333,"station_count":3,"line_count":2,"population_density":22176.9273,"poi_density":4.5468,"poi_diversity":1.8867,"gdp_density":171214.0626,"P":22176.9273,"I":4.5468,"G":171214.0626},{"stationName":"上海浦东大道(地铁站)","station_id":"上海浦东大道(地铁站)_31.24238_121.51494","lineId":"上海地铁4号线","lat":31.24237941,"lon":121.51493791,"area_km2":3.488,"D":0.5422,"C":0.89,"T":0.3303,"U1":0.481,"U2":0.1797,"couplingDegree":0.5422,"level":"勉强协调","road_density":33.3573,"walk_accessibility":0.6993,"metro_line_density":5.4561,"station_count":3,"line_count":4,"population_density":17584.8218,"poi_density":6.0206,"poi_diversity":2.2121,"gdp_density":54888.348,"P":17584.8218,"I":6.0206,"G":54888.348},{"stationName":"上海向城路(地铁站)","station_id":"上海向城路(地铁站)_31.22440_121.52776","lineId":"上海地铁4号线","lat":31.22439979,"lon":121.52776134,"area_km2":3.9467,"D":0.5337,"C":0.8251,"T":0.3452,"U1":0.5402,"U2":0.1502,"couplingDegree":0.5337,"level":"勉强协调","road_density":30.9933,"walk_accessibility":0.7913,"metro_line_density":5.2825,"station_count":6,"line_count":3,"population_density":8136.8405,"poi_density":10.3883,"poi_diversity":2.424,"gdp_density":0.0,"P":8136.8405,"I":10.3883,"G":0.0},{"stationName":"上海蓝村路(地铁站)","station_id":"上海蓝村路(地铁站)_31.21373_121.52343","lineId":"上海地铁4号线 / 上海地铁6号线","lat":31.21372554,"lon":121.523430885,"area_km2":2.5268,"D":0.5571,"C":0.9285,"T":0.3342,"U1":0.4583,"U2":0.2101,"couplingDegree":0.5571,"level":"勉强协调","road_density":27.9217,"walk_accessibility":0.5066,"metro_line_density":4.9673,"station_count":5,"line_count":3,"population_density":13493.5819,"poi_density":11.4768,"poi_diversity":2.4323,"gdp_density":84256.528,"P":13493.5819,"I":11.4768,"G":84256.528},{"stationName":"上海塘桥(地铁站)","station_id":"上海塘桥(地铁站)_31.21208_121.51389","lineId":"上海地铁19号线 / 上海地铁4号线","lat":31.212079146666667,"lon":121.51389470666668,"area_km2":2.552,"D":0.5216,"C":0.9657,"T":0.2818,"U1":0.3549,"U2":0.2086,"couplingDegree":0.5216,"level":"勉强协调","road_density":26.1282,"walk_accessibility":0.5117,"metro_line_density":4.7454,"station_count":3,"line_count":3,"population_density":13175.9891,"poi_density":9.7963,"poi_diversity":2.4907,"gdp_density":83425.8564,"P":13175.9891,"I":9.7963,"G":83425.8564},{"stationName":"上海南浦大桥(地铁站)","station_id":"上海南浦大桥(地铁站)_31.21053_121.49529","lineId":"上海地铁4号线","lat":31.21053316,"lon":121.49529392,"area_km2":2.8972,"D":0.5934,"C":0.966,"T":0.3645,"U1":0.2703,"U2":0.4588,"couplingDegree":0.5934,"level":"勉强协调","road_density":27.2131,"walk_accessibility":0.5809,"metro_line_density":2.7974,"station_count":3,"line_count":2,"population_density":22858.1353,"poi_density":2.7613,"poi_diversity":1.9062,"gdp_density":566022.9184,"P":22858.1353,"I":2.7613,"G":566022.9184},{"stationName":"上海西藏南路(地铁站)","station_id":"上海西藏南路(地铁站)_31.20397_121.48509","lineId":"上海地铁4号线","lat":31.20396821,"lon":121.48508793,"area_km2":2.9382,"D":0.517,"C":0.9214,"T":0.2901,"U1":0.4029,"U2":0.1774,"couplingDegree":0.517,"level":"勉强协调","road_density":24.8853,"walk_accessibility":0.5891,"metro_line_density":3.8494,"station_count":4,"line_count":3,"population_density":19730.6584,"poi_density":8.1682,"poi_diversity":2.6505,"gdp_density":0.0,"P":19730.6584,"I":8.1682,"G":0.0},{"stationName":"上海鲁班路(地铁站)","station_id":"上海鲁班路(地铁站)_31.20118_121.47063","lineId":"上海地铁4号线","lat":31.20118265,"lon":121.47063185,"area_km2":2.6139,"D":0.6797,"C":0.9915,"T":0.466,"U1":0.4054,"U2":0.5266,"couplingDegree":0.6797,"level":"良好协调","road_density":28.5494,"walk_accessibility":0.5241,"metro_line_density":2.8551,"station_count":4,"line_count":3,"population_density":32600.2148,"poi_density":30.9877,"poi_diversity":2.6429,"gdp_density":497649.1752,"P":32600.2148,"I":30.9877,"G":497649.1752},{"stationName":"上海大木桥路(地铁站)","station_id":"上海大木桥路(地铁站)_31.19599_121.45873","lineId":"上海地铁4号线","lat":31.195989140000002,"lon":121.45872563500001,"area_km2":2.6763,"D":0.5838,"C":0.9897,"T":0.3444,"U1":0.3938,"U2":0.295,"couplingDegree":0.5838,"level":"勉强协调","road_density":24.297,"walk_accessibility":0.5366,"metro_line_density":2.9709,"station_count":4,"line_count":3,"population_density":26777.5696,"poi_density":17.9352,"poi_diversity":2.6893,"gdp_density":148663.4318,"P":26777.5696,"I":17.9352,"G":148663.4318},{"stationName":"上海东安路(地铁站)","station_id":"上海东安路(地铁站)_31.19273_121.45032","lineId":"上海地铁4号线","lat":31.1927333,"lon":121.4503209,"area_km2":2.1722,"D":0.6594,"C":0.9838,"T":0.442,"U1":0.5212,"U2":0.3627,"couplingDegree":0.6594,"level":"良好协调","road_density":22.0654,"walk_accessibility":0.4355,"metro_line_density":4.9708,"station_count":5,"line_count":4,"population_density":36459.3213,"poi_density":33.6065,"poi_diversity":2.7049,"gdp_density":183163.9293,"P":36459.3213,"I":33.6065,"G":183163.9293},{"stationName":"上海上海体育场(地铁站)","station_id":"上海上海体育场(地铁站)_31.18750_121.43892","lineId":"上海地铁23号线 / 上海地铁4号线","lat":31.187497855,"lon":121.43892246499999,"area_km2":2.3774,"D":0.6987,"C":0.9106,"T":0.5361,"U1":0.7577,"U2":0.3145,"couplingDegree":0.6987,"level":"良好协调","road_density":24.3677,"walk_accessibility":0.4767,"metro_line_density":6.1917,"station_count":6,"line_count":6,"population_density":34540.8917,"poi_density":59.3096,"poi_diversity":2.9144,"gdp_density":0.0,"P":34540.8917,"I":59.3096,"G":0.0},{"stationName":"上海闵行开发区(地铁站)","station_id":"上海闵行开发区(地铁站)_31.00261_121.36511","lineId":"上海地铁5号线","lat":31.00260857,"lon":121.36510635,"area_km2":1.6655,"D":0.2028,"C":0.8402,"T":0.049,"U1":0.0755,"U2":0.0224,"couplingDegree":0.2028,"level":"中度失调","road_density":16.4577,"walk_accessibility":0.3339,"metro_line_density":0.8352,"station_count":2,"line_count":1,"population_density":12591.4044,"poi_density":0.0,"poi_diversity":0.0,"gdp_density":0.0,"P":12591.4044,"I":0.0,"G":0.0},{"stationName":"上海文井路(地铁站)","station_id":"上海文井路(地铁站)_31.00556_121.37615","lineId":"上海地铁5号线","lat":31.00556401,"lon":121.3761541,"area_km2":1.5058,"D":0.209,"C":0.8884,"T":0.0492,"U1":0.0718,"U2":0.0266,"couplingDegree":0.209,"level":"中度失调","road_density":15.1949,"walk_accessibility":0.3019,"metro_line_density":1.5823,"station_count":2,"line_count":1,"population_density":14944.1585,"poi_density":0.0,"poi_diversity":0.0,"gdp_density":0.0,"P":14944.1585,"I":0.0,"G":0.0},{"stationName":"上海华宁路(地铁站)","station_id":"上海华宁路(地铁站)_31.00942_121.39062","lineId":"上海地铁5号线","lat":31.00942305,"lon":121.39062465,"area_km2":0.9148,"D":0.2192,"C":0.8428,"T":0.057,"U1":0.0263,"U2":0.0877,"couplingDegree":0.2192,"level":"中度失调","road_density":17.586,"walk_accessibility":0.1834,"metro_line_density":3.129,"station_count":1,"line_count":1,"population_density":19104.3276,"poi_density":0.0,"poi_diversity":0.0,"gdp_density":94513.7884,"P":19104.3276,"I":0.0,"G":94513.7884},{"stationName":"上海金平路(地铁站)","station_id":"上海金平路(地铁站)_31.01324_121.40555","lineId":"上海地铁5号线","lat":31.01323606,"lon":121.40555436,"area_km2":1.9659,"D":0.3958,"C":0.9749,"T":0.1607,"U1":0.1965,"U2":0.125,"couplingDegree":0.3958,"level":"中度失调","road_density":25.3315,"walk_accessibility":0.3941,"metro_line_density":1.5281,"station_count":2,"line_count":2,"population_density":11783.1594,"poi_density":4.5782,"poi_diversity":1.4648,"gdp_density":44401.0039,"P":11783.1594,"I":4.5782,"G":44401.0039},{"stationName":"上海东川路(地铁站)","station_id":"上海东川路(地铁站)_31.02015_121.41526","lineId":"上海地铁23号线 / 上海地铁5号线","lat":31.020148675,"lon":121.415260665,"area_km2":1.3099,"D":0.4446,"C":0.9605,"T":0.2058,"U1":0.2631,"U2":0.1486,"couplingDegree":0.4446,"level":"勉强协调","road_density":29.0959,"walk_accessibility":0.2626,"metro_line_density":6.2899,"station_count":3,"line_count":2,"population_density":22326.3796,"poi_density":3.817,"poi_diversity":1.3322,"gdp_density":66634.0822,"P":22326.3796,"I":3.817,"G":66634.0822},{"stationName":"上海剑川路(地铁站)","station_id":"上海剑川路(地铁站)_31.02843_121.41195","lineId":"上海地铁5号线","lat":31.0284323,"lon":121.41195429,"area_km2":1.5551,"D":0.2465,"C":0.5935,"T":0.1024,"U1":0.1847,"U2":0.02,"couplingDegree":0.2465,"level":"中度失调","road_density":20.9175,"walk_accessibility":0.3118,"metro_line_density":3.8904,"station_count":2,"line_count":2,"population_density":11221.9401,"poi_density":0.0,"poi_diversity":0.0,"gdp_density":0.0,"P":11221.9401,"I":0.0,"G":0.0},{"stationName":"上海北桥(地铁站)","station_id":"上海北桥(地铁站)_31.04705_121.40542","lineId":"上海地铁5号线","lat":31.04704591,"lon":121.40542082,"area_km2":1.0863,"D":0.1167,"C":0.564,"T":0.0241,"U1":0.0441,"U2":0.0042,"couplingDegree":0.1167,"level":"极度失调","road_density":21.1749,"walk_accessibility":0.2178,"metro_line_density":4.2705,"station_count":1,"line_count":1,"population_density":2363.125,"poi_density":0.0,"poi_diversity":0.0,"gdp_density":0.0,"P":2363.125,"I":0.0,"G":0.0},{"stationName":"上海颛桥(地铁站)","station_id":"上海颛桥(地铁站)_31.06893_121.39723","lineId":"上海地铁5号线","lat":31.06893414,"lon":121.39723048,"area_km2":1.6246,"D":0.2502,"C":0.8579,"T":0.073,"U1":0.0355,"U2":0.1105,"couplingDegree":0.2502,"level":"中度失调","road_density":17.1506,"walk_accessibility":0.3257,"metro_line_density":2.8903,"station_count":1,"line_count":1,"population_density":6207.0435,"poi_density":3.0777,"poi_diversity":1.3322,"gdp_density":52634.9163,"P":6207.0435,"I":3.0777,"G":52634.9163},{"stationName":"上海银都路(地铁站)","station_id":"上海银都路(地铁站)_31.09125_121.38563","lineId":"上海地铁5号线 / 上海地铁嘉闵线","lat":31.09124586,"lon":121.38562715,"area_km2":1.2933,"D":0.3656,"C":0.9653,"T":0.1385,"U1":0.1747,"U2":0.1023,"couplingDegree":0.3656,"level":"中度失调","road_density":18.8424,"walk_accessibility":0.2593,"metro_line_density":4.0251,"station_count":2,"line_count":2,"population_density":17576.7008,"poi_density":3.8661,"poi_diversity":1.3322,"gdp_density":0.0,"P":17576.7008,"I":3.8661,"G":0.0},{"stationName":"上海春申路(地铁站)","station_id":"上海春申路(地铁站)_31.10016_121.38118","lineId":"上海地铁5号线","lat":31.10015955,"lon":121.381184825,"area_km2":1.4201,"D":0.3682,"C":0.9665,"T":0.1403,"U1":0.1763,"U2":0.1043,"couplingDegree":0.3682,"level":"中度失调","road_density":16.7411,"walk_accessibility":0.2847,"metro_line_density":5.7396,"station_count":2,"line_count":2,"population_density":6008.7862,"poi_density":5.6335,"poi_diversity":1.7329,"gdp_density":0.0,"P":6008.7862,"I":5.6335,"G":0.0},{"stationName":"上海江川路(地铁站)","station_id":"上海江川路(地铁站)_31.00739_121.41885","lineId":"上海地铁5号线","lat":31.00739453,"lon":121.41885497,"area_km2":1.5696,"D":0.2738,"C":0.8585,"T":0.0873,"U1":0.0425,"U2":0.1321,"couplingDegree":0.2738,"level":"中度失调","road_density":20.3012,"walk_accessibility":0.3147,"metro_line_density":2.4048,"station_count":1,"line_count":1,"population_density":8227.9682,"poi_density":12.7417,"poi_diversity":1.9468,"gdp_density":0.0,"P":8227.9682,"I":12.7417,"G":0.0},{"stationName":"上海西渡(地铁站)","station_id":"上海西渡(地铁站)_30.99134_121.42783","lineId":"上海地铁5号线","lat":30.991337,"lon":121.42783429,"area_km2":1.3446,"D":0.1374,"C":0.8808,"T":0.0214,"U1":0.0316,"U2":0.0113,"couplingDegree":0.1374,"level":"极度失调","road_density":18.2224,"walk_accessibility":0.2696,"metro_line_density":2.1234,"station_count":1,"line_count":1,"population_density":6343.2939,"poi_density":0.0,"poi_diversity":0.0,"gdp_density":0.0,"P":6343.2939,"I":0.0,"G":0.0},{"stationName":"上海萧塘(地铁站)","station_id":"上海萧塘(地铁站)_30.96790_121.43727","lineId":"上海地铁5号线","lat":30.96790283,"lon":121.43726984,"area_km2":1.4716,"D":0.1445,"C":0.8811,"T":0.0237,"U1":0.0349,"U2":0.0125,"couplingDegree":0.1445,"level":"极度失调","road_density":18.8616,"walk_accessibility":0.295,"metro_line_density":1.9383,"station_count":1,"line_count":1,"population_density":3211.5425,"poi_density":0.0,"poi_diversity":0.0,"gdp_density":11933.5372,"P":3211.5425,"I":0.0,"G":11933.5372},{"stationName":"上海奉浦大道(地铁站)","station_id":"上海奉浦大道(地铁站)_30.94410_121.44441","lineId":"上海地铁5号线","lat":30.94409721,"lon":121.44441493,"area_km2":1.1087,"D":0.0,"C":0.0,"T":0.0113,"U1":0.0226,"U2":0.0,"couplingDegree":0.0,"level":"极度失调","road_density":16.1657,"walk_accessibility":0.2223,"metro_line_density":2.4305,"station_count":1,"line_count":1,"population_density":0.0,"poi_density":0.0,"poi_diversity":0.0,"gdp_density":0.0,"P":0.0,"I":0.0,"G":0.0},{"stationName":"上海环城东路(地铁站)","station_id":"上海环城东路(地铁站)_30.93325_121.45867","lineId":"上海地铁5号线","lat":30.93324829,"lon":121.45867408,"area_km2":1.1811,"D":0.2119,"C":0.9337,"T":0.0481,"U1":0.0309,"U2":0.0653,"couplingDegree":0.2119,"level":"中度失调","road_density":14.2141,"walk_accessibility":0.2368,"metro_line_density":6.1351,"station_count":1,"line_count":1,"population_density":6006.0658,"poi_density":1.6933,"poi_diversity":0.6931,"gdp_density":32129.1503,"P":6006.0658,"I":1.6933,"G":32129.1503},{"stationName":"上海望园路(地铁站)","station_id":"上海望园路(地铁站)_30.93444_121.47839","lineId":"上海上海南枫线(枫泾站--滴水湖北) / 上海地铁15号线 / 上海地铁5号线","lat":30.93443741666667,"lon":121.47838775999999,"area_km2":1.9953,"D":0.1753,"C":0.2128,"T":0.1444,"U1":0.2855,"U2":0.0033,"couplingDegree":0.1753,"level":"极度失调","road_density":20.6521,"walk_accessibility":0.4001,"metro_line_density":6.1711,"station_count":2,"line_count":3,"population_density":1317.0747,"poi_density":0.5012,"poi_diversity":0.0,"gdp_density":0.0,"P":1317.0747,"I":0.5012,"G":0.0},{"stationName":"上海金海湖(地铁站)","station_id":"上海金海湖(地铁站)_30.93097_121.48807","lineId":"上海地铁5号线","lat":30.93096841,"lon":121.48807425,"area_km2":1.683,"D":0.179,"C":0.232,"T":0.1381,"U1":0.2725,"U2":0.0038,"couplingDegree":0.179,"level":"极度失调","road_density":22.3848,"walk_accessibility":0.3374,"metro_line_density":2.3836,"station_count":2,"line_count":3,"population_density":1475.9503,"poi_density":0.5942,"poi_diversity":0.0,"gdp_density":0.0,"P":1475.9503,"I":0.5942,"G":0.0},{"stationName":"上海奉贤新城(地铁站)","station_id":"上海奉贤新城(地铁站)_30.91610_121.49187","lineId":"上海地铁5号线","lat":30.91609875,"lon":121.49187161,"area_km2":1.7155,"D":0.1541,"C":0.9303,"T":0.0255,"U1":0.0349,"U2":0.0162,"couplingDegree":0.1541,"level":"极度失调","road_density":18.8465,"walk_accessibility":0.3439,"metro_line_density":0.8355,"station_count":1,"line_count":1,"population_density":4358.5708,"poi_density":0.0,"poi_diversity":0.0,"gdp_density":14778.4521,"P":4358.5708,"I":0.0,"G":14778.4521},{"stationName":"上海东方体育中心(地铁站)","station_id":"上海东方体育中心(地铁站)_31.15658_121.47608","lineId":"上海地铁19号线 / 上海地铁6号线 / 上海地铁8号线","lat":31.156584353333333,"lon":121.47607742333332,"area_km2":2.1706,"D":0.3773,"C":0.8498,"T":0.1675,"U1":0.2558,"U2":0.0792,"couplingDegree":0.3773,"level":"中度失调","road_density":24.7943,"walk_accessibility":0.4352,"metro_line_density":7.1867,"station_count":1,"line_count":3,"population_density":10582.2908,"poi_density":0.0,"poi_diversity":0.0,"gdp_density":106232.0104,"P":10582.2908,"I":0.0,"G":106232.0104},{"stationName":"上海灵岩南路(地铁站)","station_id":"上海灵岩南路(地铁站)_31.15071_121.49085","lineId":"上海地铁6号线","lat":31.15071059,"lon":121.49085397,"area_km2":2.3506,"D":0.4864,"C":0.9213,"T":0.2568,"U1":0.3566,"U2":0.157,"couplingDegree":0.4864,"level":"勉强协调","road_density":28.3257,"walk_accessibility":0.4713,"metro_line_density":4.2466,"station_count":3,"line_count":3,"population_density":12716.1195,"poi_density":4.2542,"poi_diversity":1.6094,"gdp_density":86737.7102,"P":12716.1195,"I":4.2542,"G":86737.7102},{"stationName":"上海上南路(地铁站)","station_id":"上海上南路(地铁站)_31.15090_121.50205","lineId":"上海地铁6号线","lat":31.15089773,"lon":121.50204605,"area_km2":1.9552,"D":0.3641,"C":0.7158,"T":0.1853,"U1":0.3146,"U2":0.0559,"couplingDegree":0.3641,"level":"中度失调","road_density":27.9791,"walk_accessibility":0.392,"metro_line_density":5.124,"station_count":4,"line_count":2,"population_density":11697.0816,"poi_density":1.0229,"poi_diversity":0.6931,"gdp_density":0.0,"P":11697.0816,"I":1.0229,"G":0.0},{"stationName":"上海华夏西路(地铁站)","station_id":"上海华夏西路(地铁站)_31.15198_121.51017","lineId":"上海地铁6号线","lat":31.15198098,"lon":121.51016731,"area_km2":1.5525,"D":0.4233,"C":0.8238,"T":0.2175,"U1":0.3408,"U2":0.0942,"couplingDegree":0.4233,"level":"勉强协调","road_density":24.4967,"walk_accessibility":0.3113,"metro_line_density":3.5681,"station_count":5,"line_count":2,"population_density":11484.566,"poi_density":0.0,"poi_diversity":0.0,"gdp_density":129789.1227,"P":11484.566,"I":0.0,"G":129789.1227},{"stationName":"上海高青路(地铁站)","station_id":"上海高青路(地铁站)_31.16201_121.51142","lineId":"上海地铁6号线","lat":31.16200657,"lon":121.51141843,"area_km2":1.5325,"D":0.2175,"C":0.8136,"T":0.0581,"U1":0.0919,"U2":0.0243,"couplingDegree":0.2175,"level":"中度失调","road_density":20.0671,"walk_accessibility":0.3073,"metro_line_density":2.9453,"station_count":2,"line_count":1,"population_density":12258.7868,"poi_density":1.305,"poi_diversity":0.0,"gdp_density":0.0,"P":12258.7868,"I":1.305,"G":0.0},{"stationName":"上海东明路(地铁站)","station_id":"上海东明路(地铁站)_31.17480_121.50693","lineId":"上海地铁13号线 / 上海地铁6号线","lat":31.17479533,"lon":121.50693477666668,"area_km2":1.8727,"D":0.3516,"C":0.9981,"T":0.1238,"U1":0.1314,"U2":0.1163,"couplingDegree":0.3516,"level":"中度失调","road_density":17.1011,"walk_accessibility":0.3755,"metro_line_density":4.4794,"station_count":1,"line_count":2,"population_density":9564.2251,"poi_density":4.2719,"poi_diversity":1.9062,"gdp_density":0.0,"P":9564.2251,"I":4.2719,"G":0.0},{"stationName":"上海高科西路(地铁站)","station_id":"上海高科西路(地铁站)_31.18783_121.50545","lineId":"上海地铁6号线","lat":31.18783031,"lon":121.50545234,"area_km2":2.3571,"D":0.4371,"C":0.9589,"T":0.1993,"U1":0.2558,"U2":0.1427,"couplingDegree":0.4371,"level":"勉强协调","road_density":21.5364,"walk_accessibility":0.4726,"metro_line_density":6.0542,"station_count":3,"line_count":2,"population_density":11592.418,"poi_density":8.0609,"poi_diversity":2.2327,"gdp_density":0.0,"P":11592.418,"I":8.0609,"G":0.0},{"stationName":"上海临沂新村(地铁站)","station_id":"上海临沂新村(地铁站)_31.19529_121.51233","lineId":"上海地铁6号线","lat":31.19528786,"lon":121.51232588,"area_km2":1.8068,"D":0.4507,"C":0.9791,"T":0.2075,"U1":0.2497,"U2":0.1653,"couplingDegree":0.4507,"level":"勉强协调","road_density":23.0859,"walk_accessibility":0.3623,"metro_line_density":5.4494,"station_count":3,"line_count":2,"population_density":5640.2266,"poi_density":6.6414,"poi_diversity":1.6988,"gdp_density":107964.0428,"P":5640.2266,"I":6.6414,"G":107964.0428},{"stationName":"上海上海儿童医学中心(地铁站)","station_id":"上海上海儿童医学中心(地铁站)_31.20538_121.51914","lineId":"上海地铁6号线","lat":31.20537817,"lon":121.51913574,"area_km2":1.9186,"D":0.4872,"C":0.9216,"T":0.2576,"U1":0.3576,"U2":0.1576,"couplingDegree":0.4872,"level":"勉强协调","road_density":29.7189,"walk_accessibility":0.3847,"metro_line_density":5.2543,"station_count":3,"line_count":3,"population_density":14033.3153,"poi_density":9.3816,"poi_diversity":2.3992,"gdp_density":0.0,"P":14033.3153,"I":9.3816,"G":0.0},{"stationName":"上海浦电路(地铁站)","station_id":"上海浦电路(地铁站)_31.22226_121.52502","lineId":"上海地铁6号线","lat":31.22226205,"lon":121.52502408,"area_km2":3.5274,"D":0.5108,"C":0.8803,"T":0.2964,"U1":0.4371,"U2":0.1558,"couplingDegree":0.5108,"level":"勉强协调","road_density":30.6509,"walk_accessibility":0.7072,"metro_line_density":5.8811,"station_count":4,"line_count":3,"population_density":9104.2698,"poi_density":12.4739,"poi_diversity":2.4208,"gdp_density":0.0,"P":9104.2698,"I":12.4739,"G":0.0},{"stationName":"上海源深体育中心(地铁站)","station_id":"上海源深体育中心(地铁站)_31.23512_121.53033","lineId":"上海地铁6号线","lat":31.2351201,"lon":121.53033035,"area_km2":3.228,"D":0.5082,"C":0.8057,"T":0.3205,"U1":0.5104,"U2":0.1307,"couplingDegree":0.5082,"level":"勉强协调","road_density":28.6685,"walk_accessibility":0.6472,"metro_line_density":5.2135,"station_count":4,"line_count":4,"population_density":7771.3244,"poi_density":4.0272,"poi_diversity":1.5858,"gdp_density":58693.5421,"P":7771.3244,"I":4.0272,"G":58693.5421},{"stationName":"上海民生路(地铁站)","station_id":"上海民生路(地铁站)_31.23738_121.53996","lineId":"上海地铁18号线 / 上海地铁6号线","lat":31.237378485,"lon":121.53996086999999,"area_km2":2.6983,"D":0.5051,"C":0.7674,"T":0.3325,"U1":0.5457,"U2":0.1193,"couplingDegree":0.5051,"level":"勉强协调","road_density":27.0982,"walk_accessibility":0.541,"metro_line_density":5.1599,"station_count":5,"line_count":4,"population_density":6528.4485,"poi_density":2.2236,"poi_diversity":1.3297,"gdp_density":70214.916,"P":6528.4485,"I":2.2236,"G":70214.916},{"stationName":"上海北洋泾路(地铁站)","station_id":"上海北洋泾路(地铁站)_31.24130_121.54805","lineId":"上海地铁6号线","lat":31.24129757,"lon":121.54804977,"area_km2":2.5411,"D":0.4782,"C":0.9215,"T":0.2482,"U1":0.3446,"U2":0.1518,"couplingDegree":0.4782,"level":"勉强协调","road_density":24.0314,"walk_accessibility":0.5095,"metro_line_density":3.6914,"station_count":3,"line_count":3,"population_density":13924.4504,"poi_density":1.9677,"poi_diversity":1.6094,"gdp_density":81553.8408,"P":13924.4504,"I":1.9677,"G":81553.8408},{"stationName":"上海德平路(地铁站)","station_id":"上海德平路(地铁站)_31.24757_121.56000","lineId":"上海地铁6号线","lat":31.24757182,"lon":121.55999933,"area_km2":2.0621,"D":0.3489,"C":0.8745,"T":0.1392,"U1":0.2068,"U2":0.0717,"couplingDegree":0.3489,"level":"中度失调","road_density":25.1248,"walk_accessibility":0.4134,"metro_line_density":4.1938,"station_count":2,"line_count":2,"population_density":20640.1031,"poi_density":0.9699,"poi_diversity":0.6931,"gdp_density":0.0,"P":20640.1031,"I":0.9699,"G":0.0},{"stationName":"上海云山路(地铁站)","station_id":"上海云山路(地铁站)_31.25287_121.56774","lineId":"上海地铁14号线 / 上海地铁6号线","lat":31.25286957,"lon":121.56773864499999,"area_km2":2.2351,"D":0.5001,"C":0.8981,"T":0.2785,"U1":0.401,"U2":0.156,"couplingDegree":0.5001,"level":"勉强协调","road_density":26.627,"walk_accessibility":0.4481,"metro_line_density":4.9999,"station_count":4,"line_count":3,"population_density":10729.8903,"poi_density":3.1319,"poi_diversity":1.7479,"gdp_density":83461.563,"P":10729.8903,"I":3.1319,"G":83461.563},{"stationName":"上海金桥路(地铁站)","station_id":"上海金桥路(地铁站)_31.25927_121.57760","lineId":"上海地铁6号线","lat":31.25926813,"lon":121.57760381,"area_km2":2.3315,"D":0.4608,"C":0.9702,"T":0.2189,"U1":0.2719,"U2":0.1658,"couplingDegree":0.4608,"level":"勉强协调","road_density":30.9567,"walk_accessibility":0.4675,"metro_line_density":2.5563,"station_count":3,"line_count":2,"population_density":17644.3465,"poi_density":4.7181,"poi_diversity":1.6726,"gdp_density":80010.9799,"P":17644.3465,"I":4.7181,"G":80010.9799},{"stationName":"上海博兴路(地铁站)","station_id":"上海博兴路(地铁站)_31.26571_121.58248","lineId":"上海地铁6号线","lat":31.26570519,"lon":121.582479955,"area_km2":2.5521,"D":0.3809,"C":0.9871,"T":0.1469,"U1":0.1704,"U2":0.1235,"couplingDegree":0.3809,"level":"中度失调","road_density":25.2733,"walk_accessibility":0.5117,"metro_line_density":2.2492,"station_count":3,"line_count":1,"population_density":11130.451,"poi_density":5.8775,"poi_diversity":1.9338,"gdp_density":0.0,"P":11130.451,"I":5.8775,"G":0.0},{"stationName":"上海五莲路(地铁站)","station_id":"上海五莲路(地铁站)_31.27421_121.58366","lineId":"上海地铁6号线","lat":31.27420761,"lon":121.58365608,"area_km2":2.5665,"D":0.4134,"C":0.9998,"T":0.1709,"U1":0.1747,"U2":0.1671,"couplingDegree":0.4134,"level":"勉强协调","road_density":26.6698,"walk_accessibility":0.5146,"metro_line_density":2.1888,"station_count":3,"line_count":1,"population_density":10964.6817,"poi_density":5.8445,"poi_diversity":1.9565,"gdp_density":75540.2322,"P":10964.6817,"I":5.8445,"G":75540.2322},{"stationName":"上海巨峰路(地铁站)","station_id":"上海巨峰路(地铁站)_31.28286_121.58416","lineId":"上海地铁6号线","lat":31.28286335,"lon":121.58415516,"area_km2":2.0424,"D":0.3753,"C":0.9456,"T":0.149,"U1":0.1974,"U2":0.1005,"couplingDegree":0.3753,"level":"中度失调","road_density":36.0094,"walk_accessibility":0.4095,"metro_line_density":2.8967,"station_count":3,"line_count":1,"population_density":5683.1043,"poi_density":4.8963,"poi_diversity":1.6957,"gdp_density":0.0,"P":5683.1043,"I":4.8963,"G":0.0},{"stationName":"上海东靖路(地铁站)","station_id":"上海东靖路(地铁站)_31.29286_121.58453","lineId":"上海地铁6号线","lat":31.29285883,"lon":121.5845257,"area_km2":1.8289,"D":0.339,"C":0.9833,"T":0.1169,"U1":0.1382,"U2":0.0956,"couplingDegree":0.339,"level":"中度失调","road_density":33.3699,"walk_accessibility":0.3667,"metro_line_density":3.1721,"station_count":2,"line_count":1,"population_density":1855.2211,"poi_density":4.921,"poi_diversity":1.7351,"gdp_density":0.0,"P":1855.2211,"I":4.921,"G":0.0},{"stationName":"上海五洲大道(地铁站)","station_id":"上海五洲大道(地铁站)_31.30474_121.58500","lineId":"上海地铁6号线","lat":31.30473941,"lon":121.58500145,"area_km2":1.5003,"D":0.1477,"C":0.3756,"T":0.0581,"U1":0.1119,"U2":0.0043,"couplingDegree":0.1477,"level":"极度失调","road_density":25.7264,"walk_accessibility":0.3008,"metro_line_density":3.8411,"station_count":2,"line_count":1,"population_density":1669.6315,"poi_density":0.6665,"poi_diversity":0.0,"gdp_density":0.0,"P":1669.6315,"I":0.6665,"G":0.0},{"stationName":"上海洲海路(地铁站)","station_id":"上海洲海路(地铁站)_31.31440_121.58518","lineId":"上海地铁6号线","lat":31.314395570000002,"lon":121.585184605,"area_km2":1.6024,"D":0.1589,"C":0.4566,"T":0.0553,"U1":0.1045,"U2":0.0061,"couplingDegree":0.1589,"level":"极度失调","road_density":20.5525,"walk_accessibility":0.3213,"metro_line_density":5.7799,"station_count":2,"line_count":1,"population_density":3428.6968,"poi_density":0.0,"poi_diversity":0.0,"gdp_density":0.0,"P":3428.6968,"I":0.0,"G":0.0},{"stationName":"上海外高桥保税区南(地铁站)","station_id":"上海外高桥保税区南(地铁站)_31.32374_121.59775","lineId":"上海地铁6号线","lat":31.32374186,"lon":121.59775472,"area_km2":1.5304,"D":0.143,"C":0.6378,"T":0.0321,"U1":0.0567,"U2":0.0074,"couplingDegree":0.143,"level":"极度失调","road_density":22.3189,"walk_accessibility":0.3068,"metro_line_density":4.8554,"station_count":1,"line_count":1,"population_density":3433.7201,"poi_density":0.6534,"poi_diversity":0.0,"gdp_density":0.0,"P":3433.7201,"I":0.6534,"G":0.0},{"stationName":"上海航津路(地铁站)","station_id":"上海航津路(地铁站)_31.33753_121.58976","lineId":"上海地铁6号线","lat":31.33752986,"lon":121.58976359,"area_km2":1.8542,"D":0.2635,"C":0.8489,"T":0.0818,"U1":0.0386,"U2":0.1251,"couplingDegree":0.2635,"level":"中度失调","road_density":16.9689,"walk_accessibility":0.3718,"metro_line_density":2.8817,"station_count":1,"line_count":1,"population_density":14377.8121,"poi_density":3.7751,"poi_diversity":0.7963,"gdp_density":95348.1924,"P":14377.8121,"I":3.7751,"G":95348.1924},{"stationName":"上海外高桥保税区北(地铁站)","station_id":"上海外高桥保税区北(地铁站)_31.34996_121.58271","lineId":"上海地铁6号线","lat":31.34995506,"lon":121.582710265,"area_km2":2.1018,"D":0.3471,"C":0.9226,"T":0.1306,"U1":0.181,"U2":0.0802,"couplingDegree":0.3471,"level":"中度失调","road_density":18.7316,"walk_accessibility":0.4214,"metro_line_density":2.2528,"station_count":2,"line_count":2,"population_density":8651.0102,"poi_density":2.8546,"poi_diversity":1.2425,"gdp_density":0.0,"P":8651.0102,"I":2.8546,"G":0.0},{"stationName":"上海港城路(地铁站)","station_id":"上海港城路(地铁站)_31.35530_121.57079","lineId":"上海地铁10号线 / 上海地铁6号线","lat":31.355295995,"lon":121.5707851,"area_km2":1.9885,"D":0.3551,"C":0.9341,"T":0.135,"U1":0.1832,"U2":0.0868,"couplingDegree":0.3551,"level":"中度失调","road_density":19.4051,"walk_accessibility":0.3987,"metro_line_density":2.8116,"station_count":2,"line_count":2,"population_density":13112.3642,"poi_density":1.5087,"poi_diversity":0.6365,"gdp_density":53038.8443,"P":13112.3642,"I":1.5087,"G":53038.8443},{"stationName":"上海花木路(地铁站)","station_id":"上海花木路(地铁站)_31.21340_121.55852","lineId":"上海地铁7号线","lat":31.21339679,"lon":121.55851518,"area_km2":1.8708,"D":0.5734,"C":0.9628,"T":0.3416,"U1":0.4339,"U2":0.2492,"couplingDegree":0.5734,"level":"勉强协调","road_density":29.261,"walk_accessibility":0.3751,"metro_line_density":2.975,"station_count":3,"line_count":4,"population_density":3133.3687,"poi_density":18.7083,"poi_diversity":2.969,"gdp_density":116005.7326,"P":3133.3687,"I":18.7083,"G":116005.7326},{"stationName":"上海芳华路(地铁站)","station_id":"上海芳华路(地铁站)_31.19528_121.54585","lineId":"上海地铁7号线","lat":31.1952816,"lon":121.54584928,"area_km2":2.279,"D":0.5138,"C":0.8488,"T":0.311,"U1":0.4754,"U2":0.1466,"couplingDegree":0.5138,"level":"勉强协调","road_density":24.3698,"walk_accessibility":0.4569,"metro_line_density":3.3057,"station_count":4,"line_count":4,"population_density":7784.527,"poi_density":3.5103,"poi_diversity":1.6675,"gdp_density":81506.0735,"P":7784.527,"I":3.5103,"G":81506.0735},{"stationName":"上海锦绣路(地铁站)","station_id":"上海锦绣路(地铁站)_31.18974_121.53575","lineId":"上海地铁7号线","lat":31.1897437,"lon":121.53574792,"area_km2":2.4042,"D":0.4309,"C":0.9557,"T":0.1943,"U1":0.2515,"U2":0.1371,"couplingDegree":0.4309,"level":"勉强协调","road_density":23.9416,"walk_accessibility":0.482,"metro_line_density":2.5412,"station_count":3,"line_count":2,"population_density":5088.5579,"poi_density":2.0797,"poi_diversity":1.6094,"gdp_density":83032.8373,"P":5088.5579,"I":2.0797,"G":83032.8373},{"stationName":"上海杨高南路(地铁站)","station_id":"上海杨高南路(地铁站)_31.18972_121.52020","lineId":"上海地铁7号线","lat":31.18972497,"lon":121.52019868,"area_km2":1.8952,"D":0.3843,"C":0.9683,"T":0.1525,"U1":0.1906,"U2":0.1144,"couplingDegree":0.3843,"level":"中度失调","road_density":22.3395,"walk_accessibility":0.38,"metro_line_density":2.7912,"station_count":2,"line_count":2,"population_density":7240.8827,"poi_density":8.4423,"poi_diversity":1.7868,"gdp_density":0.0,"P":7240.8827,"I":8.4423,"G":0.0},{"stationName":"上海云台路(地铁站)","station_id":"上海云台路(地铁站)_31.18426_121.49601","lineId":"上海地铁7号线","lat":31.18425516,"lon":121.49601432,"area_km2":2.4971,"D":0.5002,"C":0.9071,"T":0.2759,"U1":0.392,"U2":0.1597,"couplingDegree":0.5002,"level":"勉强协调","road_density":21.1259,"walk_accessibility":0.5007,"metro_line_density":6.0357,"station_count":4,"line_count":3,"population_density":11136.1163,"poi_density":18.8218,"poi_diversity":2.1729,"gdp_density":0.0,"P":11136.1163,"I":18.8218,"G":0.0},{"stationName":"上海耀华路(地铁站)","station_id":"上海耀华路(地铁站)_31.18054_121.49016","lineId":"上海地铁7号线","lat":31.18053985,"lon":121.49015965,"area_km2":2.3653,"D":0.5824,"C":0.8752,"T":0.3875,"U1":0.575,"U2":0.2001,"couplingDegree":0.5824,"level":"勉强协调","road_density":20.1862,"walk_accessibility":0.4742,"metro_line_density":7.1442,"station_count":6,"line_count":4,"population_density":8549.8201,"poi_density":19.8705,"poi_diversity":2.0956,"gdp_density":82014.9409,"P":8549.8201,"I":19.8705,"G":82014.9409},{"stationName":"上海长清路(地铁站)","station_id":"上海长清路(地铁站)_31.17642_121.48245","lineId":"上海地铁13号线 / 上海地铁7号线","lat":31.176417263333335,"lon":121.48244611333332,"area_km2":2.0638,"D":0.5733,"C":0.8902,"T":0.3692,"U1":0.5374,"U2":0.201,"couplingDegree":0.5733,"level":"勉强协调","road_density":25.844,"walk_accessibility":0.4138,"metro_line_density":6.7768,"station_count":5,"line_count":4,"population_density":11314.5913,"poi_density":6.7836,"poi_diversity":2.3046,"gdp_density":101614.7304,"P":11314.5913,"I":6.7836,"G":101614.7304},{"stationName":"上海后滩(地铁站)","station_id":"上海后滩(地铁站)_31.17376_121.46987","lineId":"上海地铁19号线 / 上海地铁7号线","lat":31.17376228,"lon":121.46987039000001,"area_km2":2.041,"D":0.3944,"C":0.8215,"T":0.1893,"U1":0.2973,"U2":0.0814,"couplingDegree":0.3944,"level":"中度失调","road_density":27.0465,"walk_accessibility":0.4092,"metro_line_density":3.7482,"station_count":2,"line_count":3,"population_density":12376.3812,"poi_density":0.49,"poi_diversity":0.0,"gdp_density":102750.4218,"P":12376.3812,"I":0.49,"G":102750.4218},{"stationName":"上海龙华中路(地铁站)","station_id":"上海龙华中路(地铁站)_31.18630_121.45249","lineId":"上海地铁7号线","lat":31.18630232,"lon":121.45249428,"area_km2":2.111,"D":0.4879,"C":0.9966,"T":0.2389,"U1":0.2586,"U2":0.2192,"couplingDegree":0.4879,"level":"勉强协调","road_density":26.9708,"walk_accessibility":0.4232,"metro_line_density":3.2408,"station_count":3,"line_count":2,"population_density":28623.3504,"poi_density":21.7909,"poi_diversity":2.6464,"gdp_density":0.0,"P":28623.3504,"I":21.7909,"G":0.0},{"stationName":"上海肇嘉浜路(地铁站)","station_id":"上海肇嘉浜路(地铁站)_31.20084_121.44576","lineId":"上海地铁7号线 / 上海地铁9号线","lat":31.200835186666666,"lon":121.44575531666668,"area_km2":2.6178,"D":0.664,"C":0.9479,"T":0.4652,"U1":0.6133,"U2":0.317,"couplingDegree":0.664,"level":"良好协调","road_density":19.953,"walk_accessibility":0.5249,"metro_line_density":6.3588,"station_count":5,"line_count":5,"population_density":36908.7364,"poi_density":55.391,"poi_diversity":3.0362,"gdp_density":0.0,"P":36908.7364,"I":55.391,"G":0.0},{"stationName":"上海昌平路(地铁站)","station_id":"上海昌平路(地铁站)_31.23562_121.43801","lineId":"上海地铁7号线","lat":31.23561909,"lon":121.43800961,"area_km2":3.0264,"D":0.656,"C":0.994,"T":0.433,"U1":0.3857,"U2":0.4802,"couplingDegree":0.656,"level":"良好协调","road_density":20.0002,"walk_accessibility":0.6068,"metro_line_density":2.8372,"station_count":4,"line_count":3,"population_density":31751.8185,"poi_density":83.267,"poi_diversity":3.037,"gdp_density":208983.6267,"P":31751.8185,"I":83.267,"G":208983.6267},{"stationName":"上海长寿路(地铁站)","station_id":"上海长寿路(地铁站)_31.24209_121.43363","lineId":"上海地铁13号线 / 上海地铁7号线","lat":31.242089399999998,"lon":121.43362850999999,"area_km2":3.1141,"D":0.6714,"C":0.9868,"T":0.4567,"U1":0.5307,"U2":0.3828,"couplingDegree":0.6714,"level":"良好协调","road_density":22.1261,"walk_accessibility":0.6244,"metro_line_density":3.3369,"station_count":5,"line_count":4,"population_density":33975.9622,"poi_density":34.3603,"poi_diversity":2.9503,"gdp_density":203101.7722,"P":33975.9622,"I":34.3603,"G":203101.7722},{"stationName":"上海岚皋路(地铁站)","station_id":"上海岚皋路(地铁站)_31.25803_121.41730","lineId":"上海地铁7号线","lat":31.2580297,"lon":121.41729656,"area_km2":2.2768,"D":0.4167,"C":0.9925,"T":0.175,"U1":0.1964,"U2":0.1536,"couplingDegree":0.4167,"level":"勉强协调","road_density":22.7327,"walk_accessibility":0.4565,"metro_line_density":2.3725,"station_count":2,"line_count":2,"population_density":12795.4255,"poi_density":2.1961,"poi_diversity":1.6094,"gdp_density":87424.5735,"P":12795.4255,"I":2.1961,"G":87424.5735},{"stationName":"上海新村路(地铁站)","station_id":"上海新村路(地铁站)_31.26608_121.41857","lineId":"上海地铁20号线 / 上海地铁7号线","lat":31.266079615000002,"lon":121.4185655425,"area_km2":2.2304,"D":0.4389,"C":0.9715,"T":0.1983,"U1":0.2453,"U2":0.1512,"couplingDegree":0.4389,"level":"勉强协调","road_density":20.9538,"walk_accessibility":0.4472,"metro_line_density":4.1516,"station_count":3,"line_count":2,"population_density":27986.2208,"poi_density":5.3802,"poi_diversity":1.9073,"gdp_density":0.0,"P":27986.2208,"I":5.3802,"G":0.0},{"stationName":"上海大华三路(地铁站)","station_id":"上海大华三路(地铁站)_31.27587_121.41831","lineId":"上海地铁7号线","lat":31.275872955,"lon":121.41830529500001,"area_km2":2.2901,"D":0.5128,"C":0.9949,"T":0.2643,"U1":0.2377,"U2":0.2908,"couplingDegree":0.5128,"level":"勉强协调","road_density":19.5591,"walk_accessibility":0.4592,"metro_line_density":2.9491,"station_count":3,"line_count":2,"population_density":25410.6039,"poi_density":5.24,"poi_diversity":1.8637,"gdp_density":257798.5062,"P":25410.6039,"I":5.24,"G":257798.5062},{"stationName":"上海行知路(地铁站)","station_id":"上海行知路(地铁站)_31.28632_121.41712","lineId":"上海地铁7号线","lat":31.28631582,"lon":121.41712329,"area_km2":2.7478,"D":0.3504,"C":0.9487,"T":0.1294,"U1":0.1703,"U2":0.0885,"couplingDegree":0.3504,"level":"中度失调","road_density":24.4951,"walk_accessibility":0.5509,"metro_line_density":2.0149,"station_count":3,"line_count":1,"population_density":19451.3608,"poi_density":1.8196,"poi_diversity":1.0549,"gdp_density":0.0,"P":19451.3608,"I":1.8196,"G":0.0},{"stationName":"上海大场镇(地铁站)","station_id":"上海大场镇(地铁站)_31.29507_121.41150","lineId":"上海地铁7号线","lat":31.29507086,"lon":121.41150494,"area_km2":1.9064,"D":0.2993,"C":0.8624,"T":0.1038,"U1":0.1564,"U2":0.0513,"couplingDegree":0.2993,"level":"中度失调","road_density":23.2473,"walk_accessibility":0.3822,"metro_line_density":2.958,"station_count":3,"line_count":1,"population_density":16567.3802,"poi_density":0.5245,"poi_diversity":0.0,"gdp_density":36544.3339,"P":16567.3802,"I":0.5245,"G":36544.3339},{"stationName":"上海场中路(地铁站)","station_id":"上海场中路(地铁站)_31.30549_121.40880","lineId":"上海地铁7号线","lat":31.30548945,"lon":121.4088032,"area_km2":1.5628,"D":0.1789,"C":0.612,"T":0.0523,"U1":0.0936,"U2":0.0109,"couplingDegree":0.1789,"level":"极度失调","road_density":19.7351,"walk_accessibility":0.3133,"metro_line_density":3.5821,"station_count":2,"line_count":1,"population_density":5453.0456,"poi_density":0.6399,"poi_diversity":0.0,"gdp_density":0.0,"P":5453.0456,"I":0.6399,"G":0.0},{"stationName":"上海上大路(地铁站)","station_id":"上海上大路(地铁站)_31.31677_121.40403","lineId":"上海地铁7号线","lat":31.31676912,"lon":121.40402802,"area_km2":1.0955,"D":0.1787,"C":0.6615,"T":0.0483,"U1":0.0845,"U2":0.0121,"couplingDegree":0.1787,"level":"极度失调","road_density":17.5321,"walk_accessibility":0.2196,"metro_line_density":5.0116,"station_count":2,"line_count":1,"population_density":5795.4854,"poi_density":0.9128,"poi_diversity":0.0,"gdp_density":0.0,"P":5795.4854,"I":0.9128,"G":0.0},{"stationName":"上海南陈路(地铁站)","station_id":"上海南陈路(地铁站)_31.32354_121.39376","lineId":"上海地铁7号线","lat":31.32353684,"lon":121.39376006,"area_km2":2.2493,"D":0.3132,"C":0.9099,"T":0.1078,"U1":0.1525,"U2":0.0631,"couplingDegree":0.3132,"level":"中度失调","road_density":20.7983,"walk_accessibility":0.451,"metro_line_density":2.427,"station_count":3,"line_count":1,"population_density":6102.476,"poi_density":0.8892,"poi_diversity":0.6931,"gdp_density":30655.5386,"P":6102.476,"I":0.8892,"G":30655.5386},{"stationName":"上海上海大学(地铁站)","station_id":"上海上海大学(地铁站)_31.32239_121.38423","lineId":"上海地铁7号线","lat":31.32238707,"lon":121.38422864,"area_km2":2.6458,"D":0.3266,"C":0.9981,"T":0.1069,"U1":0.1134,"U2":0.1003,"couplingDegree":0.3266,"level":"中度失调","road_density":21.804,"walk_accessibility":0.5305,"metro_line_density":2.5061,"station_count":2,"line_count":1,"population_density":5891.263,"poi_density":4.5355,"poi_diversity":1.6988,"gdp_density":0.0,"P":5891.263,"I":4.5355,"G":0.0},{"stationName":"上海祁华路(地铁站)","station_id":"上海祁华路(地铁站)_31.32420_121.36889","lineId":"上海地铁7号线","lat":31.32420121,"lon":121.36888862,"area_km2":1.3678,"D":0.1497,"C":0.9398,"T":0.0239,"U1":0.032,"U2":0.0157,"couplingDegree":0.1497,"level":"极度失调","road_density":16.6482,"walk_accessibility":0.2742,"metro_line_density":3.4999,"station_count":1,"line_count":1,"population_density":8821.2262,"poi_density":0.0,"poi_diversity":0.0,"gdp_density":0.0,"P":8821.2262,"I":0.0,"G":0.0},{"stationName":"上海顾村公园(地铁站)","station_id":"上海顾村公园(地铁站)_31.34640_121.36837","lineId":"上海地铁7号线","lat":31.34639976,"lon":121.36836777,"area_km2":1.9249,"D":0.2488,"C":0.9645,"T":0.0642,"U1":0.0472,"U2":0.0811,"couplingDegree":0.2488,"level":"中度失调","road_density":19.3946,"walk_accessibility":0.3859,"metro_line_density":2.9131,"station_count":1,"line_count":1,"population_density":4643.2799,"poi_density":7.273,"poi_diversity":1.2326,"gdp_density":0.0,"P":4643.2799,"I":7.273,"G":0.0},{"stationName":"上海刘行(地铁站)","station_id":"上海刘行(地铁站)_31.35940_121.35775","lineId":"上海地铁7号线","lat":31.35940234,"lon":121.35775099,"area_km2":1.7835,"D":0.2192,"C":0.8246,"T":0.0582,"U1":0.0912,"U2":0.0253,"couplingDegree":0.2192,"level":"中度失调","road_density":18.1877,"walk_accessibility":0.3576,"metro_line_density":3.2385,"station_count":2,"line_count":1,"population_density":6377.4296,"poi_density":0.0,"poi_diversity":0.0,"gdp_density":24528.4891,"P":6377.4296,"I":0.0,"G":24528.4891},{"stationName":"上海潘广路(地铁站)","station_id":"上海潘广路(地铁站)_31.36601_121.35123","lineId":"上海地铁7号线","lat":31.36600519,"lon":121.35123053,"area_km2":1.5898,"D":0.153,"C":0.431,"T":0.0543,"U1":0.1033,"U2":0.0053,"couplingDegree":0.153,"level":"极度失调","road_density":24.3117,"walk_accessibility":0.3188,"metro_line_density":2.2318,"station_count":2,"line_count":1,"population_density":2978.2994,"poi_density":0.0,"poi_diversity":0.0,"gdp_density":0.0,"P":2978.2994,"I":0.0,"G":0.0},{"stationName":"上海罗南新村(地铁站)","station_id":"上海罗南新村(地铁站)_31.39065_121.35285","lineId":"上海地铁7号线","lat":31.39064592,"lon":121.35285116,"area_km2":1.6836,"D":0.1459,"C":0.7173,"T":0.0297,"U1":0.0504,"U2":0.009,"couplingDegree":0.1459,"level":"极度失调","road_density":21.442,"walk_accessibility":0.3375,"metro_line_density":3.1222,"station_count":1,"line_count":1,"population_density":4418.0158,"poi_density":0.594,"poi_diversity":0.0,"gdp_density":0.0,"P":4418.0158,"I":0.594,"G":0.0},{"stationName":"上海美兰湖(地铁站)","station_id":"上海美兰湖(地铁站)_31.40371_121.34529","lineId":"上海地铁7号线","lat":31.40371282,"lon":121.34528727,"area_km2":2.0314,"D":0.2009,"C":0.9986,"T":0.0404,"U1":0.0426,"U2":0.0383,"couplingDegree":0.2009,"level":"中度失调","road_density":19.0009,"walk_accessibility":0.4073,"metro_line_density":1.4482,"station_count":1,"line_count":1,"population_density":1849.4285,"poi_density":0.9845,"poi_diversity":0.6931,"gdp_density":0.0,"P":1849.4285,"I":0.9845,"G":0.0},{"stationName":"上海沈杜公路(地铁站)","station_id":"上海沈杜公路(地铁站)_31.06329_121.50803","lineId":"上海上海轨道交通浦江线(汇臻路--沈杜公路) / 上海上海轨道交通浦江线(沈杜公路--汇臻路) / 上海地铁8号线","lat":31.06329439,"lon":121.50802977666667,"area_km2":1.9034,"D":0.3389,"C":0.8202,"T":0.1401,"U1":0.2202,"U2":0.0599,"couplingDegree":0.3389,"level":"中度失调","road_density":19.7658,"walk_accessibility":0.3816,"metro_line_density":2.6618,"station_count":1,"line_count":3,"population_density":2758.1744,"poi_density":3.6776,"poi_diversity":1.0042,"gdp_density":0.0,"P":2758.1744,"I":3.6776,"G":0.0},{"stationName":"上海联航路(地铁站)","station_id":"上海联航路(地铁站)_31.07570_121.50621","lineId":"上海地铁8号线","lat":31.07569844,"lon":121.50621353,"area_km2":2.453,"D":0.3536,"C":0.9902,"T":0.1263,"U1":0.1086,"U2":0.1439,"couplingDegree":0.3536,"level":"中度失调","road_density":21.4697,"walk_accessibility":0.4918,"metro_line_density":2.3021,"station_count":2,"line_count":1,"population_density":10692.5939,"poi_density":11.4146,"poi_diversity":2.1557,"gdp_density":0.0,"P":10692.5939,"I":11.4146,"G":0.0},{"stationName":"上海江月路(地铁站)","station_id":"上海江月路(地铁站)_31.08637_121.50422","lineId":"上海地铁8号线","lat":31.08637366,"lon":121.50421528000001,"area_km2":2.3797,"D":0.3713,"C":0.9676,"T":0.1425,"U1":0.1065,"U2":0.1785,"couplingDegree":0.3713,"level":"中度失调","road_density":21.0974,"walk_accessibility":0.4771,"metro_line_density":2.3611,"station_count":2,"line_count":1,"population_density":3142.7997,"poi_density":24.3726,"poi_diversity":2.6403,"gdp_density":0.0,"P":3142.7997,"I":24.3726,"G":0.0},{"stationName":"上海浦江镇(地铁站)","station_id":"上海浦江镇(地铁站)_31.09870_121.50187","lineId":"上海地铁8号线","lat":31.09869707,"lon":121.50187481,"area_km2":2.1311,"D":0.3033,"C":0.8167,"T":0.1127,"U1":0.0476,"U2":0.1777,"couplingDegree":0.3033,"level":"中度失调","road_density":19.7048,"walk_accessibility":0.4273,"metro_line_density":1.8296,"station_count":1,"line_count":1,"population_density":9919.9872,"poi_density":18.7701,"poi_diversity":2.2944,"gdp_density":25320.8377,"P":9919.9872,"I":18.7701,"G":25320.8377},{"stationName":"上海芦恒路(地铁站)","station_id":"上海芦恒路(地铁站)_31.12113_121.49380","lineId":"上海地铁8号线","lat":31.12112846,"lon":121.49379766,"area_km2":1.9116,"D":0.2393,"C":0.999,"T":0.0573,"U1":0.0599,"U2":0.0548,"couplingDegree":0.2393,"level":"中度失调","road_density":23.9106,"walk_accessibility":0.3833,"metro_line_density":2.6441,"station_count":1,"line_count":1,"population_density":3532.181,"poi_density":1.5694,"poi_diversity":0.6365,"gdp_density":26519.0832,"P":3532.181,"I":1.5694,"G":26519.0832},{"stationName":"上海凌兆新村(地铁站)","station_id":"上海凌兆新村(地铁站)_31.14296_121.48393","lineId":"上海地铁19号线 / 上海地铁8号线","lat":31.142961285,"lon":121.48392774,"area_km2":2.1316,"D":0.4475,"C":0.9197,"T":0.2177,"U1":0.3032,"U2":0.1322,"couplingDegree":0.4475,"level":"勉强协调","road_density":27.1382,"walk_accessibility":0.4274,"metro_line_density":4.9542,"station_count":2,"line_count":3,"population_density":24746.7324,"poi_density":4.2223,"poi_diversity":1.677,"gdp_density":0.0,"P":24746.7324,"I":4.2223,"G":0.0},{"stationName":"上海杨思(地铁站)","station_id":"上海杨思(地铁站)_31.16309_121.48899","lineId":"上海地铁8号线","lat":31.16308806,"lon":121.48899317,"area_km2":1.5984,"D":0.3643,"C":0.9744,"T":0.1362,"U1":0.1668,"U2":0.1056,"couplingDegree":0.3643,"level":"中度失调","road_density":15.7331,"walk_accessibility":0.3205,"metro_line_density":3.1212,"station_count":2,"line_count":2,"population_density":13850.607,"poi_density":5.005,"poi_diversity":1.4942,"gdp_density":0.0,"P":13850.607,"I":5.005,"G":0.0},{"stationName":"上海成山路(地铁站)","station_id":"上海成山路(地铁站)_31.17302_121.49230","lineId":"上海地铁13号线 / 上海地铁8号线","lat":31.173015470000003,"lon":121.492296005,"area_km2":1.7549,"D":0.478,"C":0.9009,"T":0.2536,"U1":0.3637,"U2":0.1436,"couplingDegree":0.478,"level":"勉强协调","road_density":16.9118,"walk_accessibility":0.3518,"metro_line_density":5.016,"station_count":4,"line_count":3,"population_density":6788.5808,"poi_density":3.9889,"poi_diversity":1.277,"gdp_density":110545.0837,"P":6788.5808,"I":3.9889,"G":110545.0837},{"stationName":"上海中华艺术宫(地铁站)","station_id":"上海中华艺术宫(地铁站)_31.18726_121.48918","lineId":"上海地铁8号线","lat":31.1872639,"lon":121.48917574,"area_km2":2.3299,"D":0.6966,"C":0.9999,"T":0.4853,"U1":0.4792,"U2":0.4914,"couplingDegree":0.6966,"level":"良好协调","road_density":22.2419,"walk_accessibility":0.4671,"metro_line_density":5.9999,"station_count":4,"line_count":4,"population_density":7450.1095,"poi_density":22.7478,"poi_diversity":2.0901,"gdp_density":588735.9115,"P":7450.1095,"I":22.7478,"G":588735.9115},{"stationName":"上海陆家浜路(地铁站)","station_id":"上海陆家浜路(地铁站)_31.21378_121.48164","lineId":"上海地铁8号线","lat":31.213775425,"lon":121.48163531,"area_km2":3.6408,"D":0.7299,"C":0.9858,"T":0.5404,"U1":0.6313,"U2":0.4496,"couplingDegree":0.7299,"level":"良好协调","road_density":23.2047,"walk_accessibility":0.73,"metro_line_density":4.0091,"station_count":5,"line_count":5,"population_density":41127.8509,"poi_density":14.8317,"poi_diversity":2.6632,"gdp_density":388292.6163,"P":41127.8509,"I":14.8317,"G":388292.6163},{"stationName":"上海老西门(地铁站)","station_id":"上海老西门(地铁站)_31.22087_121.47890","lineId":"上海地铁10号线 / 上海地铁8号线","lat":31.220867165,"lon":121.47890408,"area_km2":3.7962,"D":0.8059,"C":0.971,"T":0.6689,"U1":0.8289,"U2":0.5089,"couplingDegree":0.8059,"level":"优质协调","road_density":25.9341,"walk_accessibility":0.7611,"metro_line_density":4.7906,"station_count":7,"line_count":6,"population_density":30448.274,"poi_density":53.2114,"poi_diversity":2.949,"gdp_density":372404.252,"P":30448.274,"I":53.2114,"G":372404.252},{"stationName":"上海大世界(地铁站)","station_id":"上海大世界(地铁站)_31.22911_121.47523","lineId":"上海地铁14号线 / 上海地铁8号线","lat":31.229105465,"lon":121.4752349,"area_km2":4.0319,"D":0.8165,"C":0.9966,"T":0.669,"U1":0.7241,"U2":0.6138,"couplingDegree":0.8165,"level":"优质协调","road_density":33.8766,"walk_accessibility":0.8084,"metro_line_density":5.4774,"station_count":6,"line_count":5,"population_density":29393.7825,"poi_density":92.5113,"poi_diversity":3.1023,"gdp_density":414745.1455,"P":29393.7825,"I":92.5113,"G":414745.1455},{"stationName":"上海曲阜路(地铁站)","station_id":"上海曲阜路(地铁站)_31.24424_121.46701","lineId":"上海地铁8号线","lat":31.24423809,"lon":121.46701185,"area_km2":3.5113,"D":0.6922,"C":0.8409,"T":0.5698,"U1":0.8782,"U2":0.2614,"couplingDegree":0.6922,"level":"良好协调","road_density":28.5897,"walk_accessibility":0.704,"metro_line_density":3.9146,"station_count":8,"line_count":6,"population_density":25100.7844,"poi_density":39.871,"poi_diversity":2.9348,"gdp_density":0.0,"P":25100.7844,"I":39.871,"G":0.0},{"stationName":"上海中兴路(地铁站)","station_id":"上海中兴路(地铁站)_31.25515_121.46449","lineId":"上海地铁8号线","lat":31.25514782,"lon":121.46448545,"area_km2":2.6416,"D":0.6413,"C":0.9963,"T":0.4129,"U1":0.4484,"U2":0.3773,"couplingDegree":0.6413,"level":"良好协调","road_density":24.6901,"walk_accessibility":0.5296,"metro_line_density":4.4617,"station_count":5,"line_count":3,"population_density":51799.5363,"poi_density":12.1139,"poi_diversity":2.5145,"gdp_density":249311.0816,"P":51799.5363,"I":12.1139,"G":249311.0816},{"stationName":"上海西藏北路(地铁站)","station_id":"上海西藏北路(地铁站)_31.26537_121.46428","lineId":"上海地铁8号线","lat":31.26536738,"lon":121.46427653,"area_km2":2.7645,"D":0.5277,"C":0.9474,"T":0.294,"U1":0.3881,"U2":0.1999,"couplingDegree":0.5277,"level":"勉强协调","road_density":23.0797,"walk_accessibility":0.5543,"metro_line_density":2.0127,"station_count":4,"line_count":3,"population_density":43998.5967,"poi_density":5.0643,"poi_diversity":2.342,"gdp_density":0.0,"P":43998.5967,"I":5.0643,"G":0.0},{"stationName":"上海曲阳路(地铁站)","station_id":"上海曲阳路(地铁站)_31.27850_121.48667","lineId":"上海地铁8号线","lat":31.27849665,"lon":121.48667163,"area_km2":3.2734,"D":0.5621,"C":0.953,"T":0.3315,"U1":0.4319,"U2":0.2311,"couplingDegree":0.5621,"level":"勉强协调","road_density":32.62,"walk_accessibility":0.6563,"metro_line_density":3.8666,"station_count":4,"line_count":3,"population_density":37433.0392,"poi_density":2.4439,"poi_diversity":1.7329,"gdp_density":135538.6218,"P":37433.0392,"I":2.4439,"G":135538.6218},{"stationName":"上海四平路(地铁站)","station_id":"上海四平路(地铁站)_31.27688_121.49706","lineId":"上海地铁8号线","lat":31.27688415,"lon":121.49705802,"area_km2":3.3571,"D":0.5716,"C":0.9876,"T":0.3309,"U1":0.3829,"U2":0.2789,"couplingDegree":0.5716,"level":"勉强协调","road_density":29.1243,"walk_accessibility":0.6731,"metro_line_density":3.319,"station_count":5,"line_count":2,"population_density":42245.6332,"poi_density":5.3618,"poi_diversity":2.4762,"gdp_density":132159.766,"P":42245.6332,"I":5.3618,"G":132159.766},{"stationName":"上海鞍山新村(地铁站)","station_id":"上海鞍山新村(地铁站)_31.27527_121.50528","lineId":"上海地铁8号线","lat":31.27527032,"lon":121.50528451,"area_km2":2.8775,"D":0.5353,"C":0.9461,"T":0.3029,"U1":0.401,"U2":0.2047,"couplingDegree":0.5353,"level":"勉强协调","road_density":24.9554,"walk_accessibility":0.5769,"metro_line_density":3.5302,"station_count":4,"line_count":3,"population_density":16657.3035,"poi_density":3.1277,"poi_diversity":2.0432,"gdp_density":125786.4116,"P":16657.3035,"I":3.1277,"G":125786.4116},{"stationName":"上海江浦路(地铁站)","station_id":"上海江浦路(地铁站)_31.27640_121.51429","lineId":"上海地铁18号线 / 上海地铁8号线","lat":31.276395450000003,"lon":121.51428757,"area_km2":2.5623,"D":0.5095,"C":0.9498,"T":0.2733,"U1":0.3588,"U2":0.1878,"couplingDegree":0.5095,"level":"勉强协调","road_density":24.1941,"walk_accessibility":0.5137,"metro_line_density":4.3641,"station_count":5,"line_count":2,"population_density":29970.0976,"poi_density":1.9514,"poi_diversity":1.0549,"gdp_density":141262.4579,"P":29970.0976,"I":1.9514,"G":141262.4579},{"stationName":"上海黄兴路(地铁站)","station_id":"上海黄兴路(地铁站)_31.28089_121.52406","lineId":"上海地铁8号线","lat":31.280893405,"lon":121.52406494,"area_km2":2.3872,"D":0.3856,"C":0.8815,"T":0.1687,"U1":0.2484,"U2":0.0891,"couplingDegree":0.3856,"level":"中度失调","road_density":22.7077,"walk_accessibility":0.4786,"metro_line_density":2.7884,"station_count":3,"line_count":2,"population_density":30527.6257,"poi_density":0.8378,"poi_diversity":0.6931,"gdp_density":0.0,"P":30527.6257,"I":0.8378,"G":0.0},{"stationName":"上海延吉中路(地铁站)","station_id":"上海延吉中路(地铁站)_31.29064_121.53062","lineId":"上海地铁8号线","lat":31.29063633,"lon":121.5306242,"area_km2":2.309,"D":0.3772,"C":0.9996,"T":0.1423,"U1":0.1462,"U2":0.1385,"couplingDegree":0.3772,"level":"中度失调","road_density":18.4816,"walk_accessibility":0.4629,"metro_line_density":2.3789,"station_count":3,"line_count":1,"population_density":27695.0963,"poi_density":0.4331,"poi_diversity":0.0,"gdp_density":155384.5268,"P":27695.0963,"I":0.4331,"G":155384.5268},{"stationName":"上海黄兴公园(地铁站)","station_id":"上海黄兴公园(地铁站)_31.29748_121.52906","lineId":"上海地铁8号线","lat":31.297475249999998,"lon":121.52906191,"area_km2":2.0047,"D":0.2918,"C":0.86,"T":0.099,"U1":0.1496,"U2":0.0485,"couplingDegree":0.2918,"level":"中度失调","road_density":20.6544,"walk_accessibility":0.4019,"metro_line_density":2.8202,"station_count":3,"line_count":1,"population_density":26700.9963,"poi_density":0.4988,"poi_diversity":0.0,"gdp_density":0.0,"P":26700.9963,"I":0.4988,"G":0.0},{"stationName":"上海翔殷路(地铁站)","station_id":"上海翔殷路(地铁站)_31.30708_121.52765","lineId":"上海地铁8号线","lat":31.30708029,"lon":121.52764644,"area_km2":2.2193,"D":0.4237,"C":0.9544,"T":0.1881,"U1":0.2442,"U2":0.1319,"couplingDegree":0.4237,"level":"勉强协调","road_density":21.9071,"walk_accessibility":0.445,"metro_line_density":3.0631,"station_count":3,"line_count":2,"population_density":29142.4483,"poi_density":3.1541,"poi_diversity":1.5498,"gdp_density":0.0,"P":29142.4483,"I":3.1541,"G":0.0},{"stationName":"上海嫩江路(地铁站)","station_id":"上海嫩江路(地铁站)_31.31682_121.52763","lineId":"上海地铁20号线 / 上海地铁8号线","lat":31.316820865,"lon":121.52763156500001,"area_km2":2.7628,"D":0.4577,"C":0.969,"T":0.2162,"U1":0.2696,"U2":0.1628,"couplingDegree":0.4577,"level":"勉强协调","road_density":26.6957,"walk_accessibility":0.5539,"metro_line_density":3.6514,"station_count":3,"line_count":2,"population_density":13050.0125,"poi_density":7.9628,"poi_diversity":2.6024,"gdp_density":0.0,"P":13050.0125,"I":7.9628,"G":0.0},{"stationName":"上海市光路(地铁站)","station_id":"上海市光路(地铁站)_31.32480_121.52760","lineId":"上海地铁8号线","lat":31.32479686,"lon":121.52760498,"area_km2":3.0928,"D":0.4539,"C":0.992,"T":0.2077,"U1":0.2339,"U2":0.1815,"couplingDegree":0.4539,"level":"勉强协调","road_density":31.6403,"walk_accessibility":0.6201,"metro_line_density":1.5745,"station_count":2,"line_count":2,"population_density":22813.4883,"poi_density":10.0234,"poi_diversity":2.5474,"gdp_density":0.0,"P":22813.4883,"I":10.0234,"G":0.0},{"stationName":"上海上海松江站(地铁站)","station_id":"上海上海松江站(地铁站)_30.98697_121.22647","lineId":"上海地铁9号线","lat":30.98696657,"lon":121.22647377,"area_km2":1.2,"D":0.1256,"C":0.7311,"T":0.0216,"U1":0.0363,"U2":0.0069,"couplingDegree":0.1256,"level":"极度失调","road_density":20.3385,"walk_accessibility":0.2406,"metro_line_density":2.2699,"station_count":1,"line_count":1,"population_density":3849.8707,"poi_density":0.0,"poi_diversity":0.0,"gdp_density":0.0,"P":3849.8707,"I":0.0,"G":0.0},{"stationName":"上海醉白池(地铁站)","station_id":"上海醉白池(地铁站)_31.00326_121.22495","lineId":"上海地铁9号线","lat":31.00326411,"lon":121.22494796,"area_km2":1.4468,"D":0.1633,"C":0.9827,"T":0.0271,"U1":0.0221,"U2":0.0322,"couplingDegree":0.1633,"level":"极度失调","road_density":14.2777,"walk_accessibility":0.2901,"metro_line_density":2.3933,"station_count":1,"line_count":1,"population_density":0.0,"poi_density":2.7647,"poi_diversity":0.5623,"gdp_density":0.0,"P":0.0,"I":2.7647,"G":0.0},{"stationName":"上海松江体育中心(地铁站)","station_id":"上海松江体育中心(地铁站)_31.01814_121.22613","lineId":"上海地铁9号线","lat":31.01813752,"lon":121.22613289,"area_km2":1.6322,"D":0.2181,"C":0.9963,"T":0.0478,"U1":0.0437,"U2":0.0519,"couplingDegree":0.2181,"level":"中度失调","road_density":20.4853,"walk_accessibility":0.3272,"metro_line_density":2.2791,"station_count":1,"line_count":1,"population_density":11398.2022,"poi_density":2.4507,"poi_diversity":0.5623,"gdp_density":0.0,"P":11398.2022,"I":2.4507,"G":0.0},{"stationName":"上海松江新城(地铁站)","station_id":"上海松江新城(地铁站)_31.03242_121.22632","lineId":"上海地铁9号线","lat":31.032417995,"lon":121.226324765,"area_km2":2.2249,"D":0.2346,"C":0.9918,"T":0.0555,"U1":0.0484,"U2":0.0626,"couplingDegree":0.2346,"level":"中度失调","road_density":18.9058,"walk_accessibility":0.4461,"metro_line_density":2.3077,"station_count":1,"line_count":1,"population_density":5586.322,"poi_density":4.0451,"poi_diversity":0.6837,"gdp_density":21510.1939,"P":5586.322,"I":4.0451,"G":21510.1939},{"stationName":"上海松江大学城(地铁站)","station_id":"上海松江大学城(地铁站)_31.05609_121.22816","lineId":"上海地铁9号线","lat":31.0560943,"lon":121.22816102,"area_km2":1.1224,"D":0.1297,"C":0.7405,"T":0.0227,"U1":0.038,"U2":0.0074,"couplingDegree":0.1297,"level":"极度失调","road_density":18.4722,"walk_accessibility":0.225,"metro_line_density":4.715,"station_count":1,"line_count":1,"population_density":4183.1326,"poi_density":0.0,"poi_diversity":0.0,"gdp_density":0.0,"P":4183.1326,"I":0.0,"G":0.0},{"stationName":"上海洞泾(地铁站)","station_id":"上海洞泾(地铁站)_31.08755_121.22653","lineId":"上海地铁12号线 / 上海地铁9号线","lat":31.087548495,"lon":121.226528635,"area_km2":1.3544,"D":0.1822,"C":0.4649,"T":0.0714,"U1":0.1346,"U2":0.0082,"couplingDegree":0.1822,"level":"极度失调","road_density":17.9555,"walk_accessibility":0.2715,"metro_line_density":6.9769,"station_count":1,"line_count":2,"population_density":4596.2932,"poi_density":0.0,"poi_diversity":0.0,"gdp_density":0.0,"P":4596.2932,"I":0.0,"G":0.0},{"stationName":"上海佘山(地铁站)","station_id":"上海佘山(地铁站)_31.10618_121.22526","lineId":"上海地铁9号线","lat":31.10617731,"lon":121.22526439,"area_km2":1.0185,"D":0.0,"C":0.0,"T":0.014,"U1":0.028,"U2":0.0,"couplingDegree":0.0,"level":"极度失调","road_density":17.73,"walk_accessibility":0.2042,"metro_line_density":3.0154,"station_count":1,"line_count":1,"population_density":0.0,"poi_density":0.0,"poi_diversity":0.0,"gdp_density":0.0,"P":0.0,"I":0.0,"G":0.0},