{"cityCode":"440300","year":2017,"stations":[{"stationName":"深圳机场东(地铁站)","station_id":"深圳机场东(地铁站)_22.65001_113.81745","lineId":"深圳地铁12号线 / 深圳地铁1号线 / 深圳地铁20号线","lat":22.65000622333333,"lon":113.81745417333333,"area_km2":1.8094,"D":0.3441,"C":0.7551,"T":0.1568,"U1":0.2596,"U2":0.054,"couplingDegree":0.3441,"level":"中度失调","road_density":23.3038,"walk_accessibility":0.3628,"metro_line_density":6.5442,"station_count":1,"line_count":3,"population_density":9194.1551,"poi_density":0.5527,"poi_diversity":0.0,"gdp_density":114096.0054,"P":9194.1551,"I":0.5527,"G":114096.0054},{"stationName":"深圳后瑞(地铁站)","station_id":"深圳后瑞(地铁站)_22.63180_113.83045","lineId":"深圳地铁1号线","lat":22.6318011,"lon":113.83045122,"area_km2":2.1041,"D":0.2761,"C":0.9024,"T":0.0845,"U1":0.1209,"U2":0.0481,"couplingDegree":0.2761,"level":"中度失调","road_density":27.7809,"walk_accessibility":0.4219,"metro_line_density":5.241,"station_count":1,"line_count":1,"population_density":15668.9191,"poi_density":0.0,"poi_diversity":0.0,"gdp_density":68532.0945,"P":15668.9191,"I":0.0,"G":68532.0945},{"stationName":"深圳固戍(地铁站)","station_id":"深圳固戍(地铁站)_22.60435_113.84182","lineId":"深圳地铁1号线","lat":22.60435465,"lon":113.84182451,"area_km2":2.5354,"D":0.2312,"C":0.971,"T":0.0551,"U1":0.0682,"U2":0.0419,"couplingDegree":0.2312,"level":"中度失调","road_density":26.6834,"walk_accessibility":0.5083,"metro_line_density":2.1077,"station_count":1,"line_count":1,"population_density":12290.2251,"poi_density":0.0,"poi_diversity":0.0,"gdp_density":74842.5449,"P":12290.2251,"I":0.0,"G":74842.5449},{"stationName":"深圳西乡(地铁站)","station_id":"深圳西乡(地铁站)_22.57817_113.85812","lineId":"深圳地铁1号线","lat":22.57817025,"lon":113.85812138,"area_km2":2.6809,"D":0.4349,"C":0.9059,"T":0.2088,"U1":0.2972,"U2":0.1203,"couplingDegree":0.4349,"level":"勉强协调","road_density":28.7036,"walk_accessibility":0.5375,"metro_line_density":3.7063,"station_count":3,"line_count":3,"population_density":9905.1735,"poi_density":0.746,"poi_diversity":0.6931,"gdp_density":70182.1918,"P":9905.1735,"I":0.746,"G":70182.1918},{"stationName":"深圳坪洲(地铁站)","station_id":"深圳坪洲(地铁站)_22.57195_113.86578","lineId":"深圳地铁15号线 / 深圳地铁1号线","lat":22.571946635,"lon":113.865775895,"area_km2":2.9608,"D":0.4401,"C":0.9911,"T":0.1954,"U1":0.2215,"U2":0.1694,"couplingDegree":0.4401,"level":"勉强协调","road_density":30.6237,"walk_accessibility":0.5936,"metro_line_density":4.5866,"station_count":2,"line_count":2,"population_density":16124.5492,"poi_density":1.6888,"poi_diversity":0.9503,"gdp_density":22463.2827,"P":16124.5492,"I":1.6888,"G":22463.2827},{"stationName":"深圳宝体(地铁站)","station_id":"深圳宝体(地铁站)_22.56378_113.87575","lineId":"深圳地铁1号线","lat":22.5637833,"lon":113.87574882,"area_km2":3.1156,"D":0.5037,"C":0.9824,"T":0.2583,"U1":0.3065,"U2":0.2101,"couplingDegree":0.5037,"level":"勉强协调","road_density":41.7022,"walk_accessibility":0.6247,"metro_line_density":2.8603,"station_count":3,"line_count":3,"population_density":29776.7995,"poi_density":1.9258,"poi_diversity":1.0114,"gdp_density":21044.3964,"P":29776.7995,"I":1.9258,"G":21044.3964},{"stationName":"深圳宝安中心(地铁站)","station_id":"深圳宝安中心(地铁站)_22.55762_113.88236","lineId":"深圳地铁1号线 / 深圳地铁5号线","lat":22.55761773,"lon":113.882356145,"area_km2":3.4136,"D":0.5547,"C":0.9222,"T":0.3337,"U1":0.4628,"U2":0.2046,"couplingDegree":0.5547,"level":"勉强协调","road_density":41.0074,"walk_accessibility":0.6844,"metro_line_density":3.6275,"station_count":7,"line_count":3,"population_density":12795.473,"poi_density":1.7577,"poi_diversity":1.3297,"gdp_density":37995.0467,"P":12795.473,"I":1.7577,"G":37995.0467},{"stationName":"深圳新安(地铁站)","station_id":"深圳新安(地铁站)_22.55052_113.88975","lineId":"深圳地铁1号线","lat":22.5505208,"lon":113.88975332,"area_km2":3.0257,"D":0.4215,"C":0.8358,"T":0.2126,"U1":0.3292,"U2":0.0959,"couplingDegree":0.4215,"level":"勉强协调","road_density":40.2879,"walk_accessibility":0.6066,"metro_line_density":3.9059,"station_count":5,"line_count":2,"population_density":5880.7002,"poi_density":0.661,"poi_diversity":0.6931,"gdp_density":0.0,"P":5880.7002,"I":0.661,"G":0.0},{"stationName":"深圳前海湾(地铁站)","station_id":"深圳前海湾(地铁站)_22.54039_113.89306","lineId":"深圳地铁1号线","lat":22.5403881,"lon":113.89306479999999,"area_km2":2.3465,"D":0.1382,"C":0.1083,"T":0.1765,"U1":0.3519,"U2":0.001,"couplingDegree":0.1382,"level":"极度失调","road_density":43.4533,"walk_accessibility":0.4705,"metro_line_density":5.366,"station_count":5,"line_count":2,"population_density":471.334,"poi_density":0.0,"poi_diversity":0.0,"gdp_density":0.0,"P":471.334,"I":0.0,"G":0.0},{"stationName":"深圳鲤鱼门(地铁站)","station_id":"深圳鲤鱼门(地铁站)_22.53506_113.89822","lineId":"深圳地铁1号线","lat":22.53505852,"lon":113.89821563,"area_km2":2.5907,"D":0.2521,"C":0.4042,"T":0.1572,"U1":0.301,"U2":0.0134,"couplingDegree":0.2521,"level":"中度失调","road_density":40.3698,"walk_accessibility":0.5194,"metro_line_density":4.5708,"station_count":4,"line_count":2,"population_density":2558.0128,"poi_density":0.386,"poi_diversity":0.0,"gdp_density":0.0,"P":2558.0128,"I":0.386,"G":0.0},{"stationName":"深圳大新(地铁站)","station_id":"深圳大新(地铁站)_22.53528_113.91021","lineId":"深圳地铁1号线","lat":22.53528155,"lon":113.91021352,"area_km2":2.7798,"D":0.5868,"C":0.9971,"T":0.3454,"U1":0.319,"U2":0.3717,"couplingDegree":0.5868,"level":"勉强协调","road_density":30.3518,"walk_accessibility":0.5574,"metro_line_density":2.7702,"station_count":4,"line_count":3,"population_density":52372.7159,"poi_density":3.9571,"poi_diversity":1.4681,"gdp_density":147469.586,"P":52372.7159,"I":3.9571,"G":147469.586},{"stationName":"深圳桃园(地铁站)","station_id":"深圳桃园(地铁站)_22.53497_113.91996","lineId":"深圳地铁12号线 / 深圳地铁1号线","lat":22.534973825,"lon":113.91995836000001,"area_km2":2.9509,"D":0.6599,"C":0.9606,"T":0.4534,"U1":0.3274,"U2":0.5793,"couplingDegree":0.6599,"level":"良好协调","road_density":35.1938,"walk_accessibility":0.5916,"metro_line_density":4.6739,"station_count":3,"line_count":3,"population_density":45404.5015,"poi_density":10.1664,"poi_diversity":2.2003,"gdp_density":269261.7,"P":45404.5015,"I":10.1664,"G":269261.7},{"stationName":"深圳深大(地铁站)","station_id":"深圳深大(地铁站)_22.54225_113.93968","lineId":"深圳地铁1号线 / 深圳地铁20号线","lat":22.542249435000002,"lon":113.93968090499999,"area_km2":3.0953,"D":0.5527,"C":0.9799,"T":0.3117,"U1":0.374,"U2":0.2495,"couplingDegree":0.5527,"level":"勉强协调","road_density":38.5053,"walk_accessibility":0.6206,"metro_line_density":4.9497,"station_count":4,"line_count":3,"population_density":14835.2223,"poi_density":1.6154,"poi_diversity":1.3322,"gdp_density":254691.7766,"P":14835.2223,"I":1.6154,"G":254691.7766},{"stationName":"深圳高新园(地铁站)","station_id":"深圳高新园(地铁站)_22.54323_113.94895","lineId":"深圳地铁1号线","lat":22.54323071,"lon":113.94894998,"area_km2":3.0293,"D":0.4851,"C":0.9153,"T":0.2571,"U1":0.3607,"U2":0.1535,"couplingDegree":0.4851,"level":"勉强协调","road_density":40.1298,"walk_accessibility":0.6074,"metro_line_density":4.1185,"station_count":4,"line_count":3,"population_density":7836.2579,"poi_density":0.9903,"poi_diversity":0.6365,"gdp_density":264374.6706,"P":7836.2579,"I":0.9903,"G":264374.6706},{"stationName":"深圳白石洲(地铁站)","station_id":"深圳白石洲(地铁站)_22.54236_113.96268","lineId":"深圳地铁1号线 / 深圳地铁29号线","lat":22.54235794,"lon":113.9626828,"area_km2":2.3067,"D":0.5291,"C":0.9836,"T":0.2846,"U1":0.2332,"U2":0.336,"couplingDegree":0.5291,"level":"勉强协调","road_density":30.435,"walk_accessibility":0.4625,"metro_line_density":5.6996,"station_count":2,"line_count":2,"population_density":19766.3277,"poi_density":3.4682,"poi_diversity":1.5596,"gdp_density":332884.5538,"P":19766.3277,"I":3.4682,"G":332884.5538},{"stationName":"深圳世界之窗(地铁站)","station_id":"深圳世界之窗(地铁站)_22.53984_113.96928","lineId":"深圳地铁1号线","lat":22.539844119999998,"lon":113.96928457,"area_km2":2.2183,"D":0.5394,"C":0.9953,"T":0.2923,"U1":0.2641,"U2":0.3206,"couplingDegree":0.5394,"level":"勉强协调","road_density":27.1948,"walk_accessibility":0.4448,"metro_line_density":5.7958,"station_count":3,"line_count":2,"population_density":12003.7995,"poi_density":4.508,"poi_diversity":1.6957,"gdp_density":166256.7702,"P":12003.7995,"I":4.508,"G":166256.7702},{"stationName":"深圳华侨城(地铁站)","station_id":"深圳华侨城(地铁站)_22.53640_113.98041","lineId":"深圳地铁1号线","lat":22.53640038,"lon":113.98041078,"area_km2":1.9388,"D":0.5123,"C":0.9969,"T":0.2632,"U1":0.2427,"U2":0.2838,"couplingDegree":0.5123,"level":"勉强协调","road_density":27.7476,"walk_accessibility":0.3887,"metro_line_density":2.8013,"station_count":4,"line_count":2,"population_density":7931.5569,"poi_density":3.6104,"poi_diversity":1.5498,"gdp_density":191215.8688,"P":7931.5569,"I":3.6104,"G":191215.8688},{"stationName":"深圳侨城东(地铁站)","station_id":"深圳侨城东(地铁站)_22.53528_113.99167","lineId":"深圳地铁1号线","lat":22.53528443,"lon":113.991665165,"area_km2":2.6443,"D":0.4568,"C":0.9866,"T":0.2115,"U1":0.2461,"U2":0.177,"couplingDegree":0.4568,"level":"勉强协调","road_density":32.6023,"walk_accessibility":0.5302,"metro_line_density":4.0618,"station_count":3,"line_count":2,"population_density":6486.8612,"poi_density":1.5127,"poi_diversity":1.0397,"gdp_density":140203.8247,"P":6486.8612,"I":1.5127,"G":140203.8247},{"stationName":"深圳竹子林(地铁站)","station_id":"深圳竹子林(地铁站)_22.53618_114.00889","lineId":"深圳地铁1号线","lat":22.53618372,"lon":114.00888869,"area_km2":2.636,"D":0.5222,"C":0.9735,"T":0.28,"U1":0.344,"U2":0.2161,"couplingDegree":0.5222,"level":"勉强协调","road_density":36.8073,"walk_accessibility":0.5285,"metro_line_density":5.6801,"station_count":3,"line_count":3,"population_density":21030.6823,"poi_density":1.5174,"poi_diversity":1.3863,"gdp_density":0.0,"P":21030.6823,"I":1.5174,"G":0.0},{"stationName":"深圳车公庙(地铁站)","station_id":"深圳车公庙(地铁站)_22.53872_114.02221","lineId":"深圳地铁1号线 / 深圳地铁7号线","lat":22.53871917,"lon":114.02220625,"area_km2":2.4824,"D":0.6089,"C":0.9859,"T":0.3761,"U1":0.4389,"U2":0.3132,"couplingDegree":0.6089,"level":"良好协调","road_density":40.5783,"walk_accessibility":0.4977,"metro_line_density":8.8111,"station_count":4,"line_count":3,"population_density":21574.2982,"poi_density":2.417,"poi_diversity":1.2425,"gdp_density":465165.4666,"P":21574.2982,"I":2.417,"G":465165.4666},{"stationName":"深圳香蜜湖(地铁站)","station_id":"深圳香蜜湖(地铁站)_22.54164_114.03355","lineId":"深圳地铁1号线","lat":22.54164462,"lon":114.03355214,"area_km2":1.6897,"D":0.5947,"C":0.998,"T":0.3544,"U1":0.3771,"U2":0.3318,"couplingDegree":0.5947,"level":"勉强协调","road_density":32.3984,"walk_accessibility":0.3388,"metro_line_density":8.5232,"station_count":3,"line_count":3,"population_density":16547.6729,"poi_density":3.5509,"poi_diversity":1.3297,"gdp_density":455109.5324,"P":16547.6729,"I":3.5509,"G":455109.5324},{"stationName":"深圳购物公园(地铁站)","station_id":"深圳购物公园(地铁站)_22.53683_114.04872","lineId":"深圳地铁1号线 / 深圳地铁3号线","lat":22.536828185,"lon":114.04872448500001,"area_km2":2.9494,"D":0.7466,"C":0.9968,"T":0.5592,"U1":0.6039,"U2":0.5146,"couplingDegree":0.7466,"level":"良好协调","road_density":39.2579,"walk_accessibility":0.5913,"metro_line_density":5.3532,"station_count":5,"line_count":6,"population_density":22964.5791,"poi_density":6.781,"poi_diversity":1.7559,"gdp_density":761359.6097,"P":22964.5791,"I":6.781,"G":761359.6097},{"stationName":"深圳会展中心(地铁站)","station_id":"深圳会展中心(地铁站)_22.53748_114.05598","lineId":"深圳地铁1号线","lat":22.537482,"lon":114.05598438,"area_km2":2.8183,"D":0.7866,"C":0.9983,"T":0.6199,"U1":0.6563,"U2":0.5834,"couplingDegree":0.7866,"level":"良好协调","road_density":39.9326,"walk_accessibility":0.5651,"metro_line_density":6.3594,"station_count":6,"line_count":6,"population_density":25343.0176,"poi_density":9.2253,"poi_diversity":1.8708,"gdp_density":775283.6225,"P":25343.0176,"I":9.2253,"G":775283.6225},{"stationName":"深圳岗厦(地铁站)","station_id":"深圳岗厦(地铁站)_22.53720_114.06300","lineId":"深圳地铁10号线 / 深圳地铁1号线","lat":22.53719936,"lon":114.06300142,"area_km2":3.0179,"D":0.7434,"C":0.9916,"T":0.5573,"U1":0.6294,"U2":0.4852,"couplingDegree":0.7434,"level":"良好协调","road_density":39.3513,"walk_accessibility":0.6051,"metro_line_density":6.7213,"station_count":5,"line_count":6,"population_density":36757.9708,"poi_density":5.6331,"poi_diversity":1.7565,"gdp_density":576357.9375,"P":36757.9708,"I":5.6331,"G":576357.9375},{"stationName":"深圳华强路(地铁站)","station_id":"深圳华强路(地铁站)_22.54314_114.08000","lineId":"深圳地铁1号线","lat":22.54314425,"lon":114.08000402,"area_km2":3.0295,"D":0.8217,"C":0.9954,"T":0.6783,"U1":0.743,"U2":0.6136,"couplingDegree":0.8217,"level":"优质协调","road_density":29.8098,"walk_accessibility":0.6074,"metro_line_density":7.9828,"station_count":8,"line_count":6,"population_density":57317.9169,"poi_density":9.5727,"poi_diversity":2.3718,"gdp_density":283550.9185,"P":57317.9169,"I":9.5727,"G":283550.9185},{"stationName":"深圳科学馆(地铁站)","station_id":"深圳科学馆(地铁站)_22.54281_114.09065","lineId":"深圳地铁1号线 / 深圳地铁6号线","lat":22.542808015,"lon":114.09064715,"area_km2":2.5726,"D":0.834,"C":0.9955,"T":0.6987,"U1":0.7653,"U2":0.6322,"couplingDegree":0.834,"level":"优质协调","road_density":32.2578,"walk_accessibility":0.5158,"metro_line_density":7.7812,"station_count":7,"line_count":7,"population_density":68447.2518,"poi_density":9.329,"poi_diversity":2.268,"gdp_density":331119.0081,"P":68447.2518,"I":9.329,"G":331119.0081},{"stationName":"深圳大剧院(地铁站)","station_id":"深圳大剧院(地铁站)_22.54405_114.10295","lineId":"深圳地铁1号线 / 深圳地铁2号线 / 深圳地铁5号线","lat":22.54404932,"lon":114.1029459975,"area_km2":2.8679,"D":0.8701,"C":0.9943,"T":0.7614,"U1":0.8428,"U2":0.68,"couplingDegree":0.8701,"level":"优质协调","road_density":37.1631,"walk_accessibility":0.575,"metro_line_density":9.55,"station_count":8,"line_count":7,"population_density":54498.4621,"poi_density":11.158,"poi_diversity":2.5154,"gdp_density":415495.8549,"P":54498.4621,"I":11.158,"G":415495.8549},{"stationName":"深圳老街(地铁站)","station_id":"深圳老街(地铁站)_22.54744_114.11095","lineId":"深圳地铁17号线 / 深圳地铁1号线 / 深圳地铁3号线","lat":22.547437164999998,"lon":114.1109457625,"area_km2":3.0672,"D":0.9096,"C":0.9993,"T":0.828,"U1":0.8583,"U2":0.7977,"couplingDegree":0.9096,"level":"优质协调","road_density":34.5057,"walk_accessibility":0.615,"metro_line_density":8.5457,"station_count":9,"line_count":7,"population_density":73417.218,"poi_density":13.0411,"poi_diversity":2.5456,"gdp_density":592078.188,"P":73417.218,"I":13.0411,"G":592078.188},{"stationName":"深圳国贸(地铁站)","station_id":"深圳国贸(地铁站)_22.54236_114.11373","lineId":"深圳地铁1号线","lat":22.54236105,"lon":114.11372756,"area_km2":2.898,"D":0.8706,"C":0.9953,"T":0.7615,"U1":0.8353,"U2":0.6878,"couplingDegree":0.8706,"level":"优质协调","road_density":34.7328,"walk_accessibility":0.581,"metro_line_density":8.9086,"station_count":10,"line_count":6,"population_density":47933.0176,"poi_density":12.0772,"poi_diversity":2.4084,"gdp_density":488189.4902,"P":47933.0176,"I":12.0772,"G":488189.4902},{"stationName":"深圳罗湖(地铁站)","station_id":"深圳罗湖(地铁站)_22.53455_114.11352","lineId":"深圳地铁1号线","lat":22.53455081,"lon":114.11352383,"area_km2":1.9686,"D":0.7113,"C":0.9883,"T":0.512,"U1":0.4338,"U2":0.5902,"couplingDegree":0.7113,"level":"良好协调","road_density":36.1087,"walk_accessibility":0.3947,"metro_line_density":5.3452,"station_count":6,"line_count":3,"population_density":28412.9555,"poi_density":12.6995,"poi_diversity":2.0579,"gdp_density":327059.6193,"P":28412.9555,"I":12.6995,"G":327059.6193},{"stationName":"深圳湾厦(地铁站)","station_id":"深圳湾厦(地铁站)_22.49638_113.93374","lineId":"深圳地铁2号线","lat":22.496378425,"lon":113.93373575,"area_km2":2.5806,"D":0.5239,"C":0.9691,"T":0.2832,"U1":0.2133,"U2":0.3532,"couplingDegree":0.5239,"level":"勉强协调","road_density":37.4045,"walk_accessibility":0.5174,"metro_line_density":1.8848,"station_count":3,"line_count":2,"population_density":3480.605,"poi_density":10.4627,"poi_diversity":1.3385,"gdp_density":0.0,"P":3480.605,"I":10.4627,"G":0.0},{"stationName":"深圳后海(地铁站)","station_id":"深圳后海(地铁站)_22.52078_113.93700","lineId":"深圳地铁11号线 / 深圳地铁2号线","lat":22.52077919,"lon":113.93700366,"area_km2":3.2515,"D":0.6016,"C":0.9893,"T":0.3658,"U1":0.4192,"U2":0.3125,"couplingDegree":0.6016,"level":"良好协调","road_density":43.4973,"walk_accessibility":0.6519,"metro_line_density":3.4545,"station_count":4,"line_count":4,"population_density":2936.8133,"poi_density":3.9982,"poi_diversity":2.245,"gdp_density":0.0,"P":2936.8133,"I":3.9982,"G":0.0},{"stationName":"深圳景田(地铁站)","station_id":"深圳景田(地铁站)_22.55616_114.03825","lineId":"深圳地铁2号线","lat":22.55616499,"lon":114.038249175,"area_km2":2.589,"D":0.6357,"C":0.9682,"T":0.4174,"U1":0.313,"U2":0.5218,"couplingDegree":0.6357,"level":"良好协调","road_density":25.6758,"walk_accessibility":0.5191,"metro_line_density":4.5008,"station_count":5,"line_count":2,"population_density":9676.2721,"poi_density":10.4287,"poi_diversity":2.321,"gdp_density":288067.0459,"P":9676.2721,"I":10.4287,"G":288067.0459},{"stationName":"深圳福田(地铁站)","station_id":"深圳福田(地铁站)_22.54272_114.04896","lineId":"深圳地铁11号线 / 深圳地铁2号线 / 深圳地铁3号线","lat":22.542715333333334,"lon":114.04896284666667,"area_km2":3.1711,"D":0.7314,"C":0.9926,"T":0.5389,"U1":0.6041,"U2":0.4736,"couplingDegree":0.7314,"level":"良好协调","road_density":38.949,"walk_accessibility":0.6358,"metro_line_density":6.7918,"station_count":6,"line_count":5,"population_density":14166.6767,"poi_density":6.6223,"poi_diversity":1.9546,"gdp_density":567775.6715,"P":14166.6767,"I":6.6223,"G":567775.6715},{"stationName":"深圳岗厦北(地铁站)","station_id":"深圳岗厦北(地铁站)_22.54251_114.06310","lineId":"深圳地铁10号线 / 深圳地铁11号线 / 深圳地铁2号线","lat":22.54250847333333,"lon":114.06310459666668,"area_km2":3.0388,"D":0.752,"C":0.9817,"T":0.5761,"U1":0.6858,"U2":0.4664,"couplingDegree":0.752,"level":"良好协调","road_density":36.2552,"walk_accessibility":0.6093,"metro_line_density":8.1579,"station_count":6,"line_count":6,"population_density":20952.5509,"poi_density":5.5944,"poi_diversity":1.9504,"gdp_density":562784.3006,"P":20952.5509,"I":5.5944,"G":562784.3006},{"stationName":"深圳黄贝岭(地铁站)","station_id":"深圳黄贝岭(地铁站)_22.54881_114.13127","lineId":"深圳地铁2号线","lat":22.54880508,"lon":114.13126658499999,"area_km2":2.2937,"D":0.637,"C":0.9705,"T":0.4181,"U1":0.3173,"U2":0.5188,"couplingDegree":0.637,"level":"良好协调","road_density":30.6119,"walk_accessibility":0.4599,"metro_line_density":4.9341,"station_count":3,"line_count":3,"population_density":48702.2362,"poi_density":7.8476,"poi_diversity":1.908,"gdp_density":311223.368,"P":48702.2362,"I":7.8476,"G":311223.368},{"stationName":"深圳莲塘(地铁站)","station_id":"深圳莲塘(地铁站)_22.56689_114.16932","lineId":"深圳地铁2号线","lat":22.56689319,"lon":114.16932174,"area_km2":1.6003,"D":0.2648,"C":0.8416,"T":0.0833,"U1":0.1284,"U2":0.0383,"couplingDegree":0.2648,"level":"中度失调","road_density":25.0486,"walk_accessibility":0.3208,"metro_line_density":2.3281,"station_count":3,"line_count":1,"population_density":2125.9024,"poi_density":0.6249,"poi_diversity":0.0,"gdp_density":106116.0872,"P":2125.9024,"I":0.6249,"G":106116.0872},{"stationName":"深圳海山(地铁站)","station_id":"深圳海山(地铁站)_22.55840_114.23288","lineId":"深圳地铁2号线","lat":22.55839839,"lon":114.23287589,"area_km2":2.4557,"D":0.3775,"C":0.9368,"T":0.1521,"U1":0.0989,"U2":0.2053,"couplingDegree":0.3775,"level":"中度失调","road_density":24.8881,"walk_accessibility":0.4924,"metro_line_density":2.0681,"station_count":2,"line_count":1,"population_density":13868.7261,"poi_density":2.036,"poi_diversity":1.3322,"gdp_density":0.0,"P":13868.7261,"I":2.036,"G":0.0},{"stationName":"深圳大梅沙(地铁站)","station_id":"深圳大梅沙(地铁站)_22.59690_114.30297","lineId":"深圳地铁2号线","lat":22.59689826,"lon":114.30297058,"area_km2":1.0853,"D":0.3694,"C":0.9646,"T":0.1414,"U1":0.1042,"U2":0.1787,"couplingDegree":0.3694,"level":"中度失调","road_density":30.5991,"walk_accessibility":0.2176,"metro_line_density":4.7695,"station_count":1,"line_count":1,"population_density":0.0,"poi_density":3.6855,"poi_diversity":1.0397,"gdp_density":0.0,"P":0.0,"I":3.6855,"G":0.0},{"stationName":"深圳赤湾(地铁站)","station_id":"深圳赤湾(地铁站)_22.48228_113.89266","lineId":"深圳地铁2号线","lat":22.48228075,"lon":113.8926602,"area_km2":1.6622,"D":0.155,"C":0.9289,"T":0.0258,"U1":0.0354,"U2":0.0163,"couplingDegree":0.155,"level":"极度失调","road_density":24.4097,"walk_accessibility":0.3333,"metro_line_density":1.0588,"station_count":1,"line_count":1,"population_density":1879.4669,"poi_density":0.6016,"poi_diversity":0.0,"gdp_density":0.0,"P":1879.4669,"I":0.6016,"G":0.0},{"stationName":"深圳蛇口港(地铁站)","station_id":"深圳蛇口港(地铁站)_22.47968_113.90747","lineId":"深圳地铁2号线","lat":22.47967754,"lon":113.90747461,"area_km2":2.1905,"D":0.4178,"C":0.9989,"T":0.1747,"U1":0.1828,"U2":0.1666,"couplingDegree":0.4178,"level":"勉强协调","road_density":27.7748,"walk_accessibility":0.4392,"metro_line_density":3.1902,"station_count":2,"line_count":2,"population_density":11434.6878,"poi_density":2.2826,"poi_diversity":0.9503,"gdp_density":0.0,"P":11434.6878,"I":2.2826,"G":0.0},{"stationName":"深圳海上世界(地铁站)","station_id":"深圳海上世界(地铁站)_22.48836_113.90973","lineId":"深圳地铁12号线 / 深圳地铁2号线","lat":22.488362535,"lon":113.90973415,"area_km2":2.6632,"D":0.4829,"C":0.996,"T":0.2342,"U1":0.2132,"U2":0.2551,"couplingDegree":0.4829,"level":"勉强协调","road_density":25.9258,"walk_accessibility":0.534,"metro_line_density":2.7669,"station_count":3,"line_count":2,"population_density":25888.2594,"poi_density":2.2529,"poi_diversity":1.2425,"gdp_density":141006.9975,"P":25888.2594,"I":2.2529,"G":141006.9975},{"stationName":"深圳水湾(地铁站)","station_id":"深圳水湾(地铁站)_22.49144_113.91483","lineId":"深圳地铁2号线","lat":22.49143653,"lon":113.91482918,"area_km2":2.9719,"D":0.5619,"C":0.9888,"T":0.3193,"U1":0.2716,"U2":0.367,"couplingDegree":0.5619,"level":"勉强协调","road_density":26.5,"walk_accessibility":0.5959,"metro_line_density":2.2666,"station_count":3,"line_count":3,"population_density":51129.6943,"poi_density":3.0284,"poi_diversity":1.677,"gdp_density":126359.3447,"P":51129.6943,"I":3.0284,"G":126359.3447},{"stationName":"深圳东角头(地铁站)","station_id":"深圳东角头(地铁站)_22.48908_113.92671","lineId":"深圳地铁13号线 / 深圳地铁2号线","lat":22.489081140000003,"lon":113.92670812,"area_km2":2.7311,"D":0.4862,"C":0.9901,"T":0.2388,"U1":0.2053,"U2":0.2722,"couplingDegree":0.4862,"level":"勉强协调","road_density":30.3926,"walk_accessibility":0.5476,"metro_line_density":1.9106,"station_count":3,"line_count":2,"population_density":33504.098,"poi_density":1.8308,"poi_diversity":1.6094,"gdp_density":0.0,"P":33504.098,"I":1.8308,"G":0.0},{"stationName":"深圳海月(地铁站)","station_id":"深圳海月(地铁站)_22.50343_113.93285","lineId":"深圳地铁2号线","lat":22.50343499,"lon":113.9328472,"area_km2":3.0329,"D":0.5232,"C":0.8949,"T":0.3059,"U1":0.1694,"U2":0.4424,"couplingDegree":0.5232,"level":"勉强协调","road_density":39.746,"walk_accessibility":0.6081,"metro_line_density":2.4359,"station_count":3,"line_count":1,"population_density":3376.3035,"poi_density":11.2104,"poi_diversity":1.8472,"gdp_density":117707.3714,"P":3376.3035,"I":11.2104,"G":117707.3714},{"stationName":"深圳登良(地铁站)","station_id":"深圳登良(地铁站)_22.51217_113.93273","lineId":"深圳地铁2号线","lat":22.51217143,"lon":113.93273309,"area_km2":3.0466,"D":0.5543,"C":0.9942,"T":0.3091,"U1":0.3424,"U2":0.2757,"couplingDegree":0.5543,"level":"勉强协调","road_density":39.3234,"walk_accessibility":0.6108,"metro_line_density":3.1542,"station_count":4,"line_count":3,"population_density":2820.8092,"poi_density":3.2823,"poi_diversity":2.0253,"gdp_density":0.0,"P":2820.8092,"I":3.2823,"G":0.0},{"stationName":"深圳科苑(地铁站)","station_id":"深圳科苑(地铁站)_22.53003_113.94132","lineId":"深圳地铁2号线","lat":22.53002996,"lon":113.94131533,"area_km2":3.1318,"D":0.563,"C":0.9464,"T":0.3349,"U1":0.4431,"U2":0.2267,"couplingDegree":0.563,"level":"勉强协调","road_density":38.2572,"walk_accessibility":0.6279,"metro_line_density":3.3521,"station_count":5,"line_count":4,"population_density":2997.3551,"poi_density":1.5965,"poi_diversity":1.3322,"gdp_density":273237.7959,"P":2997.3551,"I":1.5965,"G":273237.7959},{"stationName":"深圳红树湾(地铁站)","station_id":"深圳红树湾(地铁站)_22.52810_113.96351","lineId":"深圳地铁2号线","lat":22.52810144,"lon":113.96351323,"area_km2":1.7324,"D":0.3355,"C":0.5834,"T":0.193,"U1":0.3497,"U2":0.0362,"couplingDegree":0.3355,"level":"中度失调","road_density":30.1136,"walk_accessibility":0.3473,"metro_line_density":7.1564,"station_count":3,"line_count":3,"population_density":16468.3339,"poi_density":0.0,"poi_diversity":0.0,"gdp_density":0.0,"P":16468.3339,"I":0.0,"G":0.0},{"stationName":"深圳侨城北(地铁站)","station_id":"深圳侨城北(地铁站)_22.54689_113.98418","lineId":"深圳地铁2号线","lat":22.54689151,"lon":113.98418133,"area_km2":1.5372,"D":0.3961,"C":0.9977,"T":0.1572,"U1":0.1679,"U2":0.1466,"couplingDegree":0.3961,"level":"中度失调","road_density":25.163,"walk_accessibility":0.3082,"metro_line_density":1.0672,"station_count":3,"line_count":2,"population_density":1489.6862,"poi_density":1.301,"poi_diversity":0.6931,"gdp_density":239406.2409,"P":1489.6862,"I":1.301,"G":239406.2409},{"stationName":"深圳深康(地铁站)","station_id":"深圳深康(地铁站)_22.54933_113.99385","lineId":"深圳地铁2号线","lat":22.54932677,"lon":113.99385475,"area_km2":1.2395,"D":0.3503,"C":0.7901,"T":0.1553,"U1":0.2505,"U2":0.0601,"couplingDegree":0.3503,"level":"中度失调","road_density":25.2256,"walk_accessibility":0.2485,"metro_line_density":3.9161,"station_count":4,"line_count":2,"population_density":1100.4286,"poi_density":0.0,"poi_diversity":0.0,"gdp_density":290946.3849,"P":1100.4286,"I":0.0,"G":290946.3849},{"stationName":"深圳安托山(地铁站)","station_id":"深圳安托山(地铁站)_22.55163_114.00123","lineId":"深圳地铁2号线 / 深圳地铁7号线","lat":22.55163211,"lon":114.00122526999999,"area_km2":1.5554,"D":0.2963,"C":0.6933,"T":0.1267,"U1":0.2179,"U2":0.0354,"couplingDegree":0.2963,"level":"中度失调","road_density":23.9415,"walk_accessibility":0.3119,"metro_line_density":3.9431,"station_count":3,"line_count":2,"population_density":6515.3384,"poi_density":0.0,"poi_diversity":0.0,"gdp_density":106142.6679,"P":6515.3384,"I":0.0,"G":106142.6679},{"stationName":"深圳侨香(地铁站)","station_id":"深圳侨香(地铁站)_22.55261_114.00935","lineId":"深圳地铁2号线","lat":22.55260751,"lon":114.00934651,"area_km2":2.5758,"D":0.4117,"C":0.9268,"T":0.1828,"U1":0.2515,"U2":0.1142,"couplingDegree":0.4117,"level":"勉强协调","road_density":28.2515,"walk_accessibility":0.5164,"metro_line_density":2.8202,"station_count":4,"line_count":2,"population_density":10658.3527,"poi_density":0.3882,"poi_diversity":0.0,"gdp_density":417967.6472,"P":10658.3527,"I":0.3882,"G":417967.6472},{"stationName":"深圳香蜜(地铁站)","station_id":"深圳香蜜(地铁站)_22.55557_114.01880","lineId":"深圳地铁2号线","lat":22.55556774,"lon":114.01879815,"area_km2":2.0413,"D":0.2627,"C":0.7507,"T":0.0919,"U1":0.1527,"U2":0.0312,"couplingDegree":0.2627,"level":"中度失调","road_density":31.6247,"walk_accessibility":0.4093,"metro_line_density":2.8435,"station_count":3,"line_count":1,"population_density":7204.2763,"poi_density":0.0,"poi_diversity":0.0,"gdp_density":77367.5885,"P":7204.2763,"I":0.0,"G":77367.5885},{"stationName":"深圳香梅北(地铁站)","station_id":"深圳香梅北(地铁站)_22.55663_114.02764","lineId":"深圳地铁2号线","lat":22.5566329,"lon":114.02764343,"area_km2":2.0293,"D":0.6246,"C":0.975,"T":0.4002,"U1":0.3112,"U2":0.4892,"couplingDegree":0.6246,"level":"良好协调","road_density":26.5372,"walk_accessibility":0.4069,"metro_line_density":4.7073,"station_count":5,"line_count":2,"population_density":12030.8232,"poi_density":11.334,"poi_diversity":1.9675,"gdp_density":183958.896,"P":12030.8232,"I":11.334,"G":183958.896},{"stationName":"深圳莲花西(地铁站)","station_id":"深圳莲花西(地铁站)_22.54940_114.04493","lineId":"深圳地铁2号线","lat":22.54939978,"lon":114.04492966,"area_km2":2.8644,"D":0.6608,"C":0.9839,"T":0.4438,"U1":0.5232,"U2":0.3645,"couplingDegree":0.6608,"level":"良好协调","road_density":31.2196,"walk_accessibility":0.5743,"metro_line_density":5.0734,"station_count":5,"line_count":5,"population_density":12720.7579,"poi_density":3.8403,"poi_diversity":2.0198,"gdp_density":283627.83,"P":12720.7579,"I":3.8403,"G":283627.83},{"stationName":"深圳市民中心(地铁站)","station_id":"深圳市民中心(地铁站)_22.54396_114.05625","lineId":"深圳地铁2号线 / 深圳地铁4号线","lat":22.54396157,"lon":114.05624833499999,"area_km2":2.9712,"D":0.7121,"C":0.924,"T":0.5487,"U1":0.7585,"U2":0.3389,"couplingDegree":0.7121,"level":"良好协调","road_density":39.3949,"walk_accessibility":0.5957,"metro_line_density":8.0965,"station_count":8,"line_count":6,"population_density":7033.609,"poi_density":3.3657,"poi_diversity":1.973,"gdp_density":289947.2196,"P":7033.609,"I":3.3657,"G":289947.2196},{"stationName":"深圳华强北(地铁站)","station_id":"深圳华强北(地铁站)_22.54662_114.08091","lineId":"深圳地铁2号线 / 深圳地铁7号线","lat":22.54661839,"lon":114.080908915,"area_km2":3.0984,"D":0.8313,"C":0.9979,"T":0.6925,"U1":0.7379,"U2":0.6471,"couplingDegree":0.8313,"level":"优质协调","road_density":28.9543,"walk_accessibility":0.6212,"metro_line_density":7.7189,"station_count":8,"line_count":6,"population_density":59417.4853,"poi_density":10.3278,"poi_diversity":2.5202,"gdp_density":277237.0058,"P":59417.4853,"I":10.3278,"G":277237.0058},{"stationName":"深圳燕南(地铁站)","station_id":"深圳燕南(地铁站)_22.54722_114.08743","lineId":"深圳地铁2号线","lat":22.54722282,"lon":114.08743455,"area_km2":2.7574,"D":0.8599,"C":0.9968,"T":0.7417,"U1":0.6829,"U2":0.8006,"couplingDegree":0.8599,"level":"优质协调","road_density":27.3696,"walk_accessibility":0.5529,"metro_line_density":6.9653,"station_count":7,"line_count":6,"population_density":90216.5779,"poi_density":13.7809,"poi_diversity":2.6166,"gdp_density":308926.8458,"P":90216.5779,"I":13.7809,"G":308926.8458},{"stationName":"深圳湖贝(地铁站)","station_id":"深圳湖贝(地铁站)_22.54674_114.11873","lineId":"深圳地铁2号线 / 深圳地铁5号线","lat":22.546738225,"lon":114.11872700500001,"area_km2":2.9587,"D":0.8738,"C":0.9999,"T":0.7636,"U1":0.7505,"U2":0.7767,"couplingDegree":0.8738,"level":"优质协调","road_density":30.0435,"walk_accessibility":0.5932,"metro_line_density":8.4269,"station_count":8,"line_count":6,"population_density":61510.5607,"poi_density":13.5196,"poi_diversity":2.4904,"gdp_density":597763.3125,"P":61510.5607,"I":13.5196,"G":597763.3125},{"stationName":"深圳新秀(地铁站)","station_id":"深圳新秀(地铁站)_22.55046_114.14411","lineId":"深圳地铁2号线","lat":22.55045888,"lon":114.14411389,"area_km2":1.9422,"D":0.4856,"C":0.811,"T":0.2907,"U1":0.1206,"U2":0.4608,"couplingDegree":0.4856,"level":"勉强协调","road_density":30.7061,"walk_accessibility":0.3894,"metro_line_density":3.1497,"station_count":2,"line_count":1,"population_density":17872.8351,"poi_density":9.7826,"poi_diversity":1.7302,"gdp_density":253958.4525,"P":17872.8351,"I":9.7826,"G":253958.4525},{"stationName":"深圳莲塘口岸(地铁站)","station_id":"深圳莲塘口岸(地铁站)_22.55609_114.15032","lineId":"深圳地铁2号线","lat":22.55608627,"lon":114.15032224,"area_km2":2.0784,"D":0.4613,"C":0.7923,"T":0.2686,"U1":0.1047,"U2":0.4325,"couplingDegree":0.4613,"level":"勉强协调","road_density":33.0081,"walk_accessibility":0.4167,"metro_line_density":1.9813,"station_count":2,"line_count":1,"population_density":3489.7121,"poi_density":8.1794,"poi_diversity":2.1193,"gdp_density":237319.4278,"P":3489.7121,"I":8.1794,"G":237319.4278},{"stationName":"深圳仙湖路(地铁站)","station_id":"深圳仙湖路(地铁站)_22.56667_114.16124","lineId":"深圳地铁2号线","lat":22.56666831,"lon":114.16123801,"area_km2":1.9267,"D":0.2507,"C":0.923,"T":0.0681,"U1":0.0943,"U2":0.0419,"couplingDegree":0.2507,"level":"中度失调","road_density":27.1013,"walk_accessibility":0.3863,"metro_line_density":1.9887,"station_count":2,"line_count":1,"population_density":2265.4998,"poi_density":0.519,"poi_diversity":0.0,"gdp_density":133342.6966,"P":2265.4998,"I":0.519,"G":133342.6966},{"stationName":"深圳梧桐山南(地铁站)","station_id":"深圳梧桐山南(地铁站)_22.56064_114.17826","lineId":"深圳地铁2号线","lat":22.56064201,"lon":114.17826102,"area_km2":1.3061,"D":0.1484,"C":0.4897,"T":0.045,"U1":0.0841,"U2":0.0058,"couplingDegree":0.1484,"level":"极度失调","road_density":23.2101,"walk_accessibility":0.2619,"metro_line_density":2.1647,"station_count":2,"line_count":1,"population_density":2616.192,"poi_density":0.0,"poi_diversity":0.0,"gdp_density":0.0,"P":2616.192,"I":0.0,"G":0.0},{"stationName":"深圳沙头角(地铁站)","station_id":"深圳沙头角(地铁站)_22.55720_114.21831","lineId":"深圳地铁2号线","lat":22.55719981,"lon":114.21830687,"area_km2":1.5197,"D":0.3371,"C":0.8979,"T":0.1265,"U1":0.0708,"U2":0.1822,"couplingDegree":0.3371,"level":"中度失调","road_density":24.8487,"walk_accessibility":0.3047,"metro_line_density":3.0911,"station_count":1,"line_count":1,"population_density":0.0,"poi_density":2.6321,"poi_diversity":1.0397,"gdp_density":124848.6042,"P":0.0,"I":2.6321,"G":124848.6042},{"stationName":"深圳盐田港西(地铁站)","station_id":"深圳盐田港西(地铁站)_22.56540_114.24207","lineId":"深圳地铁2号线","lat":22.56539901,"lon":114.24207222,"area_km2":1.4895,"D":0.275,"C":0.9839,"T":0.0768,"U1":0.0906,"U2":0.0631,"couplingDegree":0.275,"level":"中度失调","road_density":22.3874,"walk_accessibility":0.2986,"metro_line_density":2.4665,"station_count":2,"line_count":1,"population_density":16356.9502,"poi_density":1.3428,"poi_diversity":0.0,"gdp_density":0.0,"P":16356.9502,"I":1.3428,"G":0.0},{"stationName":"深圳深外高中(地铁站)","station_id":"深圳深外高中(地铁站)_22.58664_114.23968","lineId":"深圳地铁2号线","lat":22.58664442,"lon":114.23968018,"area_km2":1.6115,"D":0.1923,"C":0.969,"T":0.0382,"U1":0.0476,"U2":0.0287,"couplingDegree":0.1923,"level":"极度失调","road_density":23.7764,"walk_accessibility":0.3231,"metro_line_density":1.8225,"station_count":1,"line_count":1,"population_density":794.2931,"poi_density":0.0,"poi_diversity":0.0,"gdp_density":136052.789,"P":794.2931,"I":0.0,"G":136052.789},{"stationName":"深圳盐田路(地铁站)","station_id":"深圳盐田路(地铁站)_22.59182_114.25083","lineId":"深圳地铁2号线","lat":22.59181889,"lon":114.25082746,"area_km2":1.7512,"D":0.3172,"C":0.961,"T":0.1047,"U1":0.1337,"U2":0.0757,"couplingDegree":0.3172,"level":"中度失调","road_density":30.7785,"walk_accessibility":0.3511,"metro_line_density":3.9998,"station_count":2,"line_count":1,"population_density":20599.4623,"poi_density":0.0,"poi_diversity":0.0,"gdp_density":153357.6123,"P":20599.4623,"I":0.0,"G":153357.6123},{"stationName":"深圳鸿安围(地铁站)","station_id":"深圳鸿安围(地铁站)_22.59340_114.25940","lineId":"深圳地铁2号线","lat":22.59340146,"lon":114.25940312,"area_km2":1.7925,"D":0.3517,"C":0.7725,"T":0.1601,"U1":0.2618,"U2":0.0585,"couplingDegree":0.3517,"level":"中度失调","road_density":30.6346,"walk_accessibility":0.3594,"metro_line_density":5.6757,"station_count":3,"line_count":2,"population_density":22071.823,"poi_density":0.0,"poi_diversity":0.0,"gdp_density":49810.5547,"P":22071.823,"I":0.0,"G":49810.5547},{"stationName":"深圳盐田墟(地铁站)","station_id":"深圳盐田墟(地铁站)_22.59019_114.27115","lineId":"深圳地铁2号线 / 深圳地铁8号线","lat":22.590188695000002,"lon":114.271147555,"area_km2":1.5697,"D":0.2059,"C":0.3832,"T":0.1107,"U1":0.2129,"U2":0.0084,"couplingDegree":0.2059,"level":"中度失调","road_density":33.1172,"walk_accessibility":0.3147,"metro_line_density":4.8488,"station_count":2,"line_count":2,"population_density":3838.3918,"poi_density":0.0,"poi_diversity":0.0,"gdp_density":0.0,"P":3838.3918,"I":0.0,"G":0.0},{"stationName":"深圳小梅沙(地铁站)","station_id":"深圳小梅沙(地铁站)_22.60485_114.32147","lineId":"深圳地铁2号线 / 深圳地铁8号线","lat":22.60484711,"lon":114.321470845,"area_km2":0.7163,"D":0.0,"C":0.0,"T":0.0615,"U1":0.123,"U2":0.0,"couplingDegree":0.0,"level":"极度失调","road_density":24.9031,"walk_accessibility":0.1436,"metro_line_density":3.0414,"station_count":1,"line_count":2,"population_density":0.0,"poi_density":0.0,"poi_diversity":0.0,"gdp_density":0.0,"P":0.0,"I":0.0,"G":0.0},{"stationName":"深圳坪地六联(地铁站)","station_id":"深圳坪地六联(地铁站)_22.79039_114.31806","lineId":"深圳地铁3号线","lat":22.79038748,"lon":114.31806171,"area_km2":0.734,"D":0.1709,"C":0.9713,"T":0.0301,"U1":0.0372,"U2":0.0229,"couplingDegree":0.1709,"level":"极度失调","road_density":19.3747,"walk_accessibility":0.1472,"metro_line_density":2.2012,"station_count":1,"line_count":1,"population_density":6219.6781,"poi_density":0.0,"poi_diversity":0.0,"gdp_density":46538.5883,"P":6219.6781,"I":0.0,"G":46538.5883},{"stationName":"深圳富坪(地铁站)","station_id":"深圳富坪(地铁站)_22.78290_114.30596","lineId":"深圳地铁3号线","lat":22.782900105000003,"lon":114.30595590499999,"area_km2":1.4727,"D":0.239,"C":0.701,"T":0.0815,"U1":0.1396,"U2":0.0234,"couplingDegree":0.239,"level":"中度失调","road_density":23.9181,"walk_accessibility":0.2953,"metro_line_density":5.083,"station_count":2,"line_count":1,"population_density":8370.445,"poi_density":0.0,"poi_diversity":0.0,"gdp_density":25002.0107,"P":8370.445,"I":0.0,"G":25002.0107},{"stationName":"深圳白石塘(地铁站)","station_id":"深圳白石塘(地铁站)_22.77785_114.29792","lineId":"深圳地铁3号线","lat":22.77784767,"lon":114.29792279333333,"area_km2":1.6992,"D":0.2707,"C":0.7643,"T":0.0958,"U1":0.1576,"U2":0.034,"couplingDegree":0.2707,"level":"中度失调","road_density":23.8375,"walk_accessibility":0.3407,"metro_line_density":5.9405,"station_count":2,"line_count":1,"population_density":11244.4834,"poi_density":0.0,"poi_diversity":0.0,"gdp_density":46860.5473,"P":11244.4834,"I":0.0,"G":46860.5473},{"stationName":"深圳低碳城(地铁站)","station_id":"深圳低碳城(地铁站)_22.77389_114.28468","lineId":"深圳地铁3号线","lat":22.77388873,"lon":114.2846803,"area_km2":1.7811,"D":0.2115,"C":0.6083,"T":0.0735,"U1":0.1319,"U2":0.0152,"couplingDegree":0.2115,"level":"中度失调","road_density":22.9181,"walk_accessibility":0.3571,"metro_line_density":4.528,"station_count":2,"line_count":1,"population_density":3077.9586,"poi_density":0.0,"poi_diversity":0.0,"gdp_density":42341.3008,"P":3077.9586,"I":0.0,"G":42341.3008},{"stationName":"深圳坪西(地铁站)","station_id":"深圳坪西(地铁站)_22.76626_114.27741","lineId":"深圳地铁3号线","lat":22.766256365,"lon":114.27741460499999,"area_km2":1.2226,"D":0.2355,"C":0.7551,"T":0.0735,"U1":0.1216,"U2":0.0253,"couplingDegree":0.2355,"level":"中度失调","road_density":18.3338,"walk_accessibility":0.2451,"metro_line_density":4.709,"station_count":2,"line_count":1,"population_density":0.0,"poi_density":0.0,"poi_diversity":0.0,"gdp_density":127587.5985,"P":0.0,"I":0.0,"G":127587.5985},{"stationName":"深圳新生(地铁站)","station_id":"深圳新生(地铁站)_22.75071_114.27817","lineId":"深圳地铁3号线","lat":22.750714175,"lon":114.278172775,"area_km2":1.3959,"D":0.2679,"C":0.9092,"T":0.0789,"U1":0.1118,"U2":0.0461,"couplingDegree":0.2679,"level":"中度失调","road_density":23.8796,"walk_accessibility":0.2799,"metro_line_density":5.5367,"station_count":1,"line_count":1,"population_density":9786.5919,"poi_density":0.0,"poi_diversity":0.0,"gdp_density":123677.0606,"P":9786.5919,"I":0.0,"G":123677.0606},{"stationName":"深圳梨园(地铁站)","station_id":"深圳梨园(地铁站)_22.65492_114.19240","lineId":"深圳地铁17号线 / 深圳地铁3号线","lat":22.654922714999998,"lon":114.1924031,"area_km2":2.0538,"D":0.378,"C":0.9855,"T":0.145,"U1":0.1204,"U2":0.1696,"couplingDegree":0.378,"level":"中度失调","road_density":21.1827,"walk_accessibility":0.4118,"metro_line_density":2.2973,"station_count":1,"line_count":2,"population_density":6503.4139,"poi_density":1.4607,"poi_diversity":1.0986,"gdp_density":78133.9636,"P":6503.4139,"I":1.4607,"G":78133.9636},{"stationName":"深圳双龙(地铁站)","station_id":"深圳双龙(地铁站)_22.73192_114.27249","lineId":"深圳地铁16号线 / 深圳地铁3号线","lat":22.73191529,"lon":114.272485405,"area_km2":2.1043,"D":0.299,"C":0.7618,"T":0.1174,"U1":0.1934,"U2":0.0413,"couplingDegree":0.299,"level":"中度失调","road_density":22.4427,"walk_accessibility":0.4219,"metro_line_density":6.2243,"station_count":1,"line_count":2,"population_density":15035.2201,"poi_density":0.0,"poi_diversity":0.0,"gdp_density":41608.9427,"P":15035.2201,"I":0.0,"G":41608.9427},{"stationName":"深圳南联(地铁站)","station_id":"深圳南联(地铁站)_22.72480_114.26070","lineId":"深圳地铁3号线","lat":22.72479575,"lon":114.26070042,"area_km2":2.1993,"D":0.2775,"C":0.9623,"T":0.08,"U1":0.1018,"U2":0.0582,"couplingDegree":0.2775,"level":"中度失调","road_density":21.0282,"walk_accessibility":0.4409,"metro_line_density":2.7219,"station_count":2,"line_count":1,"population_density":18792.0898,"poi_density":0.0,"poi_diversity":0.0,"gdp_density":85164.8288,"P":18792.0898,"I":0.0,"G":85164.8288},{"stationName":"深圳龙城广场(地铁站)","station_id":"深圳龙城广场(地铁站)_22.71975_114.24976","lineId":"深圳地铁3号线","lat":22.7197484,"lon":114.24976034,"area_km2":2.2351,"D":0.2773,"C":0.9663,"T":0.0796,"U1":0.1001,"U2":0.0591,"couplingDegree":0.2773,"level":"中度失调","road_density":24.5304,"walk_accessibility":0.4481,"metro_line_density":2.3146,"station_count":2,"line_count":1,"population_density":12284.2029,"poi_density":0.0,"poi_diversity":0.0,"gdp_density":161769.8929,"P":12284.2029,"I":0.0,"G":161769.8929},{"stationName":"深圳吉祥(地铁站)","station_id":"深圳吉祥(地铁站)_22.71232_114.23948","lineId":"深圳地铁3号线","lat":22.71232354,"lon":114.23948092,"area_km2":2.015,"D":0.3539,"C":0.8378,"T":0.1494,"U1":0.0679,"U2":0.231,"couplingDegree":0.3539,"level":"中度失调","road_density":26.334,"walk_accessibility":0.404,"metro_line_density":2.4682,"station_count":1,"line_count":1,"population_density":13723.8836,"poi_density":2.4814,"poi_diversity":1.3322,"gdp_density":85923.4018,"P":13723.8836,"I":2.4814,"G":85923.4018},{"stationName":"深圳爱联(地铁站)","station_id":"深圳爱联(地铁站)_22.70033_114.22958","lineId":"深圳地铁3号线","lat":22.70033127,"lon":114.2295755,"area_km2":1.8601,"D":0.2545,"C":0.8606,"T":0.0752,"U1":0.1136,"U2":0.0369,"couplingDegree":0.2545,"level":"中度失调","road_density":23.7465,"walk_accessibility":0.3729,"metro_line_density":5.3324,"station_count":1,"line_count":1,"population_density":3864.3929,"poi_density":0.5376,"poi_diversity":0.0,"gdp_density":88592.6041,"P":3864.3929,"I":0.5376,"G":88592.6041},{"stationName":"深圳大运(地铁站)","station_id":"深圳大运(地铁站)_22.68859_114.22306","lineId":"深圳地铁14号线 / 深圳地铁3号线","lat":22.688593384999997,"lon":114.22305596999999,"area_km2":1.5147,"D":0.369,"C":0.8208,"T":0.1659,"U1":0.2606,"U2":0.0711,"couplingDegree":0.369,"level":"中度失调","road_density":30.3263,"walk_accessibility":0.3037,"metro_line_density":9.7205,"station_count":1,"line_count":2,"population_density":20540.5436,"poi_density":0.6602,"poi_diversity":0.0,"gdp_density":63502.5168,"P":20540.5436,"I":0.6602,"G":63502.5168},{"stationName":"深圳荷坳(地铁站)","station_id":"深圳荷坳(地铁站)_22.67591_114.21945","lineId":"深圳地铁3号线","lat":22.67591343,"lon":114.21944916,"area_km2":1.5078,"D":0.26,"C":0.7837,"T":0.0863,"U1":0.1399,"U2":0.0327,"couplingDegree":0.26,"level":"中度失调","road_density":24.7443,"walk_accessibility":0.3023,"metro_line_density":6.9536,"station_count":1,"line_count":1,"population_density":10457.8028,"poi_density":0.0,"poi_diversity":0.0,"gdp_density":48774.2294,"P":10457.8028,"I":0.0,"G":48774.2294},{"stationName":"深圳永湖(地铁站)","station_id":"深圳永湖(地铁站)_22.66183_114.21317","lineId":"深圳地铁3号线","lat":22.66182586,"lon":114.21317149,"area_km2":1.4526,"D":0.1929,"C":0.726,"T":0.0512,"U1":0.0865,"U2":0.016,"couplingDegree":0.1929,"level":"极度失调","road_density":26.052,"walk_accessibility":0.2912,"metro_line_density":3.9098,"station_count":1,"line_count":1,"population_density":4836.7876,"poi_density":0.0,"poi_diversity":0.0,"gdp_density":27016.4123,"P":4836.7876,"I":0.0,"G":27016.4123},{"stationName":"深圳横岗(地铁站)","station_id":"深圳横岗(地铁站)_22.65126_114.20411","lineId":"深圳地铁3号线","lat":22.65126376,"lon":114.20410601,"area_km2":2.2599,"D":0.2444,"C":0.9796,"T":0.061,"U1":0.0733,"U2":0.0487,"couplingDegree":0.2444,"level":"中度失调","road_density":20.7119,"walk_accessibility":0.4531,"metro_line_density":3.0656,"station_count":1,"line_count":1,"population_density":12124.156,"poi_density":0.0,"poi_diversity":0.0,"gdp_density":111203.8087,"P":12124.156,"I":0.0,"G":111203.8087},{"stationName":"深圳塘坑(地铁站)","station_id":"深圳塘坑(地铁站)_22.64198_114.18780","lineId":"深圳地铁3号线","lat":22.64197596,"lon":114.18779985,"area_km2":2.2249,"D":0.3085,"C":0.9616,"T":0.099,"U1":0.0718,"U2":0.1262,"couplingDegree":0.3085,"level":"中度失调","road_density":21.8885,"walk_accessibility":0.4461,"metro_line_density":2.9138,"station_count":1,"line_count":1,"population_density":13912.6549,"poi_density":0.8989,"poi_diversity":0.6931,"gdp_density":39419.8632,"P":13912.6549,"I":0.8989,"G":39419.8632},{"stationName":"深圳六约(地铁站)","station_id":"深圳六约(地铁站)_22.63710_114.17569","lineId":"深圳地铁3号线","lat":22.63709901,"lon":114.17568946,"area_km2":1.9292,"D":0.2352,"C":0.9635,"T":0.0574,"U1":0.0728,"U2":0.042,"couplingDegree":0.2352,"level":"中度失调","road_density":23.2487,"walk_accessibility":0.3868,"metro_line_density":3.053,"station_count":1,"line_count":1,"population_density":11564.4171,"poi_density":0.0,"poi_diversity":0.0,"gdp_density":83657.75,"P":11564.4171,"I":0.0,"G":83657.75},{"stationName":"深圳丹竹头(地铁站)","station_id":"深圳丹竹头(地铁站)_22.62247_114.14301","lineId":"深圳地铁3号线","lat":22.62247144,"lon":114.14301137,"area_km2":2.3224,"D":0.2737,"C":0.8559,"T":0.0875,"U1":0.1328,"U2":0.0423,"couplingDegree":0.2737,"level":"中度失调","road_density":30.9122,"walk_accessibility":0.4656,"metro_line_density":3.5516,"station_count":2,"line_count":1,"population_density":15887.9896,"poi_density":0.0,"poi_diversity":0.0,"gdp_density":36801.2842,"P":15887.9896,"I":0.0,"G":36801.2842},{"stationName":"深圳大芬(地铁站)","station_id":"深圳大芬(地铁站)_22.61690_114.13330","lineId":"深圳地铁3号线","lat":22.61689564,"lon":114.13329828,"area_km2":1.9548,"D":0.4399,"C":0.9813,"T":0.1972,"U1":0.1592,"U2":0.2353,"couplingDegree":0.4399,"level":"勉强协调","road_density":30.0466,"walk_accessibility":0.3919,"metro_line_density":3.3976,"station_count":3,"line_count":1,"population_density":19013.7164,"poi_density":2.0462,"poi_diversity":1.3863,"gdp_density":65340.4667,"P":19013.7164,"I":2.0462,"G":65340.4667},{"stationName":"深圳木棉湾(地铁站)","station_id":"深圳木棉湾(地铁站)_22.60969_114.12521","lineId":"深圳地铁3号线","lat":22.60969171,"lon":114.12521029,"area_km2":1.8114,"D":0.5561,"C":0.9998,"T":0.3093,"U1":0.3151,"U2":0.3035,"couplingDegree":0.5561,"level":"勉强协调","road_density":31.6358,"walk_accessibility":0.3632,"metro_line_density":5.0504,"station_count":3,"line_count":3,"population_density":23700.8043,"poi_density":3.3123,"poi_diversity":1.7918,"gdp_density":23311.6059,"P":23700.8043,"I":3.3123,"G":23311.6059},{"stationName":"深圳布吉(地铁站)","station_id":"深圳布吉(地铁站)_22.60443_114.11627","lineId":"深圳地铁14号线 / 深圳地铁3号线 / 深圳地铁5号线","lat":22.604433413333336,"lon":114.11627254666666,"area_km2":2.1646,"D":0.5653,"C":0.9871,"T":0.3238,"U1":0.3757,"U2":0.2719,"couplingDegree":0.5653,"level":"勉强协调","road_density":27.5048,"walk_accessibility":0.434,"metro_line_density":6.5785,"station_count":4,"line_count":3,"population_density":19292.8074,"poi_density":3.2339,"poi_diversity":1.5498,"gdp_density":43580.5582,"P":19292.8074,"I":3.2339,"G":43580.5582},{"stationName":"深圳草埔(地铁站)","station_id":"深圳草埔(地铁站)_22.58713_114.11139","lineId":"深圳地铁3号线","lat":22.58713168,"lon":114.11139401,"area_km2":1.9327,"D":0.2523,"C":0.842,"T":0.0756,"U1":0.1164,"U2":0.0348,"couplingDegree":0.2523,"level":"中度失调","road_density":31.143,"walk_accessibility":0.3875,"metro_line_density":4.8328,"station_count":1,"line_count":1,"population_density":3789.9735,"poi_density":0.0,"poi_diversity":0.0,"gdp_density":133537.1951,"P":3789.9735,"I":0.0,"G":133537.1951},{"stationName":"深圳水贝(地铁站)","station_id":"深圳水贝(地铁站)_22.57668_114.11988","lineId":"深圳地铁3号线","lat":22.57668093,"lon":114.11988341,"area_km2":2.3085,"D":0.5511,"C":0.9974,"T":0.3045,"U1":0.3263,"U2":0.2826,"couplingDegree":0.5511,"level":"勉强协调","road_density":34.516,"walk_accessibility":0.4629,"metro_line_density":3.1542,"station_count":4,"line_count":3,"population_density":26069.9849,"poi_density":3.0322,"poi_diversity":1.1537,"gdp_density":243276.5409,"P":26069.9849,"I":3.0322,"G":243276.5409},{"stationName":"深圳田贝(地铁站)","station_id":"深圳田贝(地铁站)_22.56986_114.12444","lineId":"深圳地铁3号线 / 深圳地铁7号线","lat":22.56985871,"lon":114.124444625,"area_km2":2.2001,"D":0.6082,"C":1.0,"T":0.3699,"U1":0.3673,"U2":0.3725,"couplingDegree":0.6082,"level":"良好协调","road_density":28.3478,"walk_accessibility":0.4411,"metro_line_density":4.0711,"station_count":5,"line_count":3,"population_density":20766.8348,"poi_density":4.9997,"poi_diversity":1.7678,"gdp_density":244615.0423,"P":20766.8348,"I":4.9997,"G":244615.0423},{"stationName":"深圳翠竹(地铁站)","station_id":"深圳翠竹(地铁站)_22.55889_114.12480","lineId":"深圳地铁3号线","lat":22.55888926,"lon":114.12480382,"area_km2":2.4596,"D":0.6221,"C":0.9661,"T":0.4006,"U1":0.2972,"U2":0.504,"couplingDegree":0.6221,"level":"良好协调","road_density":25.7217,"walk_accessibility":0.4931,"metro_line_density":2.1518,"station_count":4,"line_count":3,"population_density":49258.1546,"poi_density":6.9118,"poi_diversity":2.0993,"gdp_density":229046.5769,"P":49258.1546,"I":6.9118,"G":229046.5769},{"stationName":"深圳晒布(地铁站)","station_id":"深圳晒布(地铁站)_22.55193_114.11757","lineId":"深圳地铁3号线","lat":22.55193148,"lon":114.11757001,"area_km2":2.7143,"D":0.8582,"C":0.9995,"T":0.7369,"U1":0.7141,"U2":0.7598,"couplingDegree":0.8582,"level":"优质协调","road_density":30.9417,"walk_accessibility":0.5442,"metro_line_density":6.49,"station_count":8,"line_count":6,"population_density":67605.9874,"poi_density":14.3686,"poi_diversity":2.4304,"gdp_density":388588.5312,"P":67605.9874,"I":14.3686,"G":388588.5312},{"stationName":"深圳红岭(地铁站)","station_id":"深圳红岭(地铁站)_22.55134_114.09895","lineId":"深圳地铁3号线 / 深圳地铁9号线","lat":22.551336980000002,"lon":114.09895414666666,"area_km2":3.0553,"D":0.78,"C":0.9955,"T":0.6111,"U1":0.6689,"U2":0.5533,"couplingDegree":0.78,"level":"良好协调","road_density":40.4905,"walk_accessibility":0.6126,"metro_line_density":5.3079,"station_count":5,"line_count":7,"population_density":61769.8937,"poi_density":5.8913,"poi_diversity":2.2452,"gdp_density":368602.7286,"P":61769.8937,"I":5.8913,"G":368602.7286},{"stationName":"深圳通新岭(地铁站)","station_id":"深圳通新岭(地铁站)_22.55137_114.09113","lineId":"深圳地铁3号线 / 深圳地铁6号线","lat":22.551367845,"lon":114.09112792,"area_km2":3.195,"D":0.8264,"C":0.9998,"T":0.683,"U1":0.6692,"U2":0.6969,"couplingDegree":0.8264,"level":"优质协调","road_density":35.4673,"walk_accessibility":0.6406,"metro_line_density":5.2389,"station_count":7,"line_count":6,"population_density":76279.1131,"poi_density":8.7637,"poi_diversity":2.7315,"gdp_density":393338.3263,"P":76279.1131,"I":8.7637,"G":393338.3263},{"stationName":"深圳华新(地铁站)","station_id":"深圳华新(地铁站)_22.55166_114.08152","lineId":"深圳地铁3号线 / 深圳地铁7号线","lat":22.551664825000003,"lon":114.0815246,"area_km2":3.0496,"D":0.8181,"C":0.9996,"T":0.6695,"U1":0.6877,"U2":0.6513,"couplingDegree":0.8181,"level":"优质协调","road_density":29.8785,"walk_accessibility":0.6114,"metro_line_density":6.8278,"station_count":7,"line_count":6,"population_density":59714.0911,"poi_density":9.8373,"poi_diversity":2.6557,"gdp_density":276205.9947,"P":59714.0911,"I":9.8373,"G":276205.9947},{"stationName":"深圳莲花村(地铁站)","station_id":"深圳莲花村(地铁站)_22.55135_114.06273","lineId":"深圳地铁3号线","lat":22.5513476,"lon":114.0627285,"area_km2":3.032,"D":0.6868,"C":0.9978,"T":0.4728,"U1":0.5043,"U2":0.4413,"couplingDegree":0.6868,"level":"良好协调","road_density":33.6509,"walk_accessibility":0.6079,"metro_line_density":5.655,"station_count":4,"line_count":5,"population_density":13658.9579,"poi_density":4.6174,"poi_diversity":2.6391,"gdp_density":267891.5638,"P":13658.9579,"I":4.6174,"G":267891.5638},{"stationName":"深圳少年宫(地铁站)","station_id":"深圳少年宫(地铁站)_22.55074_114.05541","lineId":"深圳地铁3号线 / 深圳地铁4号线","lat":22.550741715,"lon":114.05541320500001,"area_km2":2.5826,"D":0.704,"C":0.9897,"T":0.5007,"U1":0.5723,"U2":0.4291,"couplingDegree":0.704,"level":"良好协调","road_density":32.3047,"walk_accessibility":0.5178,"metro_line_density":5.965,"station_count":6,"line_count":5,"population_density":8121.615,"poi_density":5.0337,"poi_diversity":2.4583,"gdp_density":317399.876,"P":8121.615,"I":5.0337,"G":317399.876},{"stationName":"深圳石厦(地铁站)","station_id":"深圳石厦(地铁站)_22.52609_114.04857","lineId":"深圳地铁3号线 / 深圳地铁7号线","lat":22.5260948475,"lon":114.0485720225,"area_km2":2.7348,"D":0.634,"C":0.9962,"T":0.4035,"U1":0.3683,"U2":0.4386,"couplingDegree":0.634,"level":"良好协调","road_density":30.9849,"walk_accessibility":0.5483,"metro_line_density":3.5451,"station_count":5,"line_count":3,"population_density":41168.106,"poi_density":3.6566,"poi_diversity":1.5571,"gdp_density":594885.8229,"P":41168.106,"I":3.6566,"G":594885.8229},{"stationName":"深圳益田(地铁站)","station_id":"深圳益田(地铁站)_22.51902_114.04588","lineId":"深圳地铁3号线","lat":22.51901809,"lon":114.04588314,"area_km2":2.8509,"D":0.5809,"C":0.9919,"T":0.3402,"U1":0.297,"U2":0.3834,"couplingDegree":0.5809,"level":"勉强协调","road_density":29.4533,"walk_accessibility":0.5716,"metro_line_density":3.1199,"station_count":5,"line_count":2,"population_density":23679.8955,"poi_density":4.2091,"poi_diversity":1.4241,"gdp_density":521302.4998,"P":23679.8955,"I":4.2091,"G":521302.4998},{"stationName":"深圳福保(地铁站)","station_id":"深圳福保(地铁站)_22.51089_114.05147","lineId":"深圳地铁3号线","lat":22.5108939,"lon":114.05147292,"area_km2":2.3897,"D":0.4239,"C":0.7975,"T":0.2253,"U1":0.0894,"U2":0.3612,"couplingDegree":0.4239,"level":"勉强协调","road_density":27.7272,"walk_accessibility":0.4791,"metro_line_density":1.3498,"station_count":2,"line_count":1,"population_density":6005.0601,"poi_density":3.7662,"poi_diversity":1.523,"gdp_density":600737.8422,"P":6005.0601,"I":3.7662,"G":600737.8422},{"stationName":"深圳牛湖(地铁站)","station_id":"深圳牛湖(地铁站)_22.72726_114.08411","lineId":"深圳地铁4号线","lat":22.72725802,"lon":114.08411467,"area_km2":1.56,"D":0.2018,"C":0.9876,"T":0.0412,"U1":0.0348,"U2":0.0477,"couplingDegree":0.2018,"level":"中度失调","road_density":17.1147,"walk_accessibility":0.3128,"metro_line_density":1.6907,"station_count":1,"line_count":1,"population_density":16760.7851,"poi_density":0.0,"poi_diversity":0.0,"gdp_density":54495.6293,"P":16760.7851,"I":0.0,"G":54495.6293},{"stationName":"深圳观澜湖(地铁站)","station_id":"深圳观澜湖(地铁站)_22.72428_114.07113","lineId":"深圳地铁4号线","lat":22.72427559,"lon":114.07113091,"area_km2":1.2936,"D":0.1796,"C":0.367,"T":0.0879,"U1":0.1697,"U2":0.0061,"couplingDegree":0.1796,"level":"极度失调","road_density":20.3123,"walk_accessibility":0.2594,"metro_line_density":3.6799,"station_count":2,"line_count":2,"population_density":0.0,"poi_density":0.0,"poi_diversity":0.0,"gdp_density":30948.5335,"P":0.0,"I":0.0,"G":30948.5335},{"stationName":"深圳松元厦(地铁站)","station_id":"深圳松元厦(地铁站)_22.72377_114.05923","lineId":"深圳地铁22号线 / 深圳地铁4号线","lat":22.723765653333334,"lon":114.05923284333333,"area_km2":1.3535,"D":0.3526,"C":0.8026,"T":0.1549,"U1":0.2474,"U2":0.0625,"couplingDegree":0.3526,"level":"中度失调","road_density":20.3143,"walk_accessibility":0.2714,"metro_line_density":6.0172,"station_count":3,"line_count":2,"population_density":12666.6503,"poi_density":0.7388,"poi_diversity":0.0,"gdp_density":99520.0923,"P":12666.6503,"I":0.7388,"G":99520.0923},{"stationName":"深圳观澜(地铁站)","station_id":"深圳观澜(地铁站)_22.71786_114.04965","lineId":"深圳地铁4号线","lat":22.71786435,"lon":114.04964981,"area_km2":1.3761,"D":0.315,"C":0.7536,"T":0.1316,"U1":0.2182,"U2":0.0451,"couplingDegree":0.315,"level":"中度失调","road_density":21.9361,"walk_accessibility":0.2759,"metro_line_density":4.2415,"station_count":3,"line_count":2,"population_density":7636.6749,"poi_density":0.7267,"poi_diversity":0.0,"gdp_density":68790.3887,"P":7636.6749,"I":0.7267,"G":68790.3887},{"stationName":"深圳长湖(地铁站)","station_id":"深圳长湖(地铁站)_22.71348_114.03969","lineId":"深圳地铁4号线","lat":22.71347934,"lon":114.039689,"area_km2":1.6049,"D":0.2974,"C":0.9777,"T":0.0905,"U1":0.1095,"U2":0.0715,"couplingDegree":0.2974,"level":"中度失调","road_density":23.6311,"walk_accessibility":0.3218,"metro_line_density":3.3393,"station_count":2,"line_count":1,"population_density":21989.4364,"poi_density":0.0,"poi_diversity":0.0,"gdp_density":116482.4518,"P":21989.4364,"I":0.0,"G":116482.4518},{"stationName":"深圳茜坑(地铁站)","station_id":"深圳茜坑(地铁站)_22.69998_114.03599","lineId":"深圳地铁4号线","lat":22.69998229,"lon":114.03598751,"area_km2":1.3555,"D":0.273,"C":0.8803,"T":0.0847,"U1":0.1249,"U2":0.0445,"couplingDegree":0.273,"level":"中度失调","road_density":28.1287,"walk_accessibility":0.2718,"metro_line_density":3.9953,"station_count":2,"line_count":1,"population_density":8147.3149,"poi_density":0.0,"poi_diversity":0.0,"gdp_density":134061.1013,"P":8147.3149,"I":0.0,"G":134061.1013},{"stationName":"深圳竹村(地铁站)","station_id":"深圳竹村(地铁站)_22.68946_114.03521","lineId":"深圳地铁4号线","lat":22.68945995,"lon":114.03521228,"area_km2":1.8471,"D":0.2521,"C":0.9038,"T":0.0703,"U1":0.1004,"U2":0.0402,"couplingDegree":0.2521,"level":"中度失调","road_density":29.4765,"walk_accessibility":0.3703,"metro_line_density":2.187,"station_count":2,"line_count":1,"population_density":9293.0001,"poi_density":0.0,"poi_diversity":0.0,"gdp_density":99636.2287,"P":9293.0001,"I":0.0,"G":99636.2287},{"stationName":"深圳清湖北(地铁站)","station_id":"深圳清湖北(地铁站)_22.67482_114.03532","lineId":"深圳地铁4号线","lat":22.67482194,"lon":114.03532095,"area_km2":1.4442,"D":0.277,"C":0.9838,"T":0.078,"U1":0.0919,"U2":0.064,"couplingDegree":0.277,"level":"中度失调","road_density":29.6778,"walk_accessibility":0.2896,"metro_line_density":1.972,"station_count":2,"line_count":1,"population_density":16709.5232,"poi_density":0.0,"poi_diversity":0.0,"gdp_density":137356.0611,"P":16709.5232,"I":0.0,"G":137356.0611},{"stationName":"深圳清湖(地铁站)","station_id":"深圳清湖(地铁站)_22.66683_114.03145","lineId":"深圳地铁4号线","lat":22.66683012,"lon":114.03144992,"area_km2":1.6315,"D":0.2852,"C":0.9571,"T":0.085,"U1":0.1096,"U2":0.0604,"couplingDegree":0.2852,"level":"中度失调","road_density":26.2105,"walk_accessibility":0.3271,"metro_line_density":3.1148,"station_count":2,"line_count":1,"population_density":4912.1857,"poi_density":0.613,"poi_diversity":0.0,"gdp_density":187486.5569,"P":4912.1857,"I":0.613,"G":187486.5569},{"stationName":"深圳龙华(地铁站)","station_id":"深圳龙华(地铁站)_22.65486_114.01800","lineId":"深圳地铁25号线 / 深圳地铁4号线","lat":22.6548649375,"lon":114.01800384500001,"area_km2":2.2203,"D":0.2954,"C":0.803,"T":0.1087,"U1":0.1734,"U2":0.0439,"couplingDegree":0.2954,"level":"中度失调","road_density":27.6286,"walk_accessibility":0.4452,"metro_line_density":4.6058,"station_count":1,"line_count":2,"population_density":11765.3542,"poi_density":0.0,"poi_diversity":0.0,"gdp_density":90779.641,"P":11765.3542,"I":0.0,"G":90779.641},{"stationName":"深圳龙胜(地铁站)","station_id":"深圳龙胜(地铁站)_22.64756_114.00698","lineId":"深圳地铁4号线","lat":22.64755658,"lon":114.00697831,"area_km2":1.8676,"D":0.2877,"C":0.8728,"T":0.0949,"U1":0.1412,"U2":0.0486,"couplingDegree":0.2877,"level":"中度失调","road_density":36.3661,"walk_accessibility":0.3744,"metro_line_density":3.8783,"station_count":2,"line_count":1,"population_density":12910.7475,"poi_density":0.0,"poi_diversity":0.0,"gdp_density":101611.6306,"P":12910.7475,"I":0.0,"G":101611.6306},{"stationName":"深圳上塘(地铁站)","station_id":"深圳上塘(地铁站)_22.63987_114.00781","lineId":"深圳地铁4号线","lat":22.63987266,"lon":114.00780504,"area_km2":2.0275,"D":0.2827,"C":0.8535,"T":0.0937,"U1":0.1425,"U2":0.0449,"couplingDegree":0.2827,"level":"中度失调","road_density":37.1397,"walk_accessibility":0.4065,"metro_line_density":3.7796,"station_count":2,"line_count":1,"population_density":11455.46,"poi_density":0.0,"poi_diversity":0.0,"gdp_density":99049.0881,"P":11455.46,"I":0.0,"G":99049.0881},{"stationName":"深圳红山(地铁站)","station_id":"深圳红山(地铁站)_22.62453_114.01841","lineId":"深圳地铁4号线 / 深圳地铁6号线","lat":22.624534505,"lon":114.01840748000001,"area_km2":2.3317,"D":0.3711,"C":0.9626,"T":0.1431,"U1":0.1819,"U2":0.1043,"couplingDegree":0.3711,"level":"中度失调","road_density":41.1422,"walk_accessibility":0.4675,"metro_line_density":3.8896,"station_count":1,"line_count":2,"population_density":337.0932,"poi_density":0.8577,"poi_diversity":0.6931,"gdp_density":84279.0839,"P":337.0932,"I":0.8577,"G":84279.0839},{"stationName":"深圳深圳北站(地铁站)","station_id":"深圳深圳北站(地铁站)_22.61326_114.02550","lineId":"深圳地铁4号线 / 深圳地铁5号线 / 深圳地铁6号线","lat":22.61325544,"lon":114.02550389333332,"area_km2":2.298,"D":0.2741,"C":0.5156,"T":0.1457,"U1":0.2706,"U2":0.0209,"couplingDegree":0.2741,"level":"中度失调","road_density":36.038,"walk_accessibility":0.4607,"metro_line_density":5.7792,"station_count":1,"line_count":3,"population_density":1420.7987,"poi_density":0.4352,"poi_diversity":0.0,"gdp_density":45172.0435,"P":1420.7987,"I":0.4352,"G":45172.0435},{"stationName":"深圳白石龙(地铁站)","station_id":"深圳白石龙(地铁站)_22.60450_114.03695","lineId":"深圳地铁27号线 / 深圳地铁4号线","lat":22.604503125,"lon":114.03694687999999,"area_km2":2.332,"D":0.5353,"C":0.9964,"T":0.2876,"U1":0.3119,"U2":0.2633,"couplingDegree":0.5353,"level":"勉强协调","road_density":34.2758,"walk_accessibility":0.4676,"metro_line_density":6.2547,"station_count":2,"line_count":3,"population_density":23178.2278,"poi_density":2.1441,"poi_diversity":1.6094,"gdp_density":37710.5032,"P":23178.2278,"I":2.1441,"G":37710.5032},{"stationName":"深圳民乐(地铁站)","station_id":"深圳民乐(地铁站)_22.59706_114.04402","lineId":"深圳地铁22号线 / 深圳地铁4号线","lat":22.597057956666664,"lon":114.04402448,"area_km2":2.339,"D":0.356,"C":0.7151,"T":0.1772,"U1":0.3011,"U2":0.0533,"couplingDegree":0.356,"level":"中度失调","road_density":39.3544,"walk_accessibility":0.469,"metro_line_density":5.2272,"station_count":2,"line_count":3,"population_density":17206.0901,"poi_density":0.4275,"poi_diversity":0.0,"gdp_density":34513.2919,"P":17206.0901,"I":0.4275,"G":34513.2919},{"stationName":"深圳上梅林(地铁站)","station_id":"深圳上梅林(地铁站)_22.57216_114.05480","lineId":"深圳地铁4号线 / 深圳地铁9号线","lat":22.57216071,"lon":114.05480460999999,"area_km2":2.56,"D":0.5112,"C":0.9272,"T":0.2818,"U1":0.3874,"U2":0.1763,"couplingDegree":0.5112,"level":"勉强协调","road_density":33.5153,"walk_accessibility":0.5133,"metro_line_density":6.4707,"station_count":4,"line_count":3,"population_density":11865.9753,"poi_density":1.1719,"poi_diversity":0.6365,"gdp_density":315795.9982,"P":11865.9753,"I":1.1719,"G":315795.9982},{"stationName":"深圳莲花北(地铁站)","station_id":"深圳莲花北(地铁站)_22.56325_114.05429","lineId":"深圳地铁4号线","lat":22.56325145,"lon":114.0542851,"area_km2":2.4581,"D":0.5125,"C":0.9512,"T":0.2761,"U1":0.3613,"U2":0.1909,"couplingDegree":0.5125,"level":"勉强协调","road_density":35.1172,"walk_accessibility":0.4929,"metro_line_density":4.9534,"station_count":4,"line_count":3,"population_density":18902.0252,"poi_density":0.8136,"poi_diversity":0.6931,"gdp_density":319275.1564,"P":18902.0252,"I":0.8136,"G":319275.1564},{"stationName":"深圳福民(地铁站)","station_id":"深圳福民(地铁站)_22.52669_114.06120","lineId":"深圳地铁10号线 / 深圳地铁4号线 / 深圳地铁7号线","lat":22.526694579999997,"lon":114.06120384333333,"area_km2":2.5736,"D":0.6394,"C":0.9947,"T":0.411,"U1":0.4531,"U2":0.3688,"couplingDegree":0.6394,"level":"良好协调","road_density":34.2155,"walk_accessibility":0.516,"metro_line_density":4.6172,"station_count":5,"line_count":4,"population_density":23428.0574,"poi_density":3.1085,"poi_diversity":1.213,"gdp_density":669644.2026,"P":23428.0574,"I":3.1085,"G":669644.2026},{"stationName":"深圳福田口岸(地铁站)","station_id":"深圳福田口岸(地铁站)_22.51815_114.06337","lineId":"深圳地铁10号线 / 深圳地铁4号线","lat":22.518145609999998,"lon":114.06336773000001,"area_km2":2.0825,"D":0.5611,"C":0.9997,"T":0.3149,"U1":0.3227,"U2":0.3072,"couplingDegree":0.5611,"level":"勉强协调","road_density":31.4197,"walk_accessibility":0.4175,"metro_line_density":3.3594,"station_count":4,"line_count":3,"population_density":4882.4878,"poi_density":1.9207,"poi_diversity":1.0397,"gdp_density":773147.0885,"P":4882.4878,"I":1.9207,"G":773147.0885},{"stationName":"深圳荔湾(地铁站)","station_id":"深圳荔湾(地铁站)_22.50087_113.88862","lineId":"深圳地铁5号线","lat":22.50087432,"lon":113.8886154,"area_km2":2.1051,"D":0.2824,"C":0.7898,"T":0.101,"U1":0.1629,"U2":0.039,"couplingDegree":0.2824,"level":"中度失调","road_density":26.9837,"walk_accessibility":0.4221,"metro_line_density":2.2056,"station_count":2,"line_count":2,"population_density":1596.1176,"poi_density":0.475,"poi_diversity":0.0,"gdp_density":130885.443,"P":1596.1176,"I":0.475,"G":130885.443},{"stationName":"深圳铁路公园(地铁站)","station_id":"深圳铁路公园(地铁站)_22.50535_113.88544","lineId":"深圳地铁15号线 / 深圳地铁5号线","lat":22.505354285,"lon":113.88543924,"area_km2":1.8439,"D":0.2217,"C":0.446,"T":0.1102,"U1":0.2089,"U2":0.0116,"couplingDegree":0.2217,"level":"中度失调","road_density":28.9422,"walk_accessibility":0.3697,"metro_line_density":2.8306,"station_count":3,"line_count":2,"population_density":282.559,"poi_density":0.5423,"poi_diversity":0.0,"gdp_density":0.0,"P":282.559,"I":0.5423,"G":0.0},{"stationName":"深圳妈湾(地铁站)","station_id":"深圳妈湾(地铁站)_22.51095_113.88105","lineId":"深圳地铁5号线","lat":22.51095254,"lon":113.88104853,"area_km2":1.7315,"D":0.1097,"C":0.1207,"T":0.0998,"U1":0.1988,"U2":0.0007,"couplingDegree":0.1097,"level":"极度失调","road_density":27.4907,"walk_accessibility":0.3472,"metro_line_density":2.4655,"station_count":3,"line_count":2,"population_density":331.5045,"poi_density":0.0,"poi_diversity":0.0,"gdp_density":0.0,"P":331.5045,"I":0.0,"G":0.0},{"stationName":"深圳前湾公园(地铁站)","station_id":"深圳前湾公园(地铁站)_22.51916_113.88468","lineId":"深圳地铁5号线","lat":22.51915966,"lon":113.88467716,"area_km2":1.9336,"D":0.0682,"C":0.0416,"T":0.1115,"U1":0.223,"U2":0.0001,"couplingDegree":0.0682,"level":"极度失调","road_density":32.9354,"walk_accessibility":0.3877,"metro_line_density":1.2787,"station_count":4,"line_count":2,"population_density":43.9598,"poi_density":0.0,"poi_diversity":0.0,"gdp_density":0.0,"P":43.9598,"I":0.0,"G":0.0},{"stationName":"深圳前湾(地铁站)","station_id":"深圳前湾(地铁站)_22.52487_113.89059","lineId":"深圳地铁5号线","lat":22.52487404,"lon":113.89058584,"area_km2":3.0149,"D":0.0672,"C":0.0291,"T":0.1555,"U1":0.311,"U2":0.0001,"couplingDegree":0.0672,"level":"极度失调","road_density":43.9446,"walk_accessibility":0.6045,"metro_line_density":2.5963,"station_count":5,"line_count":2,"population_density":29.8514,"poi_density":0.0,"poi_diversity":0.0,"gdp_density":0.0,"P":29.8514,"I":0.0,"G":0.0},{"stationName":"深圳桂湾(地铁站)","station_id":"深圳桂湾(地铁站)_22.53541_113.89308","lineId":"深圳地铁5号线","lat":22.5354111,"lon":113.89307671,"area_km2":2.6405,"D":0.0668,"C":0.0284,"T":0.1569,"U1":0.3138,"U2":0.0001,"couplingDegree":0.0668,"level":"极度失调","road_density":46.0641,"walk_accessibility":0.5294,"metro_line_density":4.7773,"station_count":4,"line_count":2,"population_density":28.7825,"poi_density":0.0,"poi_diversity":0.0,"gdp_density":0.0,"P":28.7825,"I":0.0,"G":0.0},{"stationName":"深圳临海(地铁站)","station_id":"深圳临海(地铁站)_22.54721_113.88445","lineId":"深圳地铁5号线","lat":22.54720951,"lon":113.88444593,"area_km2":2.3458,"D":0.2441,"C":0.3609,"T":0.1652,"U1":0.3192,"U2":0.0111,"couplingDegree":0.2441,"level":"中度失调","road_density":39.5923,"walk_accessibility":0.4703,"metro_line_density":3.8634,"station_count":5,"line_count":2,"population_density":1149.2692,"poi_density":0.4263,"poi_diversity":0.0,"gdp_density":0.0,"P":1149.2692,"I":0.4263,"G":0.0},{"stationName":"深圳宝华(地铁站)","station_id":"深圳宝华(地铁站)_22.55268_113.88021","lineId":"深圳地铁5号线","lat":22.55268148,"lon":113.88020597,"area_km2":3.4113,"D":0.5036,"C":0.915,"T":0.2772,"U1":0.389,"U2":0.1653,"couplingDegree":0.5036,"level":"勉强协调","road_density":41.3346,"walk_accessibility":0.684,"metro_line_density":3.3889,"station_count":5,"line_count":3,"population_density":929.8478,"poi_density":1.4657,"poi_diversity":1.3322,"gdp_density":0.0,"P":929.8478,"I":1.4657,"G":0.0},{"stationName":"深圳翻身(地铁站)","station_id":"深圳翻身(地铁站)_22.56274_113.88836","lineId":"深圳地铁5号线","lat":22.56274124,"lon":113.88835791,"area_km2":3.2137,"D":0.4372,"C":0.9999,"T":0.1911,"U1":0.1886,"U2":0.1937,"couplingDegree":0.4372,"level":"勉强协调","road_density":33.8603,"walk_accessibility":0.6443,"metro_line_density":2.3188,"station_count":2,"line_count":2,"population_density":9360.6709,"poi_density":1.5559,"poi_diversity":1.3322,"gdp_density":40065.2397,"P":9360.6709,"I":1.5559,"G":40065.2397},{"stationName":"深圳灵芝(地铁站)","station_id":"深圳灵芝(地铁站)_22.57202_113.89929","lineId":"深圳地铁12号线 / 深圳地铁5号线","lat":22.572015229999998,"lon":113.899293,"area_km2":2.8468,"D":0.4953,"C":0.9968,"T":0.2461,"U1":0.2658,"U2":0.2264,"couplingDegree":0.4953,"level":"勉强协调","road_density":25.4146,"walk_accessibility":0.5708,"metro_line_density":4.0645,"station_count":2,"line_count":3,"population_density":34647.9762,"poi_density":1.4051,"poi_diversity":1.0397,"gdp_density":88001.4897,"P":34647.9762,"I":1.4051,"G":88001.4897},{"stationName":"深圳洪浪北(地铁站)","station_id":"深圳洪浪北(地铁站)_22.57758_113.90572","lineId":"深圳地铁15号线 / 深圳地铁5号线","lat":22.577579849999996,"lon":113.90571729666665,"area_km2":2.586,"D":0.3767,"C":0.7058,"T":0.2011,"U1":0.3436,"U2":0.0586,"couplingDegree":0.3767,"level":"中度失调","road_density":22.7012,"walk_accessibility":0.5185,"metro_line_density":3.351,"station_count":3,"line_count":4,"population_density":20022.0476,"poi_density":0.3867,"poi_diversity":0.0,"gdp_density":34079.9782,"P":20022.0476,"I":0.3867,"G":34079.9782},{"stationName":"深圳兴东(地铁站)","station_id":"深圳兴东(地铁站)_22.58487_113.91415","lineId":"深圳地铁29号线 / 深圳地铁5号线","lat":22.58486544,"lon":113.91415042,"area_km2":2.1816,"D":0.227,"C":0.4432,"T":0.1163,"U1":0.2205,"U2":0.012,"couplingDegree":0.227,"level":"中度失调","road_density":24.2991,"walk_accessibility":0.4374,"metro_line_density":2.083,"station_count":2,"line_count":3,"population_density":3066.9644,"poi_density":0.0,"poi_diversity":0.0,"gdp_density":26692.583,"P":3066.9644,"I":0.0,"G":26692.583},{"stationName":"深圳留仙洞(地铁站)","station_id":"深圳留仙洞(地铁站)_22.58351_113.93894","lineId":"深圳地铁13号线 / 深圳地铁5号线","lat":22.58351149666667,"lon":113.93894454999999,"area_km2":2.6291,"D":0.384,"C":0.8001,"T":0.1843,"U1":0.2948,"U2":0.0737,"couplingDegree":0.384,"level":"中度失调","road_density":25.9073,"walk_accessibility":0.5271,"metro_line_density":5.7878,"station_count":2,"line_count":3,"population_density":6291.4662,"poi_density":0.0,"poi_diversity":0.0,"gdp_density":301993.9915,"P":6291.4662,"I":0.0,"G":301993.9915},{"stationName":"深圳西丽(地铁站)","station_id":"深圳西丽(地铁站)_22.58367_113.94924","lineId":"深圳地铁5号线 / 深圳地铁7号线","lat":22.58366981,"lon":113.94923578000001,"area_km2":2.5219,"D":0.4151,"C":0.7915,"T":0.2177,"U1":0.3508,"U2":0.0847,"couplingDegree":0.4151,"level":"勉强协调","road_density":27.6049,"walk_accessibility":0.5056,"metro_line_density":4.9431,"station_count":4,"line_count":3,"population_density":12352.9448,"poi_density":0.0,"poi_diversity":0.0,"gdp_density":289896.8855,"P":12352.9448,"I":0.0,"G":289896.8855},{"stationName":"深圳大学城(地铁站)","station_id":"深圳大学城(地铁站)_22.58491_113.96039","lineId":"深圳地铁5号线","lat":22.58490972,"lon":113.96039249,"area_km2":2.0083,"D":0.3231,"C":0.8897,"T":0.1174,"U1":0.1709,"U2":0.0638,"couplingDegree":0.3231,"level":"中度失调","road_density":28.0431,"walk_accessibility":0.4027,"metro_line_density":2.6284,"station_count":2,"line_count":2,"population_density":5687.4693,"poi_density":0.0,"poi_diversity":0.0,"gdp_density":258600.5949,"P":5687.4693,"I":0.0,"G":258600.5949},{"stationName":"深圳塘朗(地铁站)","station_id":"深圳塘朗(地铁站)_22.59296_113.99467","lineId":"深圳地铁5号线","lat":22.59296016,"lon":113.99466908,"area_km2":2.2127,"D":0.3076,"C":0.6593,"T":0.1436,"U1":0.2515,"U2":0.0356,"couplingDegree":0.3076,"level":"中度失调","road_density":30.0582,"walk_accessibility":0.4436,"metro_line_density":3.3151,"station_count":2,"line_count":3,"population_density":2228.4769,"poi_density":0.0,"poi_diversity":0.0,"gdp_density":154909.1996,"P":2228.4769,"I":0.0,"G":154909.1996},{"stationName":"深圳长岭陂(地铁站)","station_id":"深圳长岭陂(地铁站)_22.60223_114.00525","lineId":"深圳地铁27号线 / 深圳地铁5号线","lat":22.60222537,"lon":114.00525025499999,"area_km2":1.6558,"D":0.2286,"C":0.604,"T":0.0865,"U1":0.1554,"U2":0.0176,"couplingDegree":0.2286,"level":"中度失调","road_density":26.0351,"walk_accessibility":0.332,"metro_line_density":4.1172,"station_count":1,"line_count":2,"population_density":341.2349,"poi_density":0.0,"poi_diversity":0.0,"gdp_density":84785.3883,"P":341.2349,"I":0.0,"G":84785.3883},{"stationName":"深圳民治(地铁站)","station_id":"深圳民治(地铁站)_22.62024_114.03581","lineId":"深圳地铁22号线 / 深圳地铁5号线","lat":22.620237545000002,"lon":114.035811585,"area_km2":2.4135,"D":0.4718,"C":0.9801,"T":0.2271,"U1":0.1821,"U2":0.2722,"couplingDegree":0.4718,"level":"勉强协调","road_density":32.4725,"walk_accessibility":0.4839,"metro_line_density":4.5603,"station_count":1,"line_count":2,"population_density":20073.229,"poi_density":2.0717,"poi_diversity":1.6094,"gdp_density":124382.1745,"P":20073.229,"I":2.0717,"G":124382.1745},{"stationName":"深圳五和(地铁站)","station_id":"深圳五和(地铁站)_22.62954_114.05556","lineId":"深圳地铁5号线","lat":22.62953587,"lon":114.05555872,"area_km2":2.3872,"D":0.3998,"C":0.9486,"T":0.1685,"U1":0.1152,"U2":0.2218,"couplingDegree":0.3998,"level":"中度失调","road_density":23.3648,"walk_accessibility":0.4786,"metro_line_density":3.149,"station_count":2,"line_count":1,"population_density":14229.4105,"poi_density":2.9323,"poi_diversity":1.1537,"gdp_density":78207.0906,"P":14229.4105,"I":2.9323,"G":78207.0906},{"stationName":"深圳坂田(地铁站)","station_id":"深圳坂田(地铁站)_22.63017_114.06572","lineId":"深圳地铁5号线","lat":22.63017094,"lon":114.06572017,"area_km2":2.065,"D":0.3784,"C":0.982,"T":0.1458,"U1":0.1182,"U2":0.1734,"couplingDegree":0.3784,"level":"中度失调","road_density":22.1767,"walk_accessibility":0.414,"metro_line_density":1.685,"station_count":3,"line_count":1,"population_density":5469.7408,"poi_density":2.4213,"poi_diversity":0.9503,"gdp_density":86133.5258,"P":5469.7408,"I":2.4213,"G":86133.5258},{"stationName":"深圳杨美(地铁站)","station_id":"深圳杨美(地铁站)_22.62946_114.07484","lineId":"深圳地铁5号线","lat":22.62945627,"lon":114.07484093,"area_km2":1.9323,"D":0.2089,"C":0.8479,"T":0.0515,"U1":0.0788,"U2":0.0242,"couplingDegree":0.2089,"level":"中度失调","road_density":24.4274,"walk_accessibility":0.3874,"metro_line_density":1.3405,"station_count":2,"line_count":1,"population_density":2535.3456,"poi_density":0.0,"poi_diversity":0.0,"gdp_density":93858.5035,"P":2535.3456,"I":0.0,"G":93858.5035},{"stationName":"深圳上水径(地铁站)","station_id":"深圳上水径(地铁站)_22.62472_114.10022","lineId":"深圳地铁5号线","lat":22.62471851,"lon":114.10021536,"area_km2":1.6323,"D":0.2504,"C":0.9907,"T":0.0633,"U1":0.0719,"U2":0.0547,"couplingDegree":0.2504,"level":"中度失调","road_density":24.4753,"walk_accessibility":0.3273,"metro_line_density":1.1573,"station_count":2,"line_count":1,"population_density":15754.2642,"poi_density":0.0,"poi_diversity":0.0,"gdp_density":100983.2098,"P":15754.2642,"I":0.0,"G":100983.2098},{"stationName":"深圳下水径(地铁站)","station_id":"深圳下水径(地铁站)_22.61751_114.10555","lineId":"深圳地铁5号线","lat":22.6175091,"lon":114.10554695,"area_km2":1.5499,"D":0.2616,"C":0.9047,"T":0.0757,"U1":0.1079,"U2":0.0434,"couplingDegree":0.2616,"level":"中度失调","road_density":20.0096,"walk_accessibility":0.3107,"metro_line_density":1.6374,"station_count":3,"line_count":1,"population_density":14533.9355,"poi_density":0.0,"poi_diversity":0.0,"gdp_density":57653.4497,"P":14533.9355,"I":0.0,"G":57653.4497},{"stationName":"深圳长龙(地铁站)","station_id":"深圳长龙(地铁站)_22.61073_114.10871","lineId":"深圳地铁5号线","lat":22.61073227,"lon":114.10871485,"area_km2":1.9698,"D":0.3366,"C":0.7816,"T":0.145,"U1":0.2354,"U2":0.0546,"couplingDegree":0.3366,"level":"中度失调","road_density":22.8146,"walk_accessibility":0.3949,"metro_line_density":1.2315,"station_count":3,"line_count":3,"population_density":16386.0733,"poi_density":0.0,"poi_diversity":0.0,"gdp_density":93251.3164,"P":16386.0733,"I":0.0,"G":93251.3164},{"stationName":"深圳百鸽笼(地铁站)","station_id":"深圳百鸽笼(地铁站)_22.59814_114.12530","lineId":"深圳地铁5号线","lat":22.59813914,"lon":114.12529767,"area_km2":1.792,"D":0.4934,"C":1.0,"T":0.2434,"U1":0.2453,"U2":0.2415,"couplingDegree":0.4934,"level":"勉强协调","road_density":23.3869,"walk_accessibility":0.3593,"metro_line_density":3.8049,"station_count":2,"line_count":3,"population_density":19553.7999,"poi_density":2.7902,"poi_diversity":1.3322,"gdp_density":42679.3492,"P":19553.7999,"I":2.7902,"G":42679.3492},{"stationName":"深圳布心(地铁站)","station_id":"深圳布心(地铁站)_22.58370_114.13298","lineId":"深圳地铁5号线","lat":22.58369589,"lon":114.13298186,"area_km2":1.6432,"D":0.3409,"C":0.9698,"T":0.1198,"U1":0.149,"U2":0.0906,"couplingDegree":0.3409,"level":"中度失调","road_density":31.1737,"walk_accessibility":0.3295,"metro_line_density":1.3986,"station_count":2,"line_count":2,"population_density":15331.417,"poi_density":0.6086,"poi_diversity":0.0,"gdp_density":224885.2268,"P":15331.417,"I":0.6086,"G":224885.2268},{"stationName":"深圳太安(地铁站)","station_id":"深圳太安(地铁站)_22.57617_114.13205","lineId":"深圳地铁5号线 / 深圳地铁7号线","lat":22.576174695,"lon":114.13205325999999,"area_km2":2.1771,"D":0.4099,"C":0.8362,"T":0.2009,"U1":0.3111,"U2":0.0907,"couplingDegree":0.4099,"level":"勉强协调","road_density":33.7748,"walk_accessibility":0.4365,"metro_line_density":2.4586,"station_count":4,"line_count":3,"population_density":15836.335,"poi_density":0.4593,"poi_diversity":0.0,"gdp_density":235065.6309,"P":15836.335,"I":0.4593,"G":235065.6309},{"stationName":"深圳怡景(地铁站)","station_id":"深圳怡景(地铁站)_22.55857_114.13506","lineId":"深圳地铁5号线","lat":22.55857157,"lon":114.13505675,"area_km2":2.3197,"D":0.5033,"C":1.0,"T":0.2533,"U1":0.251,"U2":0.2556,"couplingDegree":0.5033,"level":"勉强协调","road_density":29.088,"walk_accessibility":0.4651,"metro_line_density":1.3465,"station_count":3,"line_count":3,"population_density":46240.4697,"poi_density":1.2933,"poi_diversity":0.6365,"gdp_density":322070.3485,"P":46240.4697,"I":1.2933,"G":322070.3485},{"stationName":"深圳东门(地铁站)","station_id":"深圳东门(地铁站)_22.54568_114.11230","lineId":"深圳地铁5号线","lat":22.54568342,"lon":114.112295115,"area_km2":3.0922,"D":0.9001,"C":0.9989,"T":0.8111,"U1":0.8499,"U2":0.7724,"couplingDegree":0.9001,"level":"优质协调","road_density":34.1867,"walk_accessibility":0.62,"metro_line_density":9.6369,"station_count":10,"line_count":6,"population_density":72824.2916,"poi_density":12.9358,"poi_diversity":2.5183,"gdp_density":495521.7542,"P":72824.2916,"I":12.9358,"G":495521.7542},{"stationName":"深圳八卦岭(地铁站)","station_id":"深圳八卦岭(地铁站)_22.56414_114.08893","lineId":"深圳地铁6号线 / 深圳地铁7号线","lat":22.564140565,"lon":114.08893381,"area_km2":2.7687,"D":0.4777,"C":0.8332,"T":0.2739,"U1":0.4253,"U2":0.1225,"couplingDegree":0.4777,"level":"勉强协调","road_density":41.9028,"walk_accessibility":0.5551,"metro_line_density":5.8037,"station_count":5,"line_count":3,"population_density":36909.5111,"poi_density":0.3612,"poi_diversity":0.0,"gdp_density":171112.2233,"P":36909.5111,"I":0.3612,"G":171112.2233},{"stationName":"深圳深大丽湖(地铁站)","station_id":"深圳深大丽湖(地铁站)_22.59555_113.98454","lineId":"深圳地铁27号线 / 深圳地铁7号线","lat":22.595549903333335,"lon":113.98454029666668,"area_km2":2.2813,"D":0.3176,"C":0.6131,"T":0.1645,"U1":0.2944,"U2":0.0345,"couplingDegree":0.3176,"level":"中度失调","road_density":30.2278,"walk_accessibility":0.4574,"metro_line_density":3.6981,"station_count":3,"line_count":3,"population_density":2161.4555,"poi_density":0.0,"poi_diversity":0.0,"gdp_density":150250.309,"P":2161.4555,"I":0.0,"G":150250.309},{"stationName":"深圳北大(地铁站)","station_id":"深圳北大(地铁站)_22.59691_113.97338","lineId":"深圳地铁7号线","lat":22.596913283333333,"lon":113.97338153333332,"area_km2":1.2185,"D":0.2973,"C":0.6792,"T":0.1301,"U1":0.2256,"U2":0.0346,"couplingDegree":0.2973,"level":"中度失调","road_density":26.7172,"walk_accessibility":0.2443,"metro_line_density":6.3202,"station_count":2,"line_count":2,"population_density":1072.6738,"poi_density":0.0,"poi_diversity":0.0,"gdp_density":162721.4128,"P":1072.6738,"I":0.0,"G":162721.4128},{"stationName":"深圳西丽湖(地铁站)","station_id":"深圳西丽湖(地铁站)_22.59653_113.96073","lineId":"深圳地铁7号线","lat":22.596526474999997,"lon":113.960733545,"area_km2":2.1615,"D":0.2609,"C":0.8959,"T":0.076,"U1":0.1098,"U2":0.0422,"couplingDegree":0.2609,"level":"中度失调","road_density":29.6348,"walk_accessibility":0.4334,"metro_line_density":4.4316,"station_count":1,"line_count":1,"population_density":1209.3504,"poi_density":0.4626,"poi_diversity":0.0,"gdp_density":152522.0372,"P":1209.3504,"I":0.4626,"G":152522.0372},{"stationName":"深圳茶光(地铁站)","station_id":"深圳茶光(地铁站)_22.57713_113.94942","lineId":"深圳地铁7号线","lat":22.57712817,"lon":113.94941739,"area_km2":2.3298,"D":0.4025,"C":0.9039,"T":0.1792,"U1":0.2559,"U2":0.1026,"couplingDegree":0.4025,"level":"勉强协调","road_density":28.7747,"walk_accessibility":0.4671,"metro_line_density":5.1327,"station_count":3,"line_count":2,"population_density":3813.2354,"poi_density":0.0,"poi_diversity":0.0,"gdp_density":474960.703,"P":3813.2354,"I":0.0,"G":474960.703},{"stationName":"深圳珠光(地铁站)","station_id":"深圳珠光(地铁站)_22.57125_113.95565","lineId":"深圳地铁7号线","lat":22.57124634,"lon":113.95565471,"area_km2":1.7368,"D":0.3455,"C":0.9712,"T":0.1229,"U1":0.1522,"U2":0.0936,"couplingDegree":0.3455,"level":"中度失调","road_density":26.904,"walk_accessibility":0.3482,"metro_line_density":5.3608,"station_count":2,"line_count":1,"population_density":3686.0938,"poi_density":0.0,"poi_diversity":0.0,"gdp_density":431387.2617,"P":3686.0938,"I":0.0,"G":431387.2617},{"stationName":"深圳龙井(地铁站)","station_id":"深圳龙井(地铁站)_22.56695_113.96975","lineId":"深圳地铁7号线","lat":22.56695015,"lon":113.96975318,"area_km2":1.9837,"D":0.3258,"C":0.9993,"T":0.1062,"U1":0.1101,"U2":0.1024,"couplingDegree":0.3258,"level":"中度失调","road_density":26.4398,"walk_accessibility":0.3977,"metro_line_density":2.8853,"station_count":2,"line_count":1,"population_density":10520.6859,"poi_density":0.0,"poi_diversity":0.0,"gdp_density":399625.7599,"P":10520.6859,"I":0.0,"G":399625.7599},{"stationName":"深圳桃源村(地铁站)","station_id":"深圳桃源村(地铁站)_22.56282_113.97701","lineId":"深圳地铁7号线","lat":22.56282058,"lon":113.97701017,"area_km2":2.3101,"D":0.2866,"C":0.9643,"T":0.0852,"U1":0.1078,"U2":0.0627,"couplingDegree":0.2866,"level":"中度失调","road_density":28.552,"walk_accessibility":0.4632,"metro_line_density":2.3599,"station_count":2,"line_count":1,"population_density":5378.5346,"poi_density":0.4329,"poi_diversity":0.0,"gdp_density":212239.3563,"P":5378.5346,"I":0.4329,"G":212239.3563},{"stationName":"深圳深云(地铁站)","station_id":"深圳深云(地铁站)_22.55942_113.98875","lineId":"深圳地铁7号线","lat":22.55942189,"lon":113.98874705,"area_km2":1.8609,"D":0.3147,"C":0.8759,"T":0.1131,"U1":0.1676,"U2":0.0585,"couplingDegree":0.3147,"level":"中度失调","road_density":32.6623,"walk_accessibility":0.3731,"metro_line_density":2.1643,"station_count":2,"line_count":2,"population_density":3644.9277,"poi_density":0.0,"poi_diversity":0.0,"gdp_density":254669.9136,"P":3644.9277,"I":0.0,"G":254669.9136},{"stationName":"深圳农林(地铁站)","station_id":"深圳农林(地铁站)_22.54322_114.01310","lineId":"深圳地铁7号线","lat":22.543224029999998,"lon":114.01309501,"area_km2":2.6327,"D":0.556,"C":0.9919,"T":0.3116,"U1":0.3512,"U2":0.272,"couplingDegree":0.556,"level":"勉强协调","road_density":36.4198,"walk_accessibility":0.5278,"metro_line_density":4.1637,"station_count":4,"line_count":3,"population_density":20661.9725,"poi_density":1.5194,"poi_diversity":1.3863,"gdp_density":286244.4397,"P":20661.9725,"I":1.5194,"G":286244.4397},{"stationName":"深圳上沙(地铁站)","station_id":"深圳上沙(地铁站)_22.52635_114.03122","lineId":"深圳地铁22号线 / 深圳地铁7号线","lat":22.526354275,"lon":114.031220315,"area_km2":2.3642,"D":0.5039,"C":0.938,"T":0.2707,"U1":0.1769,"U2":0.3646,"couplingDegree":0.5039,"level":"勉强协调","road_density":27.2089,"walk_accessibility":0.474,"metro_line_density":2.7894,"station_count":2,"line_count":2,"population_density":45700.9809,"poi_density":1.269,"poi_diversity":1.0986,"gdp_density":646060.373,"P":45700.9809,"I":1.269,"G":646060.373},{"stationName":"深圳沙尾(地铁站)","station_id":"深圳沙尾(地铁站)_22.52355_114.03749","lineId":"深圳地铁7号线","lat":22.5235481,"lon":114.03748869,"area_km2":2.7217,"D":0.575,"C":0.9991,"T":0.331,"U1":0.3168,"U2":0.3451,"couplingDegree":0.575,"level":"勉强协调","road_density":25.9291,"walk_accessibility":0.5457,"metro_line_density":3.0528,"station_count":4,"line_count":3,"population_density":33380.0954,"poi_density":2.5719,"poi_diversity":1.079,"gdp_density":561977.7572,"P":33380.0954,"I":2.5719,"G":561977.7572},{"stationName":"深圳皇岗村(地铁站)","station_id":"深圳皇岗村(地铁站)_22.52585_114.05471","lineId":"深圳地铁7号线","lat":22.52585215,"lon":114.05470848,"area_km2":2.8025,"D":0.6255,"C":0.9914,"T":0.3946,"U1":0.4462,"U2":0.343,"couplingDegree":0.6255,"level":"良好协调","road_density":30.9535,"walk_accessibility":0.5619,"metro_line_density":4.3469,"station_count":5,"line_count":4,"population_density":23292.5609,"poi_density":2.141,"poi_diversity":1.3297,"gdp_density":580515.9747,"P":23292.5609,"I":2.141,"G":580515.9747},{"stationName":"深圳皇岗口岸(地铁站)","station_id":"深圳皇岗口岸(地铁站)_22.52449_114.06885","lineId":"深圳地铁7号线","lat":22.52449458,"lon":114.06884589,"area_km2":1.2877,"D":0.4407,"C":0.9059,"T":0.2144,"U1":0.3051,"U2":0.1236,"couplingDegree":0.4407,"level":"勉强协调","road_density":43.5636,"walk_accessibility":0.2582,"metro_line_density":1.9235,"station_count":4,"line_count":3,"population_density":10291.7307,"poi_density":1.5531,"poi_diversity":0.6931,"gdp_density":0.0,"P":10291.7307,"I":1.5531,"G":0.0},{"stationName":"深圳福邻(地铁站)","station_id":"深圳福邻(地铁站)_22.52734_114.07613","lineId":"深圳地铁7号线","lat":22.52734449,"lon":114.076134975,"area_km2":1.3237,"D":0.4387,"C":0.9877,"T":0.1949,"U1":0.1644,"U2":0.2254,"couplingDegree":0.4387,"level":"勉强协调","road_density":37.9126,"walk_accessibility":0.2654,"metro_line_density":3.4654,"station_count":3,"line_count":1,"population_density":10011.925,"poi_density":1.5109,"poi_diversity":0.6931,"gdp_density":520979.317,"P":10011.925,"I":1.5109,"G":520979.317},{"stationName":"深圳赤尾(地铁站)","station_id":"深圳赤尾(地铁站)_22.53406_114.07847","lineId":"深圳地铁7号线","lat":22.53406083,"lon":114.07846996,"area_km2":2.038,"D":0.6412,"C":0.9936,"T":0.4138,"U1":0.3672,"U2":0.4604,"couplingDegree":0.6412,"level":"良好协调","road_density":30.7125,"walk_accessibility":0.4086,"metro_line_density":3.9781,"station_count":5,"line_count":3,"population_density":34534.6566,"poi_density":5.8881,"poi_diversity":1.9356,"gdp_density":359282.9499,"P":34534.6566,"I":5.8881,"G":359282.9499},{"stationName":"深圳华强南(地铁站)","station_id":"深圳华强南(地铁站)_22.54052_114.08278","lineId":"深圳地铁11号线 / 深圳地铁7号线","lat":22.540516945,"lon":114.08277976,"area_km2":2.5999,"D":0.8391,"C":1.0,"T":0.7041,"U1":0.704,"U2":0.7042,"couplingDegree":0.8391,"level":"优质协调","road_density":30.3212,"walk_accessibility":0.5213,"metro_line_density":6.0586,"station_count":8,"line_count":6,"population_density":71844.7113,"poi_density":11.539,"poi_diversity":2.4676,"gdp_density":330402.7061,"P":71844.7113,"I":11.539,"G":330402.7061},{"stationName":"深圳黄木岗(地铁站)","station_id":"深圳黄木岗(地铁站)_22.55847_114.08145","lineId":"深圳地铁7号线","lat":22.5584748,"lon":114.08145085,"area_km2":2.8203,"D":0.6288,"C":0.9858,"T":0.401,"U1":0.3338,"U2":0.4683,"couplingDegree":0.6288,"level":"良好协调","road_density":34.0921,"walk_accessibility":0.5655,"metro_line_density":5.2065,"station_count":3,"line_count":3,"population_density":55053.8525,"poi_density":4.2549,"poi_diversity":1.9073,"gdp_density":352296.8593,"P":55053.8525,"I":4.2549,"G":352296.8593},{"stationName":"深圳红岭北(地铁站)","station_id":"深圳红岭北(地铁站)_22.56474_114.09947","lineId":"深圳地铁7号线 / 深圳地铁9号线","lat":22.564735245,"lon":114.09946687,"area_km2":3.0913,"D":0.596,"C":0.9597,"T":0.3702,"U1":0.4742,"U2":0.2661,"couplingDegree":0.596,"level":"勉强协调","road_density":37.9758,"walk_accessibility":0.6198,"metro_line_density":5.1329,"station_count":5,"line_count":4,"population_density":44660.4128,"poi_density":0.9705,"poi_diversity":1.0986,"gdp_density":191548.6811,"P":44660.4128,"I":0.9705,"G":191548.6811},{"stationName":"深圳笋岗(地铁站)","station_id":"深圳笋岗(地铁站)_22.56638_114.10673","lineId":"深圳地铁17号线 / 深圳地铁7号线","lat":22.56638148,"lon":114.10672694,"area_km2":2.481,"D":0.5379,"C":0.972,"T":0.2977,"U1":0.3677,"U2":0.2277,"couplingDegree":0.5379,"level":"勉强协调","road_density":35.6347,"walk_accessibility":0.4974,"metro_line_density":5.2492,"station_count":4,"line_count":3,"population_density":42868.1892,"poi_density":0.8061,"poi_diversity":0.6931,"gdp_density":239707.8928,"P":42868.1892,"I":0.8061,"G":239707.8928},{"stationName":"深圳洪湖(地铁站)","station_id":"深圳洪湖(地铁站)_22.56875_114.11737","lineId":"深圳地铁7号线","lat":22.56874771,"lon":114.11737136,"area_km2":2.6677,"D":0.6087,"C":0.9955,"T":0.3721,"U1":0.337,"U2":0.4073,"couplingDegree":0.6087,"level":"良好协调","road_density":33.7068,"walk_accessibility":0.5349,"metro_line_density":3.5739,"station_count":4,"line_count":3,"population_density":53393.3796,"poi_density":3.3737,"poi_diversity":1.5811,"gdp_density":317536.4868,"P":53393.3796,"I":3.3737,"G":317536.4868},{"stationName":"深圳文锦(地铁站)","station_id":"深圳文锦(地铁站)_22.54516_114.12605","lineId":"深圳地铁9号线","lat":22.54515736,"lon":114.12604705,"area_km2":2.4071,"D":0.6818,"C":0.9997,"T":0.465,"U1":0.4542,"U2":0.4758,"couplingDegree":0.6818,"level":"良好协调","road_density":29.8894,"walk_accessibility":0.4826,"metro_line_density":5.147,"station_count":5,"line_count":4,"population_density":35394.3157,"poi_density":7.4779,"poi_diversity":1.8751,"gdp_density":296562.8799,"P":35394.3157,"I":7.4779,"G":296562.8799},{"stationName":"深圳向西村(地铁站)","station_id":"深圳向西村(地铁站)_22.54249_114.12068","lineId":"深圳地铁9号线","lat":22.54248911,"lon":114.12068105,"area_km2":2.1645,"D":0.8796,"C":1.0,"T":0.7737,"U1":0.7728,"U2":0.7747,"couplingDegree":0.8796,"level":"优质协调","road_density":32.7814,"walk_accessibility":0.434,"metro_line_density":8.0348,"station_count":9,"line_count":6,"population_density":63109.921,"poi_density":10.6261,"poi_diversity":2.2549,"gdp_density":983440.8364,"P":63109.921,"I":10.6261,"G":983440.8364},{"stationName":"深圳人民南(地铁站)","station_id":"深圳人民南(地铁站)_22.53820_114.11305","lineId":"深圳地铁9号线","lat":22.53820353,"lon":114.11305445,"area_km2":2.3527,"D":0.8644,"C":0.9992,"T":0.7477,"U1":0.7768,"U2":0.7187,"couplingDegree":0.8644,"level":"优质协调","road_density":36.2098,"walk_accessibility":0.4717,"metro_line_density":7.8488,"station_count":9,"line_count":6,"population_density":58172.0938,"poi_density":12.7514,"poi_diversity":2.1329,"gdp_density":601351.5752,"P":58172.0938,"I":12.7514,"G":601351.5752},{"stationName":"深圳鹿丹村(地铁站)","station_id":"深圳鹿丹村(地铁站)_22.53839_114.10351","lineId":"深圳地铁9号线","lat":22.53839292,"lon":114.103512,"area_km2":1.9495,"D":0.683,"C":0.9475,"T":0.4924,"U1":0.6499,"U2":0.3349,"couplingDegree":0.683,"level":"良好协调","road_density":38.1449,"walk_accessibility":0.3909,"metro_line_density":8.285,"station_count":7,"line_count":5,"population_density":26318.458,"poi_density":4.6166,"poi_diversity":1.831,"gdp_density":0.0,"P":26318.458,"I":4.6166,"G":0.0},{"stationName":"深圳红岭南(地铁站)","station_id":"深圳红岭南(地铁站)_22.54166_114.10064","lineId":"深圳地铁11号线 / 深圳地铁9号线","lat":22.541656973333335,"lon":114.10064043333334,"area_km2":2.4704,"D":0.8369,"C":0.9922,"T":0.7059,"U1":0.7939,"U2":0.6178,"couplingDegree":0.8369,"level":"优质协调","road_density":37.755,"walk_accessibility":0.4953,"metro_line_density":7.4438,"station_count":6,"line_count":8,"population_density":63227.6776,"poi_density":7.2862,"poi_diversity":2.3513,"gdp_density":482343.5913,"P":63227.6776,"I":7.2862,"G":482343.5913},{"stationName":"深圳园岭(地铁站)","station_id":"深圳园岭(地铁站)_22.55880_114.09938","lineId":"深圳地铁9号线","lat":22.55880294,"lon":114.09937506,"area_km2":3.1972,"D":0.7326,"C":0.9996,"T":0.537,"U1":0.5514,"U2":0.5225,"couplingDegree":0.7326,"level":"良好协调","road_density":39.3031,"walk_accessibility":0.641,"metro_line_density":3.808,"station_count":6,"line_count":5,"population_density":69402.8929,"poi_density":4.3789,"poi_diversity":2.0076,"gdp_density":402870.6379,"P":69402.8929,"I":4.3789,"G":402870.6379},{"stationName":"深圳泥岗(地铁站)","station_id":"深圳泥岗(地铁站)_22.57048_114.09251","lineId":"深圳地铁9号线","lat":22.57048406,"lon":114.09250794,"area_km2":2.1156,"D":0.4065,"C":0.7605,"T":0.2173,"U1":0.3584,"U2":0.0762,"couplingDegree":0.4065,"level":"勉强协调","road_density":44.9993,"walk_accessibility":0.4242,"metro_line_density":6.1578,"station_count":3,"line_count":3,"population_density":6253.5309,"poi_density":0.4727,"poi_diversity":0.0,"gdp_density":266820.6269,"P":6253.5309,"I":0.4727,"G":266820.6269},{"stationName":"深圳孖岭(地铁站)","station_id":"深圳孖岭(地铁站)_22.57047_114.06210","lineId":"深圳地铁10号线 / 深圳地铁9号线","lat":22.570474835,"lon":114.06210177,"area_km2":2.7119,"D":0.5039,"C":0.9586,"T":0.2649,"U1":0.3404,"U2":0.1895,"couplingDegree":0.5039,"level":"勉强协调","road_density":32.9118,"walk_accessibility":0.5437,"metro_line_density":5.748,"station_count":3,"line_count":3,"population_density":15156.3982,"poi_density":1.1063,"poi_diversity":0.6365,"gdp_density":352459.4544,"P":15156.3982,"I":1.1063,"G":352459.4544},{"stationName":"深圳梅村(地铁站)","station_id":"深圳梅村(地铁站)_22.57117_114.04731","lineId":"深圳地铁9号线","lat":22.57116913,"lon":114.04731465,"area_km2":2.3598,"D":0.3805,"C":0.7937,"T":0.1824,"U1":0.2934,"U2":0.0714,"couplingDegree":0.3805,"level":"中度失调","road_density":32.4301,"walk_accessibility":0.4731,"metro_line_density":4.9533,"station_count":4,"line_count":2,"population_density":8453.6301,"poi_density":0.4238,"poi_diversity":0.0,"gdp_density":223316.9056,"P":8453.6301,"I":0.4238,"G":223316.9056},{"stationName":"深圳下梅林(地铁站)","station_id":"深圳下梅林(地铁站)_22.56842_114.03668","lineId":"深圳地铁9号线","lat":22.56842138,"lon":114.03667671,"area_km2":2.2711,"D":0.5392,"C":0.8272,"T":0.3515,"U1":0.154,"U2":0.549,"couplingDegree":0.5392,"level":"勉强协调","road_density":26.9678,"walk_accessibility":0.4554,"metro_line_density":3.1429,"station_count":3,"line_count":1,"population_density":12669.5303,"poi_density":11.0078,"poi_diversity":2.6361,"gdp_density":173470.5012,"P":12669.5303,"I":11.0078,"G":173470.5012},{"stationName":"深圳梅景(地铁站)","station_id":"深圳梅景(地铁站)_22.56379_114.03285","lineId":"深圳地铁9号线","lat":22.56378698,"lon":114.03284924,"area_km2":2.6115,"D":0.6553,"C":0.9076,"T":0.4731,"U1":0.2744,"U2":0.6718,"couplingDegree":0.6553,"level":"良好协调","road_density":27.4327,"walk_accessibility":0.5236,"metro_line_density":4.1392,"station_count":4,"line_count":2,"population_density":9746.3237,"poi_density":16.4653,"poi_diversity":2.5733,"gdp_density":301313.5338,"P":9746.3237,"I":16.4653,"G":301313.5338},{"stationName":"深圳香梅(地铁站)","station_id":"深圳香梅(地铁站)_22.54825_114.03454","lineId":"深圳地铁9号线","lat":22.54824553,"lon":114.03453818,"area_km2":2.2511,"D":0.6073,"C":0.9996,"T":0.3689,"U1":0.3796,"U2":0.3582,"couplingDegree":0.6073,"level":"良好协调","road_density":25.5032,"walk_accessibility":0.4513,"metro_line_density":4.957,"station_count":5,"line_count":3,"population_density":15445.1989,"poi_density":3.9981,"poi_diversity":1.4271,"gdp_density":506023.0641,"P":15445.1989,"I":3.9981,"G":506023.0641},{"stationName":"深圳下沙(地铁站)","station_id":"深圳下沙(地铁站)_22.53179_114.01911","lineId":"深圳地铁9号线","lat":22.53179026,"lon":114.01910891,"area_km2":2.7731,"D":0.5867,"C":0.9978,"T":0.3449,"U1":0.322,"U2":0.3679,"couplingDegree":0.5867,"level":"勉强协调","road_density":33.3142,"walk_accessibility":0.556,"metro_line_density":4.6482,"station_count":3,"line_count":3,"population_density":28505.0987,"poi_density":2.8849,"poi_diversity":1.9062,"gdp_density":280306.448,"P":28505.0987,"I":2.8849,"G":280306.448},{"stationName":"深圳深圳湾公园(地铁站)","station_id":"深圳深圳湾公园(地铁站)_22.52448_113.98814","lineId":"深圳地铁9号线","lat":22.52448127,"lon":113.98813754,"area_km2":1.8243,"D":0.4829,"C":0.9917,"T":0.2351,"U1":0.2048,"U2":0.2654,"couplingDegree":0.4829,"level":"勉强协调","road_density":35.7042,"walk_accessibility":0.3658,"metro_line_density":4.0105,"station_count":2,"line_count":2,"population_density":1367.6171,"poi_density":4.3851,"poi_diversity":1.7329,"gdp_density":0.0,"P":1367.6171,"I":4.3851,"G":0.0},{"stationName":"深圳深湾(地铁站)","station_id":"深圳深湾(地铁站)_22.52601_113.97368","lineId":"深圳地铁9号线","lat":22.52601086,"lon":113.97367958,"area_km2":1.3165,"D":0.1522,"C":0.1259,"T":0.184,"U1":0.3666,"U2":0.0015,"couplingDegree":0.1522,"level":"极度失调","road_density":31.5236,"walk_accessibility":0.264,"metro_line_density":8.2635,"station_count":3,"line_count":3,"population_density":665.411,"poi_density":0.0,"poi_diversity":0.0,"gdp_density":0.0,"P":665.411,"I":0.0,"G":0.0},{"stationName":"深圳红树湾南(地铁站)","station_id":"深圳红树湾南(地铁站)_22.52597_113.96699","lineId":"深圳地铁29号线 / 深圳地铁9号线","lat":22.52597433,"lon":113.96698662,"area_km2":1.432,"D":0.2715,"C":0.3663,"T":0.2013,"U1":0.3886,"U2":0.014,"couplingDegree":0.2715,"level":"中度失调","road_density":29.8306,"walk_accessibility":0.2871,"metro_line_density":9.5544,"station_count":3,"line_count":3,"population_density":6356.0495,"poi_density":0.0,"poi_diversity":0.0,"gdp_density":0.0,"P":6356.0495,"I":0.0,"G":0.0},{"stationName":"深圳高新南(地铁站)","station_id":"深圳高新南(地铁站)_22.53580_113.94511","lineId":"深圳地铁9号线","lat":22.53579978,"lon":113.94511483,"area_km2":3.1558,"D":0.605,"C":0.9778,"T":0.3743,"U1":0.4528,"U2":0.2959,"couplingDegree":0.605,"level":"良好协调","road_density":38.0411,"walk_accessibility":0.6327,"metro_line_density":3.8897,"station_count":5,"line_count":4,"population_density":7505.8351,"poi_density":2.2181,"poi_diversity":1.5498,"gdp_density":398475.9648,"P":7505.8351,"I":2.2181,"G":398475.9648},{"stationName":"深圳粤海门(地铁站)","station_id":"深圳粤海门(地铁站)_22.53571_113.94065","lineId":"深圳地铁9号线","lat":22.53570609,"lon":113.94065196,"area_km2":3.3863,"D":0.6197,"C":0.9261,"T":0.4147,"U1":0.5712,"U2":0.2583,"couplingDegree":0.6197,"level":"良好协调","road_density":38.0486,"walk_accessibility":0.6789,"metro_line_density":4.8843,"station_count":6,"line_count":5,"population_density":4942.617,"poi_density":2.0672,"poi_diversity":1.5498,"gdp_density":252702.0363,"P":4942.617,"I":2.0672,"G":252702.0363},{"stationName":"深圳深大南(地铁站)","station_id":"深圳深大南(地铁站)_22.52904_113.93081","lineId":"深圳地铁15号线 / 深圳地铁9号线","lat":22.529042513333334,"lon":113.93080615666668,"area_km2":3.2377,"D":0.7142,"C":0.9992,"T":0.5106,"U1":0.4898,"U2":0.5314,"couplingDegree":0.7142,"level":"良好协调","road_density":44.5421,"walk_accessibility":0.6491,"metro_line_density":5.3602,"station_count":5,"line_count":4,"population_density":3231.9583,"poi_density":11.1191,"poi_diversity":2.7167,"gdp_density":137038.5539,"P":3231.9583,"I":11.1191,"G":137038.5539},{"stationName":"深圳南山书城(地铁站)","station_id":"深圳南山书城(地铁站)_22.52163_113.92348","lineId":"深圳地铁9号线","lat":22.52162783,"lon":113.92347926,"area_km2":3.1694,"D":0.6912,"C":0.9815,"T":0.4868,"U1":0.3936,"U2":0.5799,"couplingDegree":0.6912,"level":"良好协调","road_density":41.4901,"walk_accessibility":0.6355,"metro_line_density":5.7439,"station_count":4,"line_count":3,"population_density":18240.1508,"poi_density":13.2518,"poi_diversity":2.4714,"gdp_density":122589.9997,"P":18240.1508,"I":13.2518,"G":122589.9997},{"stationName":"深圳南油(地铁站)","station_id":"深圳南油(地铁站)_22.51339_113.92094","lineId":"深圳地铁9号线","lat":22.51338804,"lon":113.92093612,"area_km2":2.8934,"D":0.5793,"C":0.994,"T":0.3376,"U1":0.3008,"U2":0.3744,"couplingDegree":0.5793,"level":"勉强协调","road_density":32.2419,"walk_accessibility":0.5801,"metro_line_density":5.0238,"station_count":4,"line_count":2,"population_density":6839.7185,"poi_density":6.5667,"poi_diversity":2.2602,"gdp_density":0.0,"P":6839.7185,"I":6.5667,"G":0.0},{"stationName":"深圳南油西(地铁站)","station_id":"深圳南油西(地铁站)_22.51212_113.91354","lineId":"深圳地铁9号线","lat":22.51212199,"lon":113.91354313,"area_km2":2.5468,"D":0.4545,"C":0.9873,"T":0.2092,"U1":0.176,"U2":0.2424,"couplingDegree":0.4545,"level":"勉强协调","road_density":29.6268,"walk_accessibility":0.5106,"metro_line_density":3.963,"station_count":3,"line_count":1,"population_density":6078.541,"poi_density":1.5706,"poi_diversity":1.3863,"gdp_density":293280.2776,"P":6078.541,"I":1.5706,"G":293280.2776},{"stationName":"深圳荔林(地铁站)","station_id":"深圳荔林(地铁站)_22.51496_113.90827","lineId":"深圳地铁9号线","lat":22.51495587,"lon":113.90826975,"area_km2":2.4566,"D":0.3979,"C":0.993,"T":0.1594,"U1":0.1406,"U2":0.1783,"couplingDegree":0.3979,"level":"中度失调","road_density":29.0223,"walk_accessibility":0.4925,"metro_line_density":2.1016,"station_count":3,"line_count":1,"population_density":50102.2101,"poi_density":0.4071,"poi_diversity":0.0,"gdp_density":301646.3798,"P":50102.2101,"I":0.4071,"G":301646.3798},{"stationName":"深圳怡海(地铁站)","station_id":"深圳怡海(地铁站)_22.51799_113.89890","lineId":"深圳地铁9号线","lat":22.51798743,"lon":113.89889623,"area_km2":2.7291,"D":0.4607,"C":0.9846,"T":0.2156,"U1":0.2533,"U2":0.1779,"couplingDegree":0.4607,"level":"勉强协调","road_density":35.9899,"walk_accessibility":0.5472,"metro_line_density":2.1777,"station_count":4,"line_count":2,"population_density":7786.5715,"poi_density":1.8321,"poi_diversity":0.9503,"gdp_density":143145.5828,"P":7786.5715,"I":1.8321,"G":143145.5828},{"stationName":"深圳梦海(地铁站)","station_id":"深圳梦海(地铁站)_22.52198_113.89394","lineId":"深圳地铁9号线","lat":22.52197995,"lon":113.89393962,"area_km2":2.7229,"D":0.0666,"C":0.0327,"T":0.1356,"U1":0.2712,"U2":0.0001,"couplingDegree":0.0666,"level":"极度失调","road_density":42.4812,"walk_accessibility":0.5459,"metro_line_density":2.6459,"station_count":4,"line_count":2,"population_density":33.0529,"poi_density":0.0,"poi_diversity":0.0,"gdp_density":0.0,"P":33.0529,"I":0.0,"G":0.0},{"stationName":"深圳福星(地铁站)","station_id":"深圳福星(地铁站)_22.54008_114.07641","lineId":"深圳地铁11号线","lat":22.5400758,"lon":114.07640846,"area_km2":2.6868,"D":0.7,"C":0.9998,"T":0.4901,"U1":0.5001,"U2":0.4801,"couplingDegree":0.7,"level":"良好协调","road_density":32.547,"walk_accessibility":0.5387,"metro_line_density":7.2987,"station_count":5,"line_count":4,"population_density":50405.0929,"poi_density":4.8384,"poi_diversity":1.8446,"gdp_density":435336.1663,"P":50405.0929,"I":4.8384,"G":435336.1663},