{"cityCode":"310000","year":2015,"stations":[{"stationName":"上海富锦路(地铁站)","station_id":"上海富锦路(地铁站)_31.39404_121.42001","lineId":"上海地铁1号线","lat":31.39404489,"lon":121.42000867499999,"area_km2":2.0533,"D":0.1781,"C":0.4767,"T":0.0665,"U1":0.125,"U2":0.008,"couplingDegree":0.1781,"level":"极度失调","road_density":31.6805,"walk_accessibility":0.4117,"metro_line_density":1.4156,"station_count":2,"line_count":1,"population_density":581.0045,"poi_density":0.0,"poi_diversity":0.0,"gdp_density":20646.3584,"P":581.0045,"I":0.0,"G":20646.3584},{"stationName":"上海友谊西路(地铁站)","station_id":"上海友谊西路(地铁站)_31.38309_121.42331","lineId":"上海地铁1号线","lat":31.38308783,"lon":121.42330572,"area_km2":1.188,"D":0.2095,"C":0.6645,"T":0.066,"U1":0.1154,"U2":0.0167,"couplingDegree":0.2095,"level":"中度失调","road_density":28.6859,"walk_accessibility":0.2382,"metro_line_density":4.7423,"station_count":2,"line_count":1,"population_density":12396.826,"poi_density":0.0,"poi_diversity":0.0,"gdp_density":0.0,"P":12396.826,"I":0.0,"G":0.0},{"stationName":"上海宝安公路(地铁站)","station_id":"上海宝安公路(地铁站)_31.37135_121.42627","lineId":"上海地铁1号线","lat":31.37135416,"lon":121.42627176,"area_km2":1.2393,"D":0.1559,"C":0.833,"T":0.0292,"U1":0.0453,"U2":0.013,"couplingDegree":0.1559,"level":"极度失调","road_density":20.7865,"walk_accessibility":0.2485,"metro_line_density":4.6309,"station_count":1,"line_count":1,"population_density":9690.6785,"poi_density":0.0,"poi_diversity":0.0,"gdp_density":0.0,"P":9690.6785,"I":0.0,"G":0.0},{"stationName":"上海共富新村(地铁站)","station_id":"上海共富新村(地铁站)_31.35689_121.42943","lineId":"上海地铁1号线","lat":31.35688994,"lon":121.42942848,"area_km2":1.4132,"D":0.1805,"C":0.8151,"T":0.04,"U1":0.0631,"U2":0.0168,"couplingDegree":0.1805,"level":"极度失调","road_density":26.9439,"walk_accessibility":0.2834,"metro_line_density":4.0267,"station_count":1,"line_count":1,"population_density":12487.6104,"poi_density":0.0,"poi_diversity":0.0,"gdp_density":0.0,"P":12487.6104,"I":0.0,"G":0.0},{"stationName":"上海呼兰路(地铁站)","station_id":"上海呼兰路(地铁站)_31.34153_121.43226","lineId":"上海地铁18号线 / 上海地铁1号线","lat":31.34152552666667,"lon":121.43226472666667,"area_km2":1.7114,"D":0.2894,"C":0.7282,"T":0.115,"U1":0.1938,"U2":0.0362,"couplingDegree":0.2894,"level":"中度失调","road_density":20.7949,"walk_accessibility":0.3431,"metro_line_density":5.797,"station_count":2,"line_count":2,"population_density":19581.3467,"poi_density":0.0,"poi_diversity":0.0,"gdp_density":27917.0918,"P":19581.3467,"I":0.0,"G":27917.0918},{"stationName":"上海通河新村(地铁站)","station_id":"上海通河新村(地铁站)_31.33296_121.43693","lineId":"上海地铁1号线","lat":31.33295683,"lon":121.43692739,"area_km2":1.6916,"D":0.2723,"C":0.682,"T":0.1088,"U1":0.1883,"U2":0.0292,"couplingDegree":0.2723,"level":"中度失调","road_density":21.5739,"walk_accessibility":0.3392,"metro_line_density":3.7826,"station_count":2,"line_count":2,"population_density":14326.4999,"poi_density":0.0,"poi_diversity":0.0,"gdp_density":28243.9246,"P":14326.4999,"I":0.0,"G":28243.9246},{"stationName":"上海共康路(地铁站)","station_id":"上海共康路(地铁站)_31.32078_121.44246","lineId":"上海地铁1号线","lat":31.32077824,"lon":121.44245648,"area_km2":1.3298,"D":0.2059,"C":0.9843,"T":0.0431,"U1":0.0507,"U2":0.0355,"couplingDegree":0.2059,"level":"中度失调","road_density":22.4955,"walk_accessibility":0.2666,"metro_line_density":4.3892,"station_count":1,"line_count":1,"population_density":19194.8205,"poi_density":0.752,"poi_diversity":0.0,"gdp_density":0.0,"P":19194.8205,"I":0.752,"G":0.0},{"stationName":"上海彭浦新村(地铁站)","station_id":"上海彭浦新村(地铁站)_31.30845_121.44404","lineId":"上海地铁1号线","lat":31.30845444,"lon":121.44404066,"area_km2":1.8545,"D":0.2124,"C":0.9693,"T":0.0466,"U1":0.058,"U2":0.0351,"couplingDegree":0.2124,"level":"中度失调","road_density":23.8212,"walk_accessibility":0.3718,"metro_line_density":3.1529,"station_count":1,"line_count":1,"population_density":26084.8194,"poi_density":0.0,"poi_diversity":0.0,"gdp_density":0.0,"P":26084.8194,"I":0.0,"G":0.0},{"stationName":"上海汶水路(地铁站)","station_id":"上海汶水路(地铁站)_31.29442_121.44566","lineId":"上海地铁1号线","lat":31.294415684999997,"lon":121.445655105,"area_km2":2.4114,"D":0.3434,"C":0.9527,"T":0.1238,"U1":0.0861,"U2":0.1614,"couplingDegree":0.3434,"level":"中度失调","road_density":31.8277,"walk_accessibility":0.4835,"metro_line_density":2.3334,"station_count":1,"line_count":1,"population_density":16796.4714,"poi_density":0.8294,"poi_diversity":0.6931,"gdp_density":166032.6411,"P":16796.4714,"I":0.8294,"G":166032.6411},{"stationName":"上海上海马戏城(地铁站)","station_id":"上海上海马戏城(地铁站)_31.28150_121.44747","lineId":"上海地铁1号线 / 上海地铁20号线","lat":31.281495435,"lon":121.44747032999999,"area_km2":2.2037,"D":0.3859,"C":0.9487,"T":0.157,"U1":0.2066,"U2":0.1073,"couplingDegree":0.3859,"level":"中度失调","road_density":24.6408,"walk_accessibility":0.4418,"metro_line_density":4.2661,"station_count":2,"line_count":2,"population_density":19212.7581,"poi_density":1.3614,"poi_diversity":0.6365,"gdp_density":0.0,"P":19212.7581,"I":1.3614,"G":0.0},{"stationName":"上海延长路(地铁站)","station_id":"上海延长路(地铁站)_31.27355_121.45075","lineId":"上海地铁1号线","lat":31.27355265,"lon":121.45074729,"area_km2":2.2407,"D":0.3984,"C":0.9747,"T":0.1629,"U1":0.1992,"U2":0.1265,"couplingDegree":0.3984,"level":"中度失调","road_density":23.0699,"walk_accessibility":0.4492,"metro_line_density":3.2934,"station_count":2,"line_count":2,"population_density":38952.0572,"poi_density":0.8926,"poi_diversity":0.0,"gdp_density":177976.3312,"P":38952.0572,"I":0.8926,"G":177976.3312},{"stationName":"上海中山北路(地铁站)","station_id":"上海中山北路(地铁站)_31.26078_121.45463","lineId":"上海地铁1号线","lat":31.26078422,"lon":121.45463391,"area_km2":2.4942,"D":0.5115,"C":0.9128,"T":0.2866,"U1":0.4036,"U2":0.1695,"couplingDegree":0.5115,"level":"勉强协调","road_density":28.4711,"walk_accessibility":0.5001,"metro_line_density":3.345,"station_count":4,"line_count":3,"population_density":74565.3632,"poi_density":0.4009,"poi_diversity":0.0,"gdp_density":182052.2451,"P":74565.3632,"I":0.4009,"G":182052.2451},{"stationName":"上海上海火车站(地铁站)","station_id":"上海上海火车站(地铁站)_31.24994_121.45186","lineId":"上海地铁1号线 / 上海地铁3号线","lat":31.249938473333334,"lon":121.45185925666665,"area_km2":2.6664,"D":0.6495,"C":0.9999,"T":0.4218,"U1":0.4284,"U2":0.4153,"couplingDegree":0.6495,"level":"良好协调","road_density":33.3555,"walk_accessibility":0.5346,"metro_line_density":5.6336,"station_count":4,"line_count":3,"population_density":63504.8684,"poi_density":6.3755,"poi_diversity":1.8706,"gdp_density":170290.6454,"P":63504.8684,"I":6.3755,"G":170290.6454},{"stationName":"上海汉中路(地铁站)","station_id":"上海汉中路(地铁站)_31.24314_121.45424","lineId":"上海地铁13号线 / 上海地铁1号线","lat":31.24313625,"lon":121.454244305,"area_km2":3.0643,"D":0.6538,"C":0.9671,"T":0.442,"U1":0.5545,"U2":0.3295,"couplingDegree":0.6538,"level":"良好协调","road_density":31.0079,"walk_accessibility":0.6144,"metro_line_density":2.8236,"station_count":5,"line_count":4,"population_density":42266.6749,"poi_density":5.5477,"poi_diversity":2.0029,"gdp_density":0.0,"P":42266.6749,"I":5.5477,"G":0.0},{"stationName":"上海新闸路(地铁站)","station_id":"上海新闸路(地铁站)_31.24030_121.46361","lineId":"上海地铁1号线","lat":31.24029698,"lon":121.46360999,"area_km2":3.6056,"D":0.7083,"C":0.9792,"T":0.5124,"U1":0.6163,"U2":0.4085,"couplingDegree":0.7083,"level":"良好协调","road_density":31.3025,"walk_accessibility":0.7229,"metro_line_density":3.9865,"station_count":6,"line_count":4,"population_density":32402.2275,"poi_density":9.4299,"poi_diversity":2.4252,"gdp_density":0.0,"P":32402.2275,"I":9.4299,"G":0.0},{"stationName":"上海人民广场(地铁站)","station_id":"上海人民广场(地铁站)_31.23485_121.46990","lineId":"上海地铁1号线 / 上海地铁2号线 / 上海地铁8号线","lat":31.234849183333335,"lon":121.46989588999999,"area_km2":3.6983,"D":0.8653,"C":0.9918,"T":0.7549,"U1":0.8514,"U2":0.6584,"couplingDegree":0.8653,"level":"优质协调","road_density":33.0418,"walk_accessibility":0.7415,"metro_line_density":4.913,"station_count":7,"line_count":6,"population_density":42315.2336,"poi_density":18.6574,"poi_diversity":2.5931,"gdp_density":288203.1553,"P":42315.2336,"I":18.6574,"G":288203.1553},{"stationName":"上海一大会址·黄陂南路(地铁站)","station_id":"上海一大会址·黄陂南路(地铁站)_31.22513_121.46825","lineId":"上海地铁14号线 / 上海地铁1号线","lat":31.225133919999998,"lon":121.468253215,"area_km2":3.8548,"D":0.7724,"C":0.9559,"T":0.6241,"U1":0.8074,"U2":0.4408,"couplingDegree":0.7724,"level":"良好协调","road_density":32.6645,"walk_accessibility":0.7729,"metro_line_density":5.6979,"station_count":6,"line_count":6,"population_density":36272.8813,"poi_density":11.4143,"poi_diversity":2.4417,"gdp_density":0.0,"P":36272.8813,"I":11.4143,"G":0.0},{"stationName":"上海陕西南路(地铁站)","station_id":"上海陕西南路(地铁站)_31.21810_121.45478","lineId":"上海地铁10号线 / 上海地铁1号线","lat":31.21810256,"lon":121.454784855,"area_km2":3.1202,"D":0.6637,"C":1.0,"T":0.4405,"U1":0.4447,"U2":0.4363,"couplingDegree":0.6637,"level":"良好协调","road_density":22.7303,"walk_accessibility":0.6256,"metro_line_density":5.2781,"station_count":3,"line_count":4,"population_density":10399.1217,"poi_density":8.6534,"poi_diversity":2.1239,"gdp_density":277670.3615,"P":10399.1217,"I":8.6534,"G":277670.3615},{"stationName":"上海常熟路(地铁站)","station_id":"上海常熟路(地铁站)_31.21535_121.44550","lineId":"上海地铁1号线 / 上海地铁7号线","lat":31.21534568,"lon":121.44550402499999,"area_km2":3.0427,"D":0.7667,"C":0.9979,"T":0.589,"U1":0.6268,"U2":0.5512,"couplingDegree":0.7667,"level":"良好协调","road_density":20.8342,"walk_accessibility":0.6101,"metro_line_density":6.2526,"station_count":5,"line_count":5,"population_density":31926.8775,"poi_density":12.1601,"poi_diversity":2.2687,"gdp_density":352924.3611,"P":31926.8775,"I":12.1601,"G":352924.3611},{"stationName":"上海衡山路(地铁站)","station_id":"上海衡山路(地铁站)_31.20642_121.44183","lineId":"上海地铁1号线","lat":31.20641737,"lon":121.44182586,"area_km2":2.9236,"D":0.6869,"C":0.9926,"T":0.4754,"U1":0.5333,"U2":0.4175,"couplingDegree":0.6869,"level":"良好协调","road_density":19.5005,"walk_accessibility":0.5862,"metro_line_density":6.4337,"station_count":5,"line_count":4,"population_density":39268.661,"poi_density":11.2875,"poi_diversity":2.1862,"gdp_density":0.0,"P":39268.661,"I":11.2875,"G":0.0},{"stationName":"上海徐家汇(地铁站)","station_id":"上海徐家汇(地铁站)_31.19576_121.43236","lineId":"上海地铁11号线 / 上海地铁1号线 / 上海地铁9号线","lat":31.19576220333333,"lon":121.43235650333334,"area_km2":2.9778,"D":0.6781,"C":0.9567,"T":0.4807,"U1":0.6205,"U2":0.3408,"couplingDegree":0.6781,"level":"良好协调","road_density":22.6277,"walk_accessibility":0.597,"metro_line_density":5.6079,"station_count":3,"line_count":6,"population_density":32080.5937,"poi_density":5.0374,"poi_diversity":2.0262,"gdp_density":83063.3761,"P":32080.5937,"I":5.0374,"G":83063.3761},{"stationName":"上海上海体育馆(地铁站)","station_id":"上海上海体育馆(地铁站)_31.18429_121.43223","lineId":"上海地铁1号线 / 上海地铁4号线","lat":31.18429184,"lon":121.43223302,"area_km2":2.523,"D":0.6733,"C":0.8968,"T":0.5055,"U1":0.7291,"U2":0.2819,"couplingDegree":0.6733,"level":"良好协调","road_density":25.1698,"walk_accessibility":0.5058,"metro_line_density":8.8936,"station_count":5,"line_count":6,"population_density":37528.9792,"poi_density":2.7745,"poi_diversity":1.9459,"gdp_density":0.0,"P":37528.9792,"I":2.7745,"G":0.0},{"stationName":"上海漕宝路(地铁站)","station_id":"上海漕宝路(地铁站)_31.17012_121.43008","lineId":"上海地铁1号线","lat":31.17011773,"lon":121.43008327,"area_km2":1.8959,"D":0.4709,"C":0.9926,"T":0.2234,"U1":0.2506,"U2":0.1962,"couplingDegree":0.4709,"level":"勉强协调","road_density":24.9072,"walk_accessibility":0.3801,"metro_line_density":4.1904,"station_count":3,"line_count":2,"population_density":15213.0592,"poi_density":1.5823,"poi_diversity":1.0986,"gdp_density":127644.5451,"P":15213.0592,"I":1.5823,"G":127644.5451},{"stationName":"上海上海南站(地铁站)","station_id":"上海上海南站(地铁站)_31.15635_121.42606","lineId":"上海地铁15号线 / 上海地铁1号线 / 上海地铁3号线","lat":31.156352245,"lon":121.42606245,"area_km2":1.9356,"D":0.2906,"C":0.5061,"T":0.1669,"U1":0.3108,"U2":0.023,"couplingDegree":0.2906,"level":"中度失调","road_density":31.4808,"walk_accessibility":0.3881,"metro_line_density":4.4154,"station_count":2,"line_count":3,"population_density":17051.6663,"poi_density":0.0,"poi_diversity":0.0,"gdp_density":0.0,"P":17051.6663,"I":0.0,"G":0.0},{"stationName":"上海锦江乐园(地铁站)","station_id":"上海锦江乐园(地铁站)_31.14410_121.40947","lineId":"上海地铁1号线","lat":31.14409852,"lon":121.40946646,"area_km2":1.5731,"D":0.2819,"C":0.989,"T":0.0804,"U1":0.0685,"U2":0.0922,"couplingDegree":0.2819,"level":"中度失调","road_density":30.945,"walk_accessibility":0.3154,"metro_line_density":1.7564,"station_count":1,"line_count":1,"population_density":4612.481,"poi_density":1.2714,"poi_diversity":0.6931,"gdp_density":0.0,"P":4612.481,"I":1.2714,"G":0.0},{"stationName":"上海莲花路(地铁站)","station_id":"上海莲花路(地铁站)_31.13279_121.39827","lineId":"上海地铁1号线","lat":31.132785175000002,"lon":121.39826690000001,"area_km2":2.0028,"D":0.3803,"C":0.7168,"T":0.2018,"U1":0.0611,"U2":0.3425,"couplingDegree":0.3803,"level":"中度失调","road_density":26.7181,"walk_accessibility":0.4016,"metro_line_density":1.1499,"station_count":1,"line_count":1,"population_density":7049.5362,"poi_density":6.4908,"poi_diversity":2.3517,"gdp_density":37649.7859,"P":7049.5362,"I":6.4908,"G":37649.7859},{"stationName":"上海外环路(地铁站)","station_id":"上海外环路(地铁站)_31.12279_121.38838","lineId":"上海地铁1号线","lat":31.12279218,"lon":121.38838039,"area_km2":2.444,"D":0.1604,"C":0.5599,"T":0.0459,"U1":0.084,"U2":0.0079,"couplingDegree":0.1604,"level":"极度失调","road_density":31.9405,"walk_accessibility":0.49,"metro_line_density":1.5335,"station_count":1,"line_count":1,"population_density":5851.9907,"poi_density":0.0,"poi_diversity":0.0,"gdp_density":0.0,"P":5851.9907,"I":0.0,"G":0.0},{"stationName":"上海莘庄(地铁站)","station_id":"上海莘庄(地铁站)_31.11305_121.38074","lineId":"上海地铁1号线","lat":31.11305321,"lon":121.38073913,"area_km2":2.2667,"D":0.1948,"C":0.8589,"T":0.0442,"U1":0.0668,"U2":0.0216,"couplingDegree":0.1948,"level":"极度失调","road_density":24.0807,"walk_accessibility":0.4545,"metro_line_density":3.6097,"station_count":1,"line_count":1,"population_density":6723.4231,"poi_density":0.0,"poi_diversity":0.0,"gdp_density":35563.5555,"P":6723.4231,"I":0.0,"G":35563.5555},{"stationName":"上海虹桥火车站(地铁站)","station_id":"上海虹桥火车站(地铁站)_31.19604_121.31717","lineId":"上海地铁2号线 / 上海地铁示范区线","lat":31.196040484999997,"lon":121.31717220499999,"area_km2":2.0239,"D":0.3147,"C":0.4279,"T":0.2314,"U1":0.4406,"U2":0.0223,"couplingDegree":0.3147,"level":"中度失调","road_density":44.3455,"walk_accessibility":0.4058,"metro_line_density":5.4505,"station_count":2,"line_count":4,"population_density":4859.8485,"poi_density":0.0,"poi_diversity":0.0,"gdp_density":44667.5219,"P":4859.8485,"I":0.0,"G":44667.5219},{"stationName":"上海虹桥2号航站楼(地铁站)","station_id":"上海虹桥2号航站楼(地铁站)_31.19613_121.32116","lineId":"上海地铁10号线 / 上海地铁2号线 / 上海地铁嘉闵线","lat":31.196134086666664,"lon":121.32115698,"area_km2":1.8675,"D":0.3342,"C":0.4765,"T":0.2344,"U1":0.4405,"U2":0.0283,"couplingDegree":0.3342,"level":"中度失调","road_density":43.9779,"walk_accessibility":0.3744,"metro_line_density":6.3702,"station_count":2,"line_count":4,"population_density":8392.163,"poi_density":0.0,"poi_diversity":0.0,"gdp_density":48410.2288,"P":8392.163,"I":0.0,"G":48410.2288},{"stationName":"上海淞虹路(地铁站)","station_id":"上海淞虹路(地铁站)_31.22010_121.35493","lineId":"上海地铁2号线","lat":31.22010141,"lon":121.35492751,"area_km2":2.8041,"D":0.4245,"C":0.705,"T":0.2556,"U1":0.0743,"U2":0.4369,"couplingDegree":0.4245,"level":"勉强协调","road_density":25.7624,"walk_accessibility":0.5622,"metro_line_density":2.0913,"station_count":1,"line_count":1,"population_density":24531.9832,"poi_density":11.4117,"poi_diversity":2.144,"gdp_density":119118.7173,"P":24531.9832,"I":11.4117,"G":119118.7173},{"stationName":"上海中山公园(地铁站)","station_id":"上海中山公园(地铁站)_31.22006_121.41225","lineId":"上海地铁2号线 / 上海地铁3号线","lat":31.220058209999998,"lon":121.4122525,"area_km2":2.9313,"D":0.4932,"C":0.9997,"T":0.2434,"U1":0.2371,"U2":0.2496,"couplingDegree":0.4932,"level":"勉强协调","road_density":30.2753,"walk_accessibility":0.5877,"metro_line_density":5.1788,"station_count":2,"line_count":2,"population_density":20319.524,"poi_density":1.7057,"poi_diversity":1.6094,"gdp_density":109333.8587,"P":20319.524,"I":1.7057,"G":109333.8587},{"stationName":"上海静安寺(地铁站)","station_id":"上海静安寺(地铁站)_31.22463_121.44222","lineId":"上海地铁14号线 / 上海地铁2号线 / 上海地铁7号线","lat":31.22463062,"lon":121.44222156333335,"area_km2":2.9821,"D":0.6093,"C":0.9979,"T":0.3721,"U1":0.3961,"U2":0.348,"couplingDegree":0.6093,"level":"良好协调","road_density":23.427,"walk_accessibility":0.5979,"metro_line_density":5.2455,"station_count":2,"line_count":4,"population_density":31267.2106,"poi_density":9.0541,"poi_diversity":1.8874,"gdp_density":0.0,"P":31267.2106,"I":9.0541,"G":0.0},{"stationName":"上海世纪大道(地铁站)","station_id":"上海世纪大道(地铁站)_31.23078_121.52288","lineId":"上海地铁2号线","lat":31.23078121,"lon":121.522877,"area_km2":3.8492,"D":0.6555,"C":0.8843,"T":0.4858,"U1":0.7126,"U2":0.259,"couplingDegree":0.6555,"level":"良好协调","road_density":30.6493,"walk_accessibility":0.7718,"metro_line_density":5.5745,"station_count":6,"line_count":5,"population_density":18355.8735,"poi_density":2.8577,"poi_diversity":1.8462,"gdp_density":33898.9775,"P":18355.8735,"I":2.8577,"G":33898.9775},{"stationName":"上海龙阳路(地铁站)","station_id":"上海龙阳路(地铁站)_31.20426_121.55296","lineId":"上海地铁16号线 / 上海地铁18号线 / 上海地铁2号线 / 上海地铁7号线","lat":31.204256895999997,"lon":121.55296048,"area_km2":2.1669,"D":0.5604,"C":0.9018,"T":0.3483,"U1":0.4988,"U2":0.1978,"couplingDegree":0.5604,"level":"勉强协调","road_density":28.0113,"walk_accessibility":0.4345,"metro_line_density":6.8877,"station_count":4,"line_count":4,"population_density":13285.5249,"poi_density":1.846,"poi_diversity":1.3863,"gdp_density":47576.9287,"P":13285.5249,"I":1.846,"G":47576.9287},{"stationName":"上海浦东1号2号航站楼(地铁站)","station_id":"上海浦东1号2号航站楼(地铁站)_31.15359_121.80159","lineId":"上海上海市域机场线后通段(浦东1号2号航站楼--上海东站) / 上海地铁2号线","lat":31.153591245,"lon":121.80159420999999,"area_km2":1.1491,"D":0.2241,"C":0.528,"T":0.0951,"U1":0.1758,"U2":0.0143,"couplingDegree":0.2241,"level":"中度失调","road_density":33.7813,"walk_accessibility":0.2304,"metro_line_density":6.5051,"station_count":1,"line_count":2,"population_density":2363.5328,"poi_density":0.8702,"poi_diversity":0.0,"gdp_density":0.0,"P":2363.5328,"I":0.8702,"G":0.0},{"stationName":"上海海天三路(地铁站)","station_id":"上海海天三路(地铁站)_31.17054_121.79257","lineId":"上海地铁2号线","lat":31.17054153,"lon":121.79256704,"area_km2":2.3425,"D":0.0976,"C":0.342,"T":0.0278,"U1":0.054,"U2":0.0017,"couplingDegree":0.0976,"level":"极度失调","road_density":22.5574,"walk_accessibility":0.4697,"metro_line_density":0.9631,"station_count":1,"line_count":1,"population_density":1247.4014,"poi_density":0.0,"poi_diversity":0.0,"gdp_density":0.0,"P":1247.4014,"I":0.0,"G":0.0},{"stationName":"上海远东大道(地铁站)","station_id":"上海远东大道(地铁站)_31.20141_121.75093","lineId":"上海地铁2号线","lat":31.20141446,"lon":121.75092969,"area_km2":1.5171,"D":0.1428,"C":0.9432,"T":0.0216,"U1":0.0288,"U2":0.0144,"couplingDegree":0.1428,"level":"极度失调","road_density":18.379,"walk_accessibility":0.3042,"metro_line_density":0.7895,"station_count":1,"line_count":1,"population_density":2112.5981,"poi_density":0.0,"poi_diversity":0.0,"gdp_density":32959.1665,"P":2112.5981,"I":0.0,"G":32959.1665},{"stationName":"上海凌空路(地铁站)","station_id":"上海凌空路(地铁站)_31.19491_121.71973","lineId":"上海地铁2号线","lat":31.19490762,"lon":121.7197285,"area_km2":1.8958,"D":0.1579,"C":0.9392,"T":0.0266,"U1":0.0357,"U2":0.0174,"couplingDegree":0.1579,"level":"极度失调","road_density":17.8912,"walk_accessibility":0.3801,"metro_line_density":1.4293,"station_count":1,"line_count":1,"population_density":5098.7084,"poi_density":0.0,"poi_diversity":0.0,"gdp_density":30056.3217,"P":5098.7084,"I":0.0,"G":30056.3217},{"stationName":"上海川沙(地铁站)","station_id":"上海川沙(地铁站)_31.18882_121.69387","lineId":"上海地铁2号线","lat":31.1888237,"lon":121.69387453,"area_km2":2.2367,"D":0.2008,"C":0.9968,"T":0.0405,"U1":0.0372,"U2":0.0437,"couplingDegree":0.2008,"level":"中度失调","road_density":16.8357,"walk_accessibility":0.4485,"metro_line_density":1.2116,"station_count":1,"line_count":1,"population_density":15506.1142,"poi_density":0.4471,"poi_diversity":0.0,"gdp_density":48575.3627,"P":15506.1142,"I":0.4471,"G":48575.3627},{"stationName":"上海华夏东路(地铁站)","station_id":"上海华夏东路(地铁站)_31.19868_121.67667","lineId":"上海地铁2号线","lat":31.19868363,"lon":121.67666725,"area_km2":1.6418,"D":0.1679,"C":0.9727,"T":0.029,"U1":0.0357,"U2":0.0223,"couplingDegree":0.1679,"level":"极度失调","road_density":19.195,"walk_accessibility":0.3292,"metro_line_density":1.518,"station_count":1,"line_count":1,"population_density":10743.6663,"poi_density":0.6091,"poi_diversity":0.0,"gdp_density":0.0,"P":10743.6663,"I":0.6091,"G":0.0},{"stationName":"上海创新中路(地铁站)","station_id":"上海创新中路(地铁站)_31.21599_121.66942","lineId":"上海地铁2号线","lat":31.21598559,"lon":121.66942139,"area_km2":1.2733,"D":0.0712,"C":0.2927,"T":0.0173,"U1":0.0339,"U2":0.0008,"couplingDegree":0.0712,"level":"极度失调","road_density":20.353,"walk_accessibility":0.2553,"metro_line_density":1.7037,"station_count":1,"line_count":1,"population_density":563.881,"poi_density":0.0,"poi_diversity":0.0,"gdp_density":0.0,"P":563.881,"I":0.0,"G":0.0},{"stationName":"上海唐镇(地铁站)","station_id":"上海唐镇(地铁站)_31.21625_121.65201","lineId":"上海地铁2号线","lat":31.21625474,"lon":121.65201072,"area_km2":1.7434,"D":0.1823,"C":0.9999,"T":0.0332,"U1":0.0337,"U2":0.0328,"couplingDegree":0.1823,"level":"极度失调","road_density":18.5302,"walk_accessibility":0.3495,"metro_line_density":1.0376,"station_count":1,"line_count":1,"population_density":7796.8627,"poi_density":0.0,"poi_diversity":0.0,"gdp_density":63361.4835,"P":7796.8627,"I":0.0,"G":63361.4835},{"stationName":"上海广兰路(地铁站)","station_id":"上海广兰路(地铁站)_31.21325_121.61686","lineId":"上海地铁2号线","lat":31.21324925,"lon":121.61686455,"area_km2":1.9865,"D":0.2064,"C":0.9512,"T":0.0448,"U1":0.0586,"U2":0.031,"couplingDegree":0.2064,"level":"中度失调","road_density":25.4756,"walk_accessibility":0.3983,"metro_line_density":1.4912,"station_count":1,"line_count":1,"population_density":5876.1451,"poi_density":0.0,"poi_diversity":0.0,"gdp_density":65545.7228,"P":5876.1451,"I":0.0,"G":65545.7228},{"stationName":"上海金科路(地铁站)","station_id":"上海金科路(地铁站)_31.20643_121.59779","lineId":"上海地铁2号线","lat":31.20642676,"lon":121.59778968,"area_km2":1.9092,"D":0.2474,"C":0.9028,"T":0.0678,"U1":0.0386,"U2":0.0969,"couplingDegree":0.2474,"level":"中度失调","road_density":18.7748,"walk_accessibility":0.3828,"metro_line_density":1.5023,"station_count":1,"line_count":1,"population_density":10238.8349,"poi_density":1.0476,"poi_diversity":0.6931,"gdp_density":0.0,"P":10238.8349,"I":1.0476,"G":0.0},{"stationName":"上海张江高科(地铁站)","station_id":"上海张江高科(地铁站)_31.20409_121.58329","lineId":"上海地铁2号线","lat":31.20408548,"lon":121.58328664,"area_km2":2.1967,"D":0.2809,"C":0.8521,"T":0.0926,"U1":0.0441,"U2":0.1411,"couplingDegree":0.2809,"level":"中度失调","road_density":19.4865,"walk_accessibility":0.4404,"metro_line_density":1.2367,"station_count":1,"line_count":1,"population_density":9670.9462,"poi_density":1.3657,"poi_diversity":1.0986,"gdp_density":0.0,"P":9670.9462,"I":1.3657,"G":0.0},{"stationName":"上海世纪公园(地铁站)","station_id":"上海世纪公园(地铁站)_31.21159_121.54665","lineId":"上海地铁2号线","lat":31.21158603,"lon":121.54664538,"area_km2":2.445,"D":0.5956,"C":0.9493,"T":0.3737,"U1":0.4913,"U2":0.2562,"couplingDegree":0.5956,"level":"勉强协调","road_density":27.5647,"walk_accessibility":0.4902,"metro_line_density":4.0049,"station_count":4,"line_count":4,"population_density":8412.7656,"poi_density":2.863,"poi_diversity":1.9459,"gdp_density":35287.4801,"P":8412.7656,"I":2.863,"G":35287.4801},{"stationName":"上海上海科技馆(地铁站)","station_id":"上海上海科技馆(地铁站)_31.22097_121.54016","lineId":"上海地铁2号线","lat":31.22096549,"lon":121.54015729,"area_km2":3.2412,"D":0.4728,"C":0.7287,"T":0.3068,"U1":0.5168,"U2":0.0967,"couplingDegree":0.4728,"level":"勉强协调","road_density":32.9555,"walk_accessibility":0.6499,"metro_line_density":3.4672,"station_count":4,"line_count":4,"population_density":4207.9846,"poi_density":0.9256,"poi_diversity":0.6365,"gdp_density":42970.8687,"P":4207.9846,"I":0.9256,"G":42970.8687},{"stationName":"上海浦东南路(原东昌路)(地铁站)","station_id":"上海浦东南路(原东昌路)(地铁站)_31.23533_121.51118","lineId":"上海地铁2号线","lat":31.2353341,"lon":121.5111808,"area_km2":4.2622,"D":0.651,"C":0.9662,"T":0.4386,"U1":0.5517,"U2":0.3255,"couplingDegree":0.651,"level":"良好协调","road_density":36.9841,"walk_accessibility":0.8546,"metro_line_density":5.5519,"station_count":4,"line_count":4,"population_density":29069.8609,"poi_density":3.9885,"poi_diversity":2.2316,"gdp_density":30614.1158,"P":29069.8609,"I":3.9885,"G":30614.1158},{"stationName":"上海陆家嘴(地铁站)","station_id":"上海陆家嘴(地铁站)_31.23875_121.49806","lineId":"上海地铁14号线 / 上海地铁2号线","lat":31.238746165000002,"lon":121.49806153,"area_km2":3.0308,"D":0.5438,"C":0.9584,"T":0.3086,"U1":0.2205,"U2":0.3967,"couplingDegree":0.5438,"level":"勉强协调","road_density":42.5232,"walk_accessibility":0.6077,"metro_line_density":4.0086,"station_count":1,"line_count":2,"population_density":21554.1895,"poi_density":7.9188,"poi_diversity":2.4991,"gdp_density":41906.708,"P":21554.1895,"I":7.9188,"G":41906.708},{"stationName":"上海南京东路(地铁站)","station_id":"上海南京东路(地铁站)_31.23957_121.47963","lineId":"上海地铁10号线 / 上海地铁2号线","lat":31.23956866,"lon":121.47962986499999,"area_km2":3.7709,"D":0.8311,"C":0.9988,"T":0.6916,"U1":0.6578,"U2":0.7254,"couplingDegree":0.8311,"level":"优质协调","road_density":31.081,"walk_accessibility":0.7561,"metro_line_density":3.7855,"station_count":5,"line_count":5,"population_density":39599.8654,"poi_density":24.1322,"poi_diversity":2.618,"gdp_density":282652.1376,"P":39599.8654,"I":24.1322,"G":282652.1376},{"stationName":"上海南京西路(地铁站)","station_id":"上海南京西路(地铁站)_31.23112_121.45664","lineId":"上海地铁13号线 / 上海地铁2号线","lat":31.231121675,"lon":121.456641515,"area_km2":3.1486,"D":0.6792,"C":0.9939,"T":0.4641,"U1":0.413,"U2":0.5152,"couplingDegree":0.6792,"level":"良好协调","road_density":28.6172,"walk_accessibility":0.6313,"metro_line_density":3.0223,"station_count":4,"line_count":3,"population_density":24800.3532,"poi_density":10.7985,"poi_diversity":2.2285,"gdp_density":338892.3194,"P":24800.3532,"I":10.7985,"G":338892.3194},{"stationName":"上海江苏路(地铁站)","station_id":"上海江苏路(地铁站)_31.22201_121.42692","lineId":"上海地铁11号线 / 上海地铁2号线","lat":31.222012560000003,"lon":121.42691964,"area_km2":2.9026,"D":0.4632,"C":0.9757,"T":0.2198,"U1":0.1717,"U2":0.268,"couplingDegree":0.4632,"level":"勉强协调","road_density":25.8125,"walk_accessibility":0.582,"metro_line_density":4.0316,"station_count":1,"line_count":2,"population_density":23678.0341,"poi_density":4.1342,"poi_diversity":1.8201,"gdp_density":0.0,"P":23678.0341,"I":4.1342,"G":0.0},{"stationName":"上海娄山关路(地铁站)","station_id":"上海娄山关路(地铁站)_31.21395_121.39738","lineId":"上海地铁15号线 / 上海地铁2号线","lat":31.213947245,"lon":121.39738009,"area_km2":2.7612,"D":0.5362,"C":0.8411,"T":0.3418,"U1":0.1569,"U2":0.5267,"couplingDegree":0.5362,"level":"勉强协调","road_density":23.1715,"walk_accessibility":0.5536,"metro_line_density":2.6256,"station_count":1,"line_count":2,"population_density":25281.9111,"poi_density":15.5728,"poi_diversity":2.4842,"gdp_density":122670.9949,"P":25281.9111,"I":15.5728,"G":122670.9949},{"stationName":"上海威宁路(地铁站)","station_id":"上海威宁路(地铁站)_31.21672_121.38264","lineId":"上海地铁2号线","lat":31.21671684,"lon":121.38263986,"area_km2":2.3448,"D":0.3752,"C":0.7356,"T":0.1914,"U1":0.0617,"U2":0.3211,"couplingDegree":0.3752,"level":"中度失调","road_density":23.4281,"walk_accessibility":0.4701,"metro_line_density":2.3906,"station_count":1,"line_count":1,"population_density":19635.4777,"poi_density":5.9706,"poi_diversity":2.1682,"gdp_density":0.0,"P":19635.4777,"I":5.9706,"G":0.0},{"stationName":"上海北新泾(地铁站)","station_id":"上海北新泾(地铁站)_31.21825_121.36937","lineId":"上海地铁2号线","lat":31.21825356,"lon":121.3693669,"area_km2":2.5871,"D":0.4177,"C":0.7516,"T":0.2322,"U1":0.079,"U2":0.3853,"couplingDegree":0.4177,"level":"勉强协调","road_density":28.4442,"walk_accessibility":0.5187,"metro_line_density":2.2398,"station_count":1,"line_count":1,"population_density":9641.3897,"poi_density":8.1173,"poi_diversity":2.2274,"gdp_density":125505.8231,"P":9641.3897,"I":8.1173,"G":125505.8231},{"stationName":"上海国家会展中心(2号线)(地铁站)","station_id":"上海国家会展中心(2号线)(地铁站)_31.19037_121.29473","lineId":"上海地铁2号线","lat":31.19036678,"lon":121.29472806,"area_km2":1.9167,"D":0.2365,"C":0.5055,"T":0.1106,"U1":0.206,"U2":0.0152,"couplingDegree":0.2365,"level":"中度失调","road_density":26.4079,"walk_accessibility":0.3843,"metro_line_density":3.9686,"station_count":2,"line_count":2,"population_density":2016.4605,"poi_density":0.0,"poi_diversity":0.0,"gdp_density":35418.7501,"P":2016.4605,"I":0.0,"G":35418.7501},{"stationName":"上海蟠祥路(地铁站)","station_id":"上海蟠祥路(地铁站)_31.18406_121.28299","lineId":"上海地铁2号线","lat":31.1840645,"lon":121.28298674,"area_km2":1.6661,"D":0.1493,"C":0.7488,"T":0.0298,"U1":0.0495,"U2":0.01,"couplingDegree":0.1493,"level":"极度失调","road_density":21.8203,"walk_accessibility":0.334,"metro_line_density":3.1707,"station_count":1,"line_count":1,"population_density":7462.409,"poi_density":0.0,"poi_diversity":0.0,"gdp_density":0.0,"P":7462.409,"I":0.0,"G":0.0},{"stationName":"上海石龙路(地铁站)","station_id":"上海石龙路(地铁站)_31.15986_121.43860","lineId":"上海地铁3号线","lat":31.159856395,"lon":121.43860487,"area_km2":1.434,"D":0.4218,"C":0.9205,"T":0.1933,"U1":0.2688,"U2":0.1178,"couplingDegree":0.4218,"level":"勉强协调","road_density":18.6084,"walk_accessibility":0.2875,"metro_line_density":4.9467,"station_count":2,"line_count":3,"population_density":44523.2319,"poi_density":0.6973,"poi_diversity":0.0,"gdp_density":139063.9717,"P":44523.2319,"I":0.6973,"G":139063.9717},{"stationName":"上海龙漕路(地铁站)","station_id":"上海龙漕路(地铁站)_31.17136_121.43978","lineId":"上海地铁3号线","lat":31.17136246,"lon":121.43978352,"area_km2":2.0729,"D":0.5194,"C":0.8908,"T":0.3028,"U1":0.4404,"U2":0.1652,"couplingDegree":0.5194,"level":"勉强协调","road_density":22.0931,"walk_accessibility":0.4156,"metro_line_density":6.8827,"station_count":5,"line_count":3,"population_density":31231.1051,"poi_density":0.9648,"poi_diversity":0.6931,"gdp_density":116747.4756,"P":31231.1051,"I":0.9648,"G":116747.4756},{"stationName":"上海漕溪路(地铁站)","station_id":"上海漕溪路(地铁站)_31.17864_121.43380","lineId":"上海地铁3号线","lat":31.17863651,"lon":121.43379847,"area_km2":1.9684,"D":0.6534,"C":0.8938,"T":0.4777,"U1":0.6919,"U2":0.2634,"couplingDegree":0.6534,"level":"良好协调","road_density":28.7905,"walk_accessibility":0.3947,"metro_line_density":9.3366,"station_count":6,"line_count":5,"population_density":17887.5691,"poi_density":3.0482,"poi_diversity":1.5607,"gdp_density":122945.1587,"P":17887.5691,"I":3.0482,"G":122945.1587},{"stationName":"上海宜山路(地铁站)","station_id":"上海宜山路(地铁站)_31.18788_121.42264","lineId":"上海地铁3号线 / 上海地铁4号线 / 上海地铁9号线","lat":31.1878847,"lon":121.42264432,"area_km2":2.5916,"D":0.5618,"C":0.9685,"T":0.3258,"U1":0.407,"U2":0.2447,"couplingDegree":0.5618,"level":"勉强协调","road_density":26.941,"walk_accessibility":0.5196,"metro_line_density":7.1891,"station_count":2,"line_count":4,"population_density":25794.1186,"poi_density":2.3152,"poi_diversity":1.7918,"gdp_density":0.0,"P":25794.1186,"I":2.3152,"G":0.0},{"stationName":"上海虹桥路(地铁站)","station_id":"上海虹桥路(地铁站)_31.19894_121.41700","lineId":"上海地铁10号线 / 上海地铁3号线 / 上海地铁4号线","lat":31.19893825,"lon":121.4169995475,"area_km2":3.1907,"D":0.5619,"C":1.0,"T":0.3157,"U1":0.316,"U2":0.3154,"couplingDegree":0.5619,"level":"勉强协调","road_density":25.1448,"walk_accessibility":0.6397,"metro_line_density":5.3623,"station_count":2,"line_count":3,"population_density":24502.6947,"poi_density":2.8207,"poi_diversity":2.1972,"gdp_density":71573.4051,"P":24502.6947,"I":2.8207,"G":71573.4051},{"stationName":"上海延安西路(地铁站)","station_id":"上海延安西路(地铁站)_31.21147_121.41242","lineId":"上海地铁3号线","lat":31.21146575,"lon":121.41241925,"area_km2":3.3431,"D":0.5159,"C":0.9949,"T":0.2675,"U1":0.2405,"U2":0.2946,"couplingDegree":0.5159,"level":"勉强协调","road_density":30.6086,"walk_accessibility":0.6703,"metro_line_density":4.1026,"station_count":2,"line_count":2,"population_density":42758.9512,"poi_density":1.7947,"poi_diversity":1.7918,"gdp_density":95864.846,"P":42758.9512,"I":1.7947,"G":95864.846},{"stationName":"上海金沙江路(地铁站)","station_id":"上海金沙江路(地铁站)_31.23350_121.40783","lineId":"上海地铁13号线 / 上海地铁3号线","lat":31.233497315,"lon":121.40783292,"area_km2":3.008,"D":0.6465,"C":0.9839,"T":0.4248,"U1":0.5007,"U2":0.3489,"couplingDegree":0.6465,"level":"良好协调","road_density":26.2215,"walk_accessibility":0.6031,"metro_line_density":5.2156,"station_count":4,"line_count":4,"population_density":39844.9069,"poi_density":4.3218,"poi_diversity":2.2048,"gdp_density":51272.4792,"P":39844.9069,"I":4.3218,"G":51272.4792},{"stationName":"上海曹杨路(地铁站)","station_id":"上海曹杨路(地铁站)_31.24092_121.41402","lineId":"上海地铁11号线 / 上海地铁14号线 / 上海地铁3号线","lat":31.24092087,"lon":121.414017685,"area_km2":2.4253,"D":0.4487,"C":0.6877,"T":0.2928,"U1":0.5055,"U2":0.0802,"couplingDegree":0.4487,"level":"勉强协调","road_density":27.2683,"walk_accessibility":0.4863,"metro_line_density":8.1738,"station_count":4,"line_count":4,"population_density":42985.248,"poi_density":0.0,"poi_diversity":0.0,"gdp_density":63591.5804,"P":42985.248,"I":0.0,"G":63591.5804},{"stationName":"上海镇坪路(地铁站)","station_id":"上海镇坪路(地铁站)_31.24841_121.42610","lineId":"上海地铁3号线 / 上海地铁7号线","lat":31.248411654999998,"lon":121.42609662999999,"area_km2":2.6791,"D":0.5401,"C":0.9983,"T":0.2922,"U1":0.3091,"U2":0.2753,"couplingDegree":0.5401,"level":"勉强协调","road_density":24.3518,"walk_accessibility":0.5371,"metro_line_density":6.2364,"station_count":2,"line_count":3,"population_density":47213.6496,"poi_density":3.3594,"poi_diversity":1.677,"gdp_density":0.0,"P":47213.6496,"I":3.3594,"G":0.0},{"stationName":"上海中潭路(地铁站)","station_id":"上海中潭路(地铁站)_31.25643_121.43639","lineId":"上海地铁3号线","lat":31.25642627,"lon":121.43638781,"area_km2":2.4935,"D":0.5428,"C":0.9579,"T":0.3076,"U1":0.2192,"U2":0.396,"couplingDegree":0.5428,"level":"勉强协调","road_density":27.3354,"walk_accessibility":0.4999,"metro_line_density":4.409,"station_count":2,"line_count":2,"population_density":49029.1314,"poi_density":6.4166,"poi_diversity":2.2527,"gdp_density":59881.2707,"P":49029.1314,"I":6.4166,"G":59881.2707},{"stationName":"上海宝山路(地铁站)","station_id":"上海宝山路(地铁站)_31.25346_121.47178","lineId":"上海地铁3号线","lat":31.25346217,"lon":121.47178086,"area_km2":2.6428,"D":0.4936,"C":0.8008,"T":0.3042,"U1":0.4864,"U2":0.122,"couplingDegree":0.4936,"level":"勉强协调","road_density":21.1024,"walk_accessibility":0.5299,"metro_line_density":4.6083,"station_count":6,"line_count":3,"population_density":44471.7345,"poi_density":0.3784,"poi_diversity":0.0,"gdp_density":162899.565,"P":44471.7345,"I":0.3784,"G":162899.565},{"stationName":"上海东宝兴路(地铁站)","station_id":"上海东宝兴路(地铁站)_31.26183_121.47570","lineId":"上海地铁3号线","lat":31.26183279,"lon":121.47569748,"area_km2":3.1459,"D":0.5057,"C":0.6652,"T":0.3845,"U1":0.6716,"U2":0.0974,"couplingDegree":0.5057,"level":"勉强协调","road_density":20.2161,"walk_accessibility":0.6308,"metro_line_density":5.3534,"station_count":6,"line_count":5,"population_density":33577.4664,"poi_density":0.3179,"poi_diversity":0.0,"gdp_density":136847.4147,"P":33577.4664,"I":0.3179,"G":136847.4147},{"stationName":"上海虹口足球场(地铁站)","station_id":"上海虹口足球场(地铁站)_31.27283_121.47470","lineId":"上海地铁3号线 / 上海地铁8号线","lat":31.272831903333337,"lon":121.47470314666667,"area_km2":2.9026,"D":0.4145,"C":0.9004,"T":0.1908,"U1":0.2739,"U2":0.1078,"couplingDegree":0.4145,"level":"勉强协调","road_density":25.0696,"walk_accessibility":0.582,"metro_line_density":6.1434,"station_count":3,"line_count":2,"population_density":44522.8432,"poi_density":0.3445,"poi_diversity":0.0,"gdp_density":123517.3515,"P":44522.8432,"I":0.3445,"G":123517.3515},{"stationName":"上海赤峰路(地铁站)","station_id":"上海赤峰路(地铁站)_31.28319_121.47793","lineId":"上海地铁3号线","lat":31.28319225,"lon":121.47793119,"area_km2":3.29,"D":0.5139,"C":0.9672,"T":0.2731,"U1":0.3425,"U2":0.2037,"couplingDegree":0.5139,"level":"勉强协调","road_density":32.7444,"walk_accessibility":0.6596,"metro_line_density":4.1796,"station_count":4,"line_count":2,"population_density":32037.0458,"poi_density":0.9119,"poi_diversity":1.0986,"gdp_density":108974.6488,"P":32037.0458,"I":0.9119,"G":108974.6488},{"stationName":"上海大柏树(地铁站)","station_id":"上海大柏树(地铁站)_31.29138_121.47872","lineId":"上海地铁3号线","lat":31.29137698,"lon":121.47871962,"area_km2":2.4501,"D":0.4041,"C":0.9929,"T":0.1645,"U1":0.1449,"U2":0.1841,"couplingDegree":0.4041,"level":"勉强协调","road_density":34.1026,"walk_accessibility":0.4912,"metro_line_density":3.3025,"station_count":2,"line_count":1,"population_density":39269.4952,"poi_density":0.8163,"poi_diversity":0.6931,"gdp_density":144995.0591,"P":39269.4952,"I":0.8163,"G":144995.0591},{"stationName":"上海江湾镇(地铁站)","station_id":"上海江湾镇(地铁站)_31.30873_121.48060","lineId":"上海地铁20号线 / 上海地铁3号线","lat":31.308728435,"lon":121.480602725,"area_km2":1.8997,"D":0.235,"C":0.6263,"T":0.0882,"U1":0.1569,"U2":0.0194,"couplingDegree":0.235,"level":"中度失调","road_density":24.3637,"walk_accessibility":0.3809,"metro_line_density":5.3492,"station_count":1,"line_count":2,"population_density":14438.9871,"poi_density":0.0,"poi_diversity":0.0,"gdp_density":0.0,"P":14438.9871,"I":0.0,"G":0.0},{"stationName":"上海殷高西路(地铁站)","station_id":"上海殷高西路(地铁站)_31.32194_121.48036","lineId":"上海地铁3号线","lat":31.32194102,"lon":121.48036209,"area_km2":1.8166,"D":0.0,"C":0.0,"T":0.0343,"U1":0.0686,"U2":0.0,"couplingDegree":0.0,"level":"极度失调","road_density":27.2187,"walk_accessibility":0.3642,"metro_line_density":3.5955,"station_count":1,"line_count":1,"population_density":0.0,"poi_density":0.0,"poi_diversity":0.0,"gdp_density":0.0,"P":0.0,"I":0.0,"G":0.0},{"stationName":"上海长江南路(地铁站)","station_id":"上海长江南路(地铁站)_31.33386_121.48603","lineId":"上海地铁18号线 / 上海地铁3号线","lat":31.33385695,"lon":121.48602720000001,"area_km2":1.454,"D":0.3595,"C":0.9729,"T":0.1329,"U1":0.1636,"U2":0.1021,"couplingDegree":0.3595,"level":"中度失调","road_density":26.6361,"walk_accessibility":0.2915,"metro_line_density":7.3406,"station_count":1,"line_count":2,"population_density":10962.8248,"poi_density":1.3755,"poi_diversity":0.6931,"gdp_density":0.0,"P":10962.8248,"I":1.3755,"G":0.0},{"stationName":"上海淞发路(地铁站)","station_id":"上海淞发路(地铁站)_31.34711_121.49595","lineId":"上海地铁3号线","lat":31.34710814,"lon":121.49595013,"area_km2":2.0762,"D":0.2488,"C":0.9951,"T":0.0622,"U1":0.0683,"U2":0.056,"couplingDegree":0.2488,"level":"中度失调","road_density":26.8095,"walk_accessibility":0.4163,"metro_line_density":2.74,"station_count":1,"line_count":1,"population_density":8133.6056,"poi_density":0.0,"poi_diversity":0.0,"gdp_density":128163.4103,"P":8133.6056,"I":0.0,"G":128163.4103},{"stationName":"上海张华浜(地铁站)","station_id":"上海张华浜(地铁站)_31.35998_121.49422","lineId":"上海地铁3号线","lat":31.35997956,"lon":121.4942232,"area_km2":1.2524,"D":0.2667,"C":0.9988,"T":0.0712,"U1":0.0677,"U2":0.0747,"couplingDegree":0.2667,"level":"中度失调","road_density":28.8967,"walk_accessibility":0.2511,"metro_line_density":4.4628,"station_count":1,"line_count":1,"population_density":0.0,"poi_density":0.0,"poi_diversity":0.0,"gdp_density":212468.6545,"P":0.0,"I":0.0,"G":212468.6545},{"stationName":"上海淞滨路(地铁站)","station_id":"上海淞滨路(地铁站)_31.37287_121.48835","lineId":"上海地铁3号线","lat":31.37287018,"lon":121.48834979,"area_km2":1.6219,"D":0.2548,"C":0.8678,"T":0.0748,"U1":0.112,"U2":0.0377,"couplingDegree":0.2548,"level":"中度失调","road_density":26.9182,"walk_accessibility":0.3252,"metro_line_density":3.3413,"station_count":2,"line_count":1,"population_density":11615.5193,"poi_density":0.0,"poi_diversity":0.0,"gdp_density":62582.857,"P":11615.5193,"I":0.0,"G":62582.857},{"stationName":"上海水产路(地铁站)","station_id":"上海水产路(地铁站)_31.38323_121.48376","lineId":"上海地铁3号线","lat":31.38322778,"lon":121.48376147,"area_km2":1.0764,"D":0.0,"C":0.0,"T":0.0561,"U1":0.1122,"U2":0.0,"couplingDegree":0.0,"level":"极度失调","road_density":27.4228,"walk_accessibility":0.2158,"metro_line_density":5.3176,"station_count":2,"line_count":1,"population_density":0.0,"poi_density":0.0,"poi_diversity":0.0,"gdp_density":0.0,"P":0.0,"I":0.0,"G":0.0},{"stationName":"上海宝杨路(地铁站)","station_id":"上海宝杨路(地铁站)_31.39721_121.47506","lineId":"上海地铁3号线","lat":31.39721093,"lon":121.47505543,"area_km2":1.3211,"D":0.368,"C":0.9672,"T":0.14,"U1":0.1045,"U2":0.1756,"couplingDegree":0.368,"level":"中度失调","road_density":24.539,"walk_accessibility":0.2649,"metro_line_density":4.3831,"station_count":2,"line_count":1,"population_density":26714.0926,"poi_density":2.2709,"poi_diversity":1.0986,"gdp_density":0.0,"P":26714.0926,"I":2.2709,"G":0.0},{"stationName":"上海友谊路(地铁站)","station_id":"上海友谊路(地铁站)_31.40590_121.47139","lineId":"上海地铁3号线","lat":31.40589946,"lon":121.47139412,"area_km2":1.4863,"D":0.2378,"C":0.8462,"T":0.0668,"U1":0.1024,"U2":0.0312,"couplingDegree":0.2378,"level":"中度失调","road_density":23.7229,"walk_accessibility":0.298,"metro_line_density":3.7479,"station_count":2,"line_count":1,"population_density":16787.277,"poi_density":0.6728,"poi_diversity":0.0,"gdp_density":0.0,"P":16787.277,"I":0.6728,"G":0.0},{"stationName":"上海铁力路(地铁站)","station_id":"上海铁力路(地铁站)_31.40996_121.45656","lineId":"上海地铁3号线","lat":31.409964685,"lon":121.456561565,"area_km2":1.6037,"D":0.1997,"C":0.9006,"T":0.0443,"U1":0.0635,"U2":0.025,"couplingDegree":0.1997,"level":"极度失调","road_density":26.6508,"walk_accessibility":0.3215,"metro_line_density":3.5484,"station_count":1,"line_count":1,"population_density":11715.0546,"poi_density":0.0,"poi_diversity":0.0,"gdp_density":26313.978,"P":11715.0546,"I":0.0,"G":26313.978},{"stationName":"上海江杨北路(地铁站)","station_id":"上海江杨北路(地铁站)_31.40966_121.43519","lineId":"上海地铁3号线","lat":31.40965845,"lon":121.43519049,"area_km2":1.5497,"D":0.1723,"C":0.9171,"T":0.0324,"U1":0.0453,"U2":0.0195,"couplingDegree":0.1723,"level":"极度失调","road_density":24.9956,"walk_accessibility":0.3107,"metro_line_density":0.0789,"station_count":1,"line_count":1,"population_density":14457.5524,"poi_density":0.0,"poi_diversity":0.0,"gdp_density":0.0,"P":14457.5524,"I":0.0,"G":0.0},{"stationName":"上海海伦路(地铁站)","station_id":"上海海伦路(地铁站)_31.26110_121.48461","lineId":"上海地铁10号线 / 上海地铁19号线 / 上海地铁4号线","lat":31.2611021775,"lon":121.4846140375,"area_km2":3.0604,"D":0.6169,"C":0.9409,"T":0.4045,"U1":0.5416,"U2":0.2675,"couplingDegree":0.6169,"level":"良好协调","road_density":23.863,"walk_accessibility":0.6136,"metro_line_density":4.7847,"station_count":5,"line_count":4,"population_density":61110.5467,"poi_density":2.2873,"poi_diversity":1.5498,"gdp_density":0.0,"P":61110.5467,"I":2.2873,"G":0.0},{"stationName":"上海临平路(地铁站)","station_id":"上海临平路(地铁站)_31.26288_121.49626","lineId":"上海地铁4号线","lat":31.262881505000003,"lon":121.496264755,"area_km2":3.157,"D":0.5629,"C":0.974,"T":0.3253,"U1":0.399,"U2":0.2516,"couplingDegree":0.5629,"level":"勉强协调","road_density":22.824,"walk_accessibility":0.633,"metro_line_density":3.5843,"station_count":4,"line_count":3,"population_density":35497.8263,"poi_density":2.2173,"poi_diversity":1.277,"gdp_density":133401.0623,"P":35497.8263,"I":2.2173,"G":133401.0623},{"stationName":"上海大连路(地铁站)","station_id":"上海大连路(地铁站)_31.25998_121.50870","lineId":"上海地铁4号线","lat":31.25998412,"lon":121.50870081,"area_km2":2.6899,"D":0.364,"C":0.9884,"T":0.1341,"U1":0.1544,"U2":0.1137,"couplingDegree":0.364,"level":"中度失调","road_density":20.1692,"walk_accessibility":0.5393,"metro_line_density":2.3758,"station_count":3,"line_count":1,"population_density":26274.6805,"poi_density":1.1153,"poi_diversity":0.6365,"gdp_density":0.0,"P":26274.6805,"I":1.1153,"G":0.0},{"stationName":"上海杨树浦路(地铁站)","station_id":"上海杨树浦路(地铁站)_31.25400_121.51284","lineId":"上海地铁4号线","lat":31.2539951,"lon":121.51283866,"area_km2":2.1994,"D":0.3509,"C":0.9699,"T":0.127,"U1":0.096,"U2":0.1579,"couplingDegree":0.3509,"level":"中度失调","road_density":18.5555,"walk_accessibility":0.441,"metro_line_density":2.9333,"station_count":2,"line_count":1,"population_density":21017.9526,"poi_density":1.364,"poi_diversity":0.6365,"gdp_density":136708.9917,"P":21017.9526,"I":1.364,"G":136708.9917},{"stationName":"上海浦东大道(地铁站)","station_id":"上海浦东大道(地铁站)_31.24238_121.51494","lineId":"上海地铁4号线","lat":31.24237941,"lon":121.51493791,"area_km2":3.488,"D":0.6213,"C":0.9763,"T":0.3954,"U1":0.4809,"U2":0.3099,"couplingDegree":0.6213,"level":"良好协调","road_density":33.3573,"walk_accessibility":0.6993,"metro_line_density":5.4561,"station_count":3,"line_count":4,"population_density":31101.7057,"poi_density":3.4404,"poi_diversity":2.0947,"gdp_density":37409.604,"P":31101.7057,"I":3.4404,"G":37409.604},{"stationName":"上海向城路(地铁站)","station_id":"上海向城路(地铁站)_31.22440_121.52776","lineId":"上海地铁4号线","lat":31.22439979,"lon":121.52776134,"area_km2":3.9467,"D":0.5976,"C":0.9223,"T":0.3872,"U1":0.5369,"U2":0.2376,"couplingDegree":0.5976,"level":"勉强协调","road_density":30.9933,"walk_accessibility":0.7913,"metro_line_density":5.2825,"station_count":6,"line_count":3,"population_density":11944.7927,"poi_density":2.7871,"poi_diversity":1.8462,"gdp_density":0.0,"P":11944.7927,"I":2.7871,"G":0.0},{"stationName":"上海蓝村路(地铁站)","station_id":"上海蓝村路(地铁站)_31.21373_121.52343","lineId":"上海地铁4号线 / 上海地铁6号线","lat":31.21372554,"lon":121.523430885,"area_km2":2.5268,"D":0.5955,"C":0.9688,"T":0.366,"U1":0.4568,"U2":0.2752,"couplingDegree":0.5955,"level":"勉强协调","road_density":27.9217,"walk_accessibility":0.5066,"metro_line_density":4.9673,"station_count":5,"line_count":3,"population_density":20512.255,"poi_density":3.5618,"poi_diversity":1.831,"gdp_density":50441.8397,"P":20512.255,"I":3.5618,"G":50441.8397},{"stationName":"上海塘桥(地铁站)","station_id":"上海塘桥(地铁站)_31.21208_121.51389","lineId":"上海地铁19号线 / 上海地铁4号线","lat":31.212079146666667,"lon":121.51389470666668,"area_km2":2.552,"D":0.5635,"C":0.9938,"T":0.3194,"U1":0.3548,"U2":0.2841,"couplingDegree":0.5635,"level":"勉强协调","road_density":26.1282,"walk_accessibility":0.5117,"metro_line_density":4.7454,"station_count":3,"line_count":3,"population_density":23558.4725,"poi_density":3.9185,"poi_diversity":1.8344,"gdp_density":49944.5417,"P":23558.4725,"I":3.9185,"G":49944.5417},{"stationName":"上海南浦大桥(地铁站)","station_id":"上海南浦大桥(地铁站)_31.21053_121.49529","lineId":"上海地铁4号线","lat":31.21053316,"lon":121.49529392,"area_km2":2.8972,"D":0.4799,"C":0.9889,"T":0.2329,"U1":0.2675,"U2":0.1982,"couplingDegree":0.4799,"level":"勉强协调","road_density":27.2131,"walk_accessibility":0.5809,"metro_line_density":2.7974,"station_count":3,"line_count":2,"population_density":33385.6348,"poi_density":6.5581,"poi_diversity":0.5367,"gdp_density":43392.6271,"P":33385.6348,"I":6.5581,"G":43392.6271},{"stationName":"上海西藏南路(地铁站)","station_id":"上海西藏南路(地铁站)_31.20397_121.48509","lineId":"上海地铁4号线","lat":31.20396821,"lon":121.48508793,"area_km2":2.9382,"D":0.5684,"C":0.9764,"T":0.3309,"U1":0.4023,"U2":0.2594,"couplingDegree":0.5684,"level":"勉强协调","road_density":24.8853,"walk_accessibility":0.5891,"metro_line_density":3.8494,"station_count":4,"line_count":3,"population_density":21442.5797,"poi_density":9.1892,"poi_diversity":1.1211,"gdp_density":0.0,"P":21442.5797,"I":9.1892,"G":0.0},{"stationName":"上海鲁班路(地铁站)","station_id":"上海鲁班路(地铁站)_31.20118_121.47063","lineId":"上海地铁4号线","lat":31.20118265,"lon":121.47063185,"area_km2":2.6139,"D":0.5847,"C":0.9863,"T":0.3466,"U1":0.4039,"U2":0.2894,"couplingDegree":0.5847,"level":"勉强协调","road_density":28.5494,"walk_accessibility":0.5241,"metro_line_density":2.8551,"station_count":4,"line_count":3,"population_density":23331.8301,"poi_density":4.2082,"poi_diversity":1.8462,"gdp_density":52079.2401,"P":23331.8301,"I":4.2082,"G":52079.2401},{"stationName":"上海大木桥路(地铁站)","station_id":"上海大木桥路(地铁站)_31.19599_121.45873","lineId":"上海地铁4号线","lat":31.195989140000002,"lon":121.45872563500001,"area_km2":2.6763,"D":0.6532,"C":0.9967,"T":0.4281,"U1":0.3933,"U2":0.4629,"couplingDegree":0.6532,"level":"良好协调","road_density":24.297,"walk_accessibility":0.5366,"metro_line_density":2.9709,"station_count":4,"line_count":3,"population_density":32720.8337,"poi_density":10.4622,"poi_diversity":2.531,"gdp_density":85713.6309,"P":32720.8337,"I":10.4622,"G":85713.6309},{"stationName":"上海东安路(地铁站)","station_id":"上海东安路(地铁站)_31.19273_121.45032","lineId":"上海地铁4号线","lat":31.1927333,"lon":121.4503209,"area_km2":2.1722,"D":0.6341,"C":0.9662,"T":0.4161,"U1":0.5234,"U2":0.3089,"couplingDegree":0.6341,"level":"良好协调","road_density":22.0654,"walk_accessibility":0.4355,"metro_line_density":4.9708,"station_count":5,"line_count":4,"population_density":41634.2551,"poi_density":2.7622,"poi_diversity":1.7918,"gdp_density":105605.294,"P":41634.2551,"I":2.7622,"G":105605.294},{"stationName":"上海上海体育场(地铁站)","station_id":"上海上海体育场(地铁站)_31.18750_121.43892","lineId":"上海地铁23号线 / 上海地铁4号线","lat":31.187497855,"lon":121.43892246499999,"area_km2":2.3774,"D":0.6859,"C":0.8935,"T":0.5265,"U1":0.7629,"U2":0.29,"couplingDegree":0.6859,"level":"良好协调","road_density":24.3677,"walk_accessibility":0.4767,"metro_line_density":6.1917,"station_count":6,"line_count":6,"population_density":42558.622,"poi_density":3.7857,"poi_diversity":1.831,"gdp_density":0.0,"P":42558.622,"I":3.7857,"G":0.0},{"stationName":"上海闵行开发区(地铁站)","station_id":"上海闵行开发区(地铁站)_31.00261_121.36511","lineId":"上海地铁5号线","lat":31.00260857,"lon":121.36510635,"area_km2":1.6655,"D":0.1769,"C":0.7164,"T":0.0437,"U1":0.0741,"U2":0.0132,"couplingDegree":0.1769,"level":"极度失调","road_density":16.4577,"walk_accessibility":0.3339,"metro_line_density":0.8352,"station_count":2,"line_count":1,"population_density":9809.6593,"poi_density":0.0,"poi_diversity":0.0,"gdp_density":0.0,"P":9809.6593,"I":0.0,"G":0.0},{"stationName":"上海文井路(地铁站)","station_id":"上海文井路(地铁站)_31.00556_121.37615","lineId":"上海地铁5号线","lat":31.00556401,"lon":121.3761541,"area_km2":1.5058,"D":0.1863,"C":0.7901,"T":0.0439,"U1":0.0708,"U2":0.017,"couplingDegree":0.1863,"level":"极度失调","road_density":15.1949,"walk_accessibility":0.3019,"metro_line_density":1.5823,"station_count":2,"line_count":1,"population_density":12627.7907,"poi_density":0.0,"poi_diversity":0.0,"gdp_density":0.0,"P":12627.7907,"I":0.0,"G":0.0},{"stationName":"上海华宁路(地铁站)","station_id":"上海华宁路(地铁站)_31.00942_121.39062","lineId":"上海地铁5号线","lat":31.00942305,"lon":121.39062465,"area_km2":0.9148,"D":0.186,"C":0.9583,"T":0.0361,"U1":0.0258,"U2":0.0464,"couplingDegree":0.186,"level":"极度失调","road_density":17.586,"walk_accessibility":0.1834,"metro_line_density":3.129,"station_count":1,"line_count":1,"population_density":14678.315,"poi_density":0.0,"poi_diversity":0.0,"gdp_density":75769.0948,"P":14678.315,"I":0.0,"G":75769.0948},{"stationName":"上海金平路(地铁站)","station_id":"上海金平路(地铁站)_31.01324_121.40555","lineId":"上海地铁5号线","lat":31.01323606,"lon":121.40555436,"area_km2":1.9659,"D":0.2778,"C":0.6848,"T":0.1127,"U1":0.1948,"U2":0.0306,"couplingDegree":0.2778,"level":"中度失调","road_density":25.3315,"walk_accessibility":0.3941,"metro_line_density":1.5281,"station_count":2,"line_count":2,"population_density":8191.3407,"poi_density":0.5087,"poi_diversity":0.0,"gdp_density":37014.4015,"P":8191.3407,"I":0.5087,"G":37014.4015},{"stationName":"上海东川路(地铁站)","station_id":"上海东川路(地铁站)_31.02015_121.41526","lineId":"上海地铁23号线 / 上海地铁5号线","lat":31.020148675,"lon":121.415260665,"area_km2":1.3099,"D":0.4333,"C":0.9482,"T":0.198,"U1":0.2609,"U2":0.1351,"couplingDegree":0.4333,"level":"勉强协调","road_density":29.0959,"walk_accessibility":0.2626,"metro_line_density":6.2899,"station_count":3,"line_count":2,"population_density":19488.0605,"poi_density":1.5268,"poi_diversity":0.6931,"gdp_density":55548.7592,"P":19488.0605,"I":1.5268,"G":55548.7592},{"stationName":"上海剑川路(地铁站)","station_id":"上海剑川路(地铁站)_31.02843_121.41195","lineId":"上海地铁5号线","lat":31.0284323,"lon":121.41195429,"area_km2":1.5551,"D":0.2204,"C":0.4921,"T":0.0988,"U1":0.1847,"U2":0.0128,"couplingDegree":0.2204,"level":"中度失调","road_density":20.9175,"walk_accessibility":0.3118,"metro_line_density":3.8904,"station_count":2,"line_count":2,"population_density":9498.5547,"poi_density":0.0,"poi_diversity":0.0,"gdp_density":0.0,"P":9498.5547,"I":0.0,"G":0.0},{"stationName":"上海北桥(地铁站)","station_id":"上海北桥(地铁站)_31.04705_121.40542","lineId":"上海地铁5号线","lat":31.04704591,"lon":121.40542082,"area_km2":1.0863,"D":0.088,"C":0.3507,"T":0.0221,"U1":0.0427,"U2":0.0014,"couplingDegree":0.088,"level":"极度失调","road_density":21.1749,"walk_accessibility":0.2178,"metro_line_density":4.2705,"station_count":1,"line_count":1,"population_density":1041.1743,"poi_density":0.0,"poi_diversity":0.0,"gdp_density":0.0,"P":1041.1743,"I":0.0,"G":0.0},{"stationName":"上海颛桥(地铁站)","station_id":"上海颛桥(地铁站)_31.06893_121.39723","lineId":"上海地铁5号线","lat":31.06893414,"lon":121.39723048,"area_km2":1.6246,"D":0.1684,"C":0.9797,"T":0.0289,"U1":0.0347,"U2":0.0232,"couplingDegree":0.1684,"level":"极度失调","road_density":17.1506,"walk_accessibility":0.3257,"metro_line_density":2.8903,"station_count":1,"line_count":1,"population_density":5296.0534,"poi_density":0.0,"poi_diversity":0.0,"gdp_density":45545.8128,"P":5296.0534,"I":0.0,"G":45545.8128},{"stationName":"上海银都路(地铁站)","station_id":"上海银都路(地铁站)_31.09125_121.38563","lineId":"上海地铁5号线 / 上海地铁嘉闵线","lat":31.09124586,"lon":121.38562715,"area_km2":1.2933,"D":0.2495,"C":0.6305,"T":0.0987,"U1":0.1753,"U2":0.0221,"couplingDegree":0.2495,"level":"中度失调","road_density":18.8424,"walk_accessibility":0.2593,"metro_line_density":4.0251,"station_count":2,"line_count":2,"population_density":16410.6941,"poi_density":0.0,"poi_diversity":0.0,"gdp_density":0.0,"P":16410.6941,"I":0.0,"G":0.0},{"stationName":"上海春申路(地铁站)","station_id":"上海春申路(地铁站)_31.10016_121.38118","lineId":"上海地铁5号线","lat":31.10015955,"lon":121.381184825,"area_km2":1.4201,"D":0.1969,"C":0.4164,"T":0.0931,"U1":0.1777,"U2":0.0085,"couplingDegree":0.1969,"level":"极度失调","road_density":16.7411,"walk_accessibility":0.2847,"metro_line_density":5.7396,"station_count":2,"line_count":2,"population_density":6279.1921,"poi_density":0.0,"poi_diversity":0.0,"gdp_density":0.0,"P":6279.1921,"I":0.0,"G":0.0},{"stationName":"上海江川路(地铁站)","station_id":"上海江川路(地铁站)_31.00739_121.41885","lineId":"上海地铁5号线","lat":31.00739453,"lon":121.41885497,"area_km2":1.5696,"D":0.1544,"C":0.8695,"T":0.0274,"U1":0.0409,"U2":0.0139,"couplingDegree":0.1544,"level":"极度失调","road_density":20.3012,"walk_accessibility":0.3147,"metro_line_density":2.4048,"station_count":1,"line_count":1,"population_density":4238.5345,"poi_density":0.6371,"poi_diversity":0.0,"gdp_density":0.0,"P":4238.5345,"I":0.6371,"G":0.0},{"stationName":"上海西渡(地铁站)","station_id":"上海西渡(地铁站)_30.99134_121.42783","lineId":"上海地铁5号线","lat":30.991337,"lon":121.42783429,"area_km2":1.3446,"D":0.1424,"C":0.9213,"T":0.022,"U1":0.0306,"U2":0.0135,"couplingDegree":0.1424,"level":"极度失调","road_density":18.2224,"walk_accessibility":0.2696,"metro_line_density":2.1234,"station_count":1,"line_count":1,"population_density":9997.2514,"poi_density":0.0,"poi_diversity":0.0,"gdp_density":0.0,"P":9997.2514,"I":0.0,"G":0.0},{"stationName":"上海萧塘(地铁站)","station_id":"上海萧塘(地铁站)_30.96790_121.43727","lineId":"上海地铁5号线","lat":30.96790283,"lon":121.43726984,"area_km2":1.4716,"D":0.1148,"C":0.6789,"T":0.0194,"U1":0.0337,"U2":0.0052,"couplingDegree":0.1148,"level":"极度失调","road_density":18.8616,"walk_accessibility":0.295,"metro_line_density":1.9383,"station_count":1,"line_count":1,"population_density":1813.7128,"poi_density":0.0,"poi_diversity":0.0,"gdp_density":7727.1369,"P":1813.7128,"I":0.0,"G":7727.1369},{"stationName":"上海奉浦大道(地铁站)","station_id":"上海奉浦大道(地铁站)_30.94410_121.44441","lineId":"上海地铁5号线","lat":30.94409721,"lon":121.44441493,"area_km2":1.1087,"D":0.0,"C":0.0,"T":0.0111,"U1":0.0223,"U2":0.0,"couplingDegree":0.0,"level":"极度失调","road_density":16.1657,"walk_accessibility":0.2223,"metro_line_density":2.4305,"station_count":1,"line_count":1,"population_density":0.0,"poi_density":0.0,"poi_diversity":0.0,"gdp_density":0.0,"P":0.0,"I":0.0,"G":0.0},{"stationName":"上海环城东路(地铁站)","station_id":"上海环城东路(地铁站)_30.93325_121.45867","lineId":"上海地铁5号线","lat":30.93324829,"lon":121.45867408,"area_km2":1.1811,"D":0.1528,"C":0.9566,"T":0.0244,"U1":0.0315,"U2":0.0173,"couplingDegree":0.1528,"level":"极度失调","road_density":14.2141,"walk_accessibility":0.2368,"metro_line_density":6.1351,"station_count":1,"line_count":1,"population_density":8013.4498,"poi_density":0.0,"poi_diversity":0.0,"gdp_density":18498.2425,"P":8013.4498,"I":0.0,"G":18498.2425},{"stationName":"上海望园路(地铁站)","station_id":"上海望园路(地铁站)_30.93444_121.47839","lineId":"上海上海南枫线(枫泾站--滴水湖北) / 上海地铁15号线 / 上海地铁5号线","lat":30.93443741666667,"lon":121.47838775999999,"area_km2":1.9953,"D":0.1555,"C":0.1668,"T":0.1449,"U1":0.2878,"U2":0.002,"couplingDegree":0.1555,"level":"极度失调","road_density":20.6521,"walk_accessibility":0.4001,"metro_line_density":6.1711,"station_count":2,"line_count":3,"population_density":1508.5216,"poi_density":0.0,"poi_diversity":0.0,"gdp_density":0.0,"P":1508.5216,"I":0.0,"G":0.0},{"stationName":"上海金海湖(地铁站)","station_id":"上海金海湖(地铁站)_30.93097_121.48807","lineId":"上海地铁5号线","lat":30.93096841,"lon":121.48807425,"area_km2":1.683,"D":0.1523,"C":0.1682,"T":0.1379,"U1":0.2739,"U2":0.002,"couplingDegree":0.1523,"level":"极度失调","road_density":22.3848,"walk_accessibility":0.3374,"metro_line_density":2.3836,"station_count":2,"line_count":3,"population_density":1459.3132,"poi_density":0.0,"poi_diversity":0.0,"gdp_density":0.0,"P":1459.3132,"I":0.0,"G":0.0},{"stationName":"上海奉贤新城(地铁站)","station_id":"上海奉贤新城(地铁站)_30.91610_121.49187","lineId":"上海地铁5号线","lat":30.91609875,"lon":121.49187161,"area_km2":1.7155,"D":0.1166,"C":0.6992,"T":0.0195,"U1":0.0334,"U2":0.0055,"couplingDegree":0.1166,"level":"极度失调","road_density":18.8465,"walk_accessibility":0.3439,"metro_line_density":0.8355,"station_count":1,"line_count":1,"population_density":2226.2113,"poi_density":0.0,"poi_diversity":0.0,"gdp_density":7252.2374,"P":2226.2113,"I":0.0,"G":7252.2374},{"stationName":"上海东方体育中心(地铁站)","station_id":"上海东方体育中心(地铁站)_31.15658_121.47608","lineId":"上海地铁19号线 / 上海地铁6号线 / 上海地铁8号线","lat":31.156584353333333,"lon":121.47607742333332,"area_km2":2.1706,"D":0.3153,"C":0.6718,"T":0.148,"U1":0.2576,"U2":0.0384,"couplingDegree":0.3153,"level":"中度失调","road_density":24.7943,"walk_accessibility":0.4352,"metro_line_density":7.1867,"station_count":1,"line_count":3,"population_density":11174.7517,"poi_density":0.0,"poi_diversity":0.0,"gdp_density":66320.1427,"P":11174.7517,"I":0.0,"G":66320.1427},{"stationName":"上海灵岩南路(地铁站)","station_id":"上海灵岩南路(地铁站)_31.15071_121.49085","lineId":"上海地铁6号线","lat":31.15071059,"lon":121.49085397,"area_km2":2.3506,"D":0.3236,"C":0.5414,"T":0.1934,"U1":0.356,"U2":0.0308,"couplingDegree":0.3236,"level":"中度失调","road_density":28.3257,"walk_accessibility":0.4713,"metro_line_density":4.2466,"station_count":3,"line_count":3,"population_density":12634.4396,"poi_density":0.0,"poi_diversity":0.0,"gdp_density":39220.8332,"P":12634.4396,"I":0.0,"G":39220.8332},{"stationName":"上海上南路(地铁站)","station_id":"上海上南路(地铁站)_31.15090_121.50205","lineId":"上海地铁6号线","lat":31.15089773,"lon":121.50204605,"area_km2":1.9552,"D":0.26,"C":0.4141,"T":0.1632,"U1":0.3118,"U2":0.0147,"couplingDegree":0.26,"level":"中度失调","road_density":27.9791,"walk_accessibility":0.392,"metro_line_density":5.124,"station_count":4,"line_count":2,"population_density":10887.441,"poi_density":0.0,"poi_diversity":0.0,"gdp_density":0.0,"P":10887.441,"I":0.0,"G":0.0},{"stationName":"上海华夏西路(地铁站)","station_id":"上海华夏西路(地铁站)_31.15198_121.51017","lineId":"上海地铁6号线","lat":31.15198098,"lon":121.51016731,"area_km2":1.5525,"D":0.3315,"C":0.5878,"T":0.187,"U1":0.3383,"U2":0.0357,"couplingDegree":0.3315,"level":"中度失调","road_density":24.4967,"walk_accessibility":0.3113,"metro_line_density":3.5681,"station_count":5,"line_count":2,"population_density":10334.8212,"poi_density":0.0,"poi_diversity":0.0,"gdp_density":61956.7539,"P":10334.8212,"I":0.0,"G":61956.7539},{"stationName":"上海高青路(地铁站)","station_id":"上海高青路(地铁站)_31.16201_121.51142","lineId":"上海地铁6号线","lat":31.16200657,"lon":121.51141843,"area_km2":1.5325,"D":0.2432,"C":0.918,"T":0.0644,"U1":0.0899,"U2":0.0389,"couplingDegree":0.2432,"level":"中度失调","road_density":20.0671,"walk_accessibility":0.3073,"metro_line_density":2.9453,"station_count":2,"line_count":1,"population_density":16449.2339,"poi_density":1.305,"poi_diversity":0.0,"gdp_density":0.0,"P":16449.2339,"I":1.305,"G":0.0},{"stationName":"上海东明路(地铁站)","station_id":"上海东明路(地铁站)_31.17480_121.50693","lineId":"上海地铁13号线 / 上海地铁6号线","lat":31.17479533,"lon":121.50693477666668,"area_km2":1.8727,"D":0.2349,"C":0.7081,"T":0.0779,"U1":0.1329,"U2":0.0229,"couplingDegree":0.2349,"level":"中度失调","road_density":17.1011,"walk_accessibility":0.3755,"metro_line_density":4.4794,"station_count":1,"line_count":2,"population_density":11924.9776,"poi_density":0.534,"poi_diversity":0.0,"gdp_density":0.0,"P":11924.9776,"I":0.534,"G":0.0},{"stationName":"上海高科西路(地铁站)","station_id":"上海高科西路(地铁站)_31.18783_121.50545","lineId":"上海地铁6号线","lat":31.18783031,"lon":121.50545234,"area_km2":2.3571,"D":0.2809,"C":0.5646,"T":0.1398,"U1":0.2551,"U2":0.0244,"couplingDegree":0.2809,"level":"中度失调","road_density":21.5364,"walk_accessibility":0.4726,"metro_line_density":6.0542,"station_count":3,"line_count":2,"population_density":18134.8964,"poi_density":0.0,"poi_diversity":0.0,"gdp_density":0.0,"P":18134.8964,"I":0.0,"G":0.0},{"stationName":"上海临沂新村(地铁站)","station_id":"上海临沂新村(地铁站)_31.19529_121.51233","lineId":"上海地铁6号线","lat":31.19528786,"lon":121.51232588,"area_km2":1.8068,"D":0.3092,"C":0.6699,"T":0.1427,"U1":0.2487,"U2":0.0368,"couplingDegree":0.3092,"level":"中度失调","road_density":23.0859,"walk_accessibility":0.3623,"metro_line_density":5.4494,"station_count":3,"line_count":2,"population_density":10254.9071,"poi_density":0.0,"poi_diversity":0.0,"gdp_density":65261.9211,"P":10254.9071,"I":0.0,"G":65261.9211},{"stationName":"上海上海儿童医学中心(地铁站)","station_id":"上海上海儿童医学中心(地铁站)_31.20538_121.51914","lineId":"上海地铁6号线","lat":31.20537817,"lon":121.51913574,"area_km2":1.9186,"D":0.5493,"C":0.9861,"T":0.306,"U1":0.3569,"U2":0.2551,"couplingDegree":0.5493,"level":"勉强协调","road_density":29.7189,"walk_accessibility":0.3847,"metro_line_density":5.2543,"station_count":3,"line_count":3,"population_density":24116.9755,"poi_density":3.6484,"poi_diversity":1.7479,"gdp_density":0.0,"P":24116.9755,"I":3.6484,"G":0.0},{"stationName":"上海浦电路(地铁站)","station_id":"上海浦电路(地铁站)_31.22226_121.52502","lineId":"上海地铁6号线","lat":31.22226205,"lon":121.52502408,"area_km2":3.5274,"D":0.5818,"C":0.9693,"T":0.3492,"U1":0.4351,"U2":0.2633,"couplingDegree":0.5818,"level":"勉强协调","road_density":30.6509,"walk_accessibility":0.7072,"metro_line_density":5.8811,"station_count":4,"line_count":3,"population_density":13364.9683,"poi_density":3.969,"poi_diversity":1.9328,"gdp_density":0.0,"P":13364.9683,"I":3.969,"G":0.0},{"stationName":"上海源深体育中心(地铁站)","station_id":"上海源深体育中心(地铁站)_31.23512_121.53033","lineId":"上海地铁6号线","lat":31.2351201,"lon":121.53033035,"area_km2":3.228,"D":0.3412,"C":0.4331,"T":0.2688,"U1":0.511,"U2":0.0265,"couplingDegree":0.3412,"level":"中度失调","road_density":28.6685,"walk_accessibility":0.6472,"metro_line_density":5.2135,"station_count":4,"line_count":4,"population_density":10507.0561,"poi_density":0.0,"poi_diversity":0.0,"gdp_density":35156.832,"P":10507.0561,"I":0.0,"G":35156.832},{"stationName":"上海民生路(地铁站)","station_id":"上海民生路(地铁站)_31.23738_121.53996","lineId":"上海地铁18号线 / 上海地铁6号线","lat":31.237378485,"lon":121.53996086999999,"area_km2":2.6983,"D":0.4557,"C":0.8067,"T":0.2575,"U1":0.4096,"U2":0.1053,"couplingDegree":0.4557,"level":"勉强协调","road_density":27.0982,"walk_accessibility":0.541,"metro_line_density":5.1599,"station_count":4,"line_count":3,"population_density":8384.7722,"poi_density":0.7412,"poi_diversity":0.6931,"gdp_density":42058.0172,"P":8384.7722,"I":0.7412,"G":42058.0172},{"stationName":"上海北洋泾路(地铁站)","station_id":"上海北洋泾路(地铁站)_31.24130_121.54805","lineId":"上海地铁6号线","lat":31.24129757,"lon":121.54804977,"area_km2":2.5411,"D":0.4524,"C":0.8777,"T":0.2332,"U1":0.3449,"U2":0.1214,"couplingDegree":0.4524,"level":"勉强协调","road_density":24.0314,"walk_accessibility":0.5095,"metro_line_density":3.6914,"station_count":3,"line_count":3,"population_density":18479.2249,"poi_density":0.7871,"poi_diversity":0.6931,"gdp_density":47520.9304,"P":18479.2249,"I":0.7871,"G":47520.9304},{"stationName":"上海德平路(地铁站)","station_id":"上海德平路(地铁站)_31.24757_121.56000","lineId":"上海地铁6号线","lat":31.24757182,"lon":121.55999933,"area_km2":2.0621,"D":0.3149,"C":0.7828,"T":0.1267,"U1":0.2055,"U2":0.0479,"couplingDegree":0.3149,"level":"中度失调","road_density":25.1248,"walk_accessibility":0.4134,"metro_line_density":4.1938,"station_count":2,"line_count":2,"population_density":30935.4227,"poi_density":0.4849,"poi_diversity":0.0,"gdp_density":0.0,"P":30935.4227,"I":0.4849,"G":0.0},{"stationName":"上海云山路(地铁站)","station_id":"上海云山路(地铁站)_31.25287_121.56774","lineId":"上海地铁14号线 / 上海地铁6号线","lat":31.25286957,"lon":121.56773864499999,"area_km2":2.2351,"D":0.3594,"C":0.5842,"T":0.2211,"U1":0.4005,"U2":0.0417,"couplingDegree":0.3594,"level":"中度失调","road_density":26.627,"walk_accessibility":0.4481,"metro_line_density":4.9999,"station_count":4,"line_count":3,"population_density":12854.2135,"poi_density":0.4474,"poi_diversity":0.0,"gdp_density":52913.9025,"P":12854.2135,"I":0.4474,"G":52913.9025},{"stationName":"上海金桥路(地铁站)","station_id":"上海金桥路(地铁站)_31.25927_121.57760","lineId":"上海地铁6号线","lat":31.25926813,"lon":121.57760381,"area_km2":2.3315,"D":0.3471,"C":0.7472,"T":0.1612,"U1":0.2683,"U2":0.0541,"couplingDegree":0.3471,"level":"中度失调","road_density":30.9567,"walk_accessibility":0.4675,"metro_line_density":2.5563,"station_count":3,"line_count":2,"population_density":22826.0892,"poi_density":0.4289,"poi_diversity":0.0,"gdp_density":50726.263,"P":22826.0892,"I":0.4289,"G":50726.263},{"stationName":"上海博兴路(地铁站)","station_id":"上海博兴路(地铁站)_31.26571_121.58248","lineId":"上海地铁6号线","lat":31.26570519,"lon":121.582479955,"area_km2":2.5521,"D":0.431,"C":0.9938,"T":0.1869,"U1":0.1661,"U2":0.2078,"couplingDegree":0.431,"level":"勉强协调","road_density":25.2733,"walk_accessibility":0.5117,"metro_line_density":2.2492,"station_count":3,"line_count":1,"population_density":12819.2577,"poi_density":3.1347,"poi_diversity":1.4942,"gdp_density":0.0,"P":12819.2577,"I":3.1347,"G":0.0},{"stationName":"上海五莲路(地铁站)","station_id":"上海五莲路(地铁站)_31.27421_121.58366","lineId":"上海地铁6号线","lat":31.27420761,"lon":121.58365608,"area_km2":2.5665,"D":0.4553,"C":0.9807,"T":0.2113,"U1":0.17,"U2":0.2527,"couplingDegree":0.4553,"level":"勉强协调","road_density":26.6698,"walk_accessibility":0.5146,"metro_line_density":2.1888,"station_count":3,"line_count":1,"population_density":12727.3846,"poi_density":3.8963,"poi_diversity":1.6957,"gdp_density":42555.4023,"P":12727.3846,"I":3.8963,"G":42555.4023},{"stationName":"上海巨峰路(地铁站)","station_id":"上海巨峰路(地铁站)_31.28286_121.58416","lineId":"上海地铁6号线","lat":31.28286335,"lon":121.58415516,"area_km2":2.0424,"D":0.3647,"C":0.9384,"T":0.1417,"U1":0.1907,"U2":0.0928,"couplingDegree":0.3647,"level":"中度失调","road_density":36.0094,"walk_accessibility":0.4095,"metro_line_density":2.8967,"station_count":3,"line_count":1,"population_density":7348.8165,"poi_density":1.4689,"poi_diversity":0.6365,"gdp_density":0.0,"P":7348.8165,"I":1.4689,"G":0.0},{"stationName":"上海东靖路(地铁站)","station_id":"上海东靖路(地铁站)_31.29286_121.58453","lineId":"上海地铁6号线","lat":31.29285883,"lon":121.5845257,"area_km2":1.8289,"D":0.1525,"C":0.3398,"T":0.0684,"U1":0.1327,"U2":0.0041,"couplingDegree":0.1525,"level":"极度失调","road_density":33.3699,"walk_accessibility":0.3667,"metro_line_density":3.1721,"station_count":2,"line_count":1,"population_density":3024.2345,"poi_density":0.0,"poi_diversity":0.0,"gdp_density":0.0,"P":3024.2345,"I":0.0,"G":0.0},{"stationName":"上海五洲大道(地铁站)","station_id":"上海五洲大道(地铁站)_31.30474_121.58500","lineId":"上海地铁6号线","lat":31.30473941,"lon":121.58500145,"area_km2":1.5003,"D":0.1151,"C":0.2405,"T":0.0551,"U1":0.1086,"U2":0.0016,"couplingDegree":0.1151,"level":"极度失调","road_density":25.7264,"walk_accessibility":0.3008,"metro_line_density":3.8411,"station_count":2,"line_count":1,"population_density":1201.7348,"poi_density":0.0,"poi_diversity":0.0,"gdp_density":0.0,"P":1201.7348,"I":0.0,"G":0.0},{"stationName":"上海洲海路(地铁站)","station_id":"上海洲海路(地铁站)_31.31440_121.58518","lineId":"上海地铁6号线","lat":31.314395570000002,"lon":121.585184605,"area_km2":1.6024,"D":0.1691,"C":0.5162,"T":0.0554,"U1":0.1028,"U2":0.0079,"couplingDegree":0.1691,"level":"极度失调","road_density":20.5525,"walk_accessibility":0.3213,"metro_line_density":5.7799,"station_count":2,"line_count":1,"population_density":5904.423,"poi_density":0.0,"poi_diversity":0.0,"gdp_density":0.0,"P":5904.423,"I":0.0,"G":0.0},{"stationName":"上海外高桥保税区南(地铁站)","station_id":"上海外高桥保税区南(地铁站)_31.32374_121.59775","lineId":"上海地铁6号线","lat":31.32374186,"lon":121.59775472,"area_km2":1.5304,"D":0.1349,"C":0.5968,"T":0.0305,"U1":0.055,"U2":0.006,"couplingDegree":0.1349,"level":"极度失调","road_density":22.3189,"walk_accessibility":0.3068,"metro_line_density":4.8554,"station_count":1,"line_count":1,"population_density":4479.8449,"poi_density":0.0,"poi_diversity":0.0,"gdp_density":0.0,"P":4479.8449,"I":0.0,"G":0.0},{"stationName":"上海航津路(地铁站)","station_id":"上海航津路(地铁站)_31.33753_121.58976","lineId":"上海地铁6号线","lat":31.33752986,"lon":121.58976359,"area_km2":1.8542,"D":0.2389,"C":0.9204,"T":0.062,"U1":0.0378,"U2":0.0863,"couplingDegree":0.2389,"level":"中度失调","road_density":16.9689,"walk_accessibility":0.3718,"metro_line_density":2.8817,"station_count":1,"line_count":1,"population_density":26941.4097,"poi_density":2.1572,"poi_diversity":0.0,"gdp_density":63592.966,"P":26941.4097,"I":2.1572,"G":63592.966},{"stationName":"上海外高桥保税区北(地铁站)","station_id":"上海外高桥保税区北(地铁站)_31.34996_121.58271","lineId":"上海地铁6号线","lat":31.34995506,"lon":121.582710265,"area_km2":2.1018,"D":0.2727,"C":0.7028,"T":0.1058,"U1":0.1811,"U2":0.0305,"couplingDegree":0.2727,"level":"中度失调","road_density":18.7316,"walk_accessibility":0.4214,"metro_line_density":2.2528,"station_count":2,"line_count":2,"population_density":13633.798,"poi_density":0.9515,"poi_diversity":0.0,"gdp_density":0.0,"P":13633.798,"I":0.9515,"G":0.0},{"stationName":"上海港城路(地铁站)","station_id":"上海港城路(地铁站)_31.35530_121.57079","lineId":"上海地铁10号线 / 上海地铁6号线","lat":31.355295995,"lon":121.5707851,"area_km2":1.9885,"D":0.3065,"C":0.8118,"T":0.1157,"U1":0.1833,"U2":0.0481,"couplingDegree":0.3065,"level":"中度失调","road_density":19.4051,"walk_accessibility":0.3987,"metro_line_density":2.8116,"station_count":2,"line_count":2,"population_density":20185.0147,"poi_density":0.0,"poi_diversity":0.0,"gdp_density":59586.9801,"P":20185.0147,"I":0.0,"G":59586.9801},{"stationName":"上海花木路(地铁站)","station_id":"上海花木路(地铁站)_31.21340_121.55852","lineId":"上海地铁7号线","lat":31.21339679,"lon":121.55851518,"area_km2":1.8708,"D":0.3322,"C":0.4767,"T":0.2315,"U1":0.4351,"U2":0.028,"couplingDegree":0.3322,"level":"中度失调","road_density":29.261,"walk_accessibility":0.3751,"metro_line_density":2.975,"station_count":3,"line_count":4,"population_density":3664.1491,"poi_density":0.5345,"poi_diversity":0.0,"gdp_density":46116.9652,"P":3664.1491,"I":0.5345,"G":46116.9652},{"stationName":"上海芳华路(地铁站)","station_id":"上海芳华路(地铁站)_31.19528_121.54585","lineId":"上海地铁7号线","lat":31.1952816,"lon":121.54584928,"area_km2":2.279,"D":0.4672,"C":0.8084,"T":0.27,"U1":0.4289,"U2":0.111,"couplingDegree":0.4672,"level":"勉强协调","road_density":24.3698,"walk_accessibility":0.4569,"metro_line_density":3.3057,"station_count":3,"line_count":4,"population_density":10506.3252,"poi_density":0.8776,"poi_diversity":0.6931,"gdp_density":45235.9081,"P":10506.3252,"I":0.8776,"G":45235.9081},{"stationName":"上海锦绣路(地铁站)","station_id":"上海锦绣路(地铁站)_31.18974_121.53575","lineId":"上海地铁7号线","lat":31.1897437,"lon":121.53574792,"area_km2":2.4042,"D":0.2771,"C":0.5619,"T":0.1367,"U1":0.2497,"U2":0.0236,"couplingDegree":0.2771,"level":"中度失调","road_density":23.9416,"walk_accessibility":0.482,"metro_line_density":2.5412,"station_count":3,"line_count":2,"population_density":5915.4382,"poi_density":0.4159,"poi_diversity":0.0,"gdp_density":29340.5236,"P":5915.4382,"I":0.4159,"G":29340.5236},{"stationName":"上海杨高南路(地铁站)","station_id":"上海杨高南路(地铁站)_31.18972_121.52020","lineId":"上海地铁7号线","lat":31.18972497,"lon":121.52019868,"area_km2":1.8952,"D":0.2099,"C":0.4403,"T":0.1001,"U1":0.19,"U2":0.0102,"couplingDegree":0.2099,"level":"中度失调","road_density":22.3395,"walk_accessibility":0.38,"metro_line_density":2.7912,"station_count":2,"line_count":2,"population_density":7596.5159,"poi_density":0.0,"poi_diversity":0.0,"gdp_density":0.0,"P":7596.5159,"I":0.0,"G":0.0},{"stationName":"上海云台路(地铁站)","station_id":"上海云台路(地铁站)_31.18426_121.49601","lineId":"上海地铁7号线","lat":31.18425516,"lon":121.49601432,"area_km2":2.4971,"D":0.4482,"C":0.8106,"T":0.2478,"U1":0.3929,"U2":0.1027,"couplingDegree":0.4482,"level":"勉强协调","road_density":21.1259,"walk_accessibility":0.5007,"metro_line_density":6.0357,"station_count":4,"line_count":3,"population_density":16867.564,"poi_density":0.8009,"poi_diversity":0.6931,"gdp_density":0.0,"P":16867.564,"I":0.8009,"G":0.0},{"stationName":"上海耀华路(地铁站)","station_id":"上海耀华路(地铁站)_31.18054_121.49016","lineId":"上海地铁7号线","lat":31.18053985,"lon":121.49015965,"area_km2":2.3653,"D":0.3966,"C":0.5072,"T":0.3101,"U1":0.5774,"U2":0.0429,"couplingDegree":0.3966,"level":"中度失调","road_density":20.1862,"walk_accessibility":0.4742,"metro_line_density":7.1442,"station_count":6,"line_count":4,"population_density":14607.7923,"poi_density":0.4228,"poi_diversity":0.0,"gdp_density":50518.0514,"P":14607.7923,"I":0.4228,"G":50518.0514},{"stationName":"上海长清路(地铁站)","station_id":"上海长清路(地铁站)_31.17642_121.48245","lineId":"上海地铁13号线 / 上海地铁7号线","lat":31.176417263333335,"lon":121.48244611333332,"area_km2":2.0638,"D":0.4062,"C":0.5598,"T":0.2947,"U1":0.5389,"U2":0.0505,"couplingDegree":0.4062,"level":"勉强协调","road_density":25.844,"walk_accessibility":0.4138,"metro_line_density":6.7768,"station_count":5,"line_count":4,"population_density":18314.3166,"poi_density":0.4845,"poi_diversity":0.0,"gdp_density":55855.8311,"P":18314.3166,"I":0.4845,"G":55855.8311},{"stationName":"上海后滩(地铁站)","station_id":"上海后滩(地铁站)_31.17376_121.46987","lineId":"上海地铁19号线 / 上海地铁7号线","lat":31.17376228,"lon":121.46987039000001,"area_km2":2.041,"D":0.3577,"C":0.7258,"T":0.1763,"U1":0.2975,"U2":0.055,"couplingDegree":0.3577,"level":"中度失调","road_density":27.0465,"walk_accessibility":0.4092,"metro_line_density":3.7482,"station_count":2,"line_count":3,"population_density":21442.5949,"poi_density":0.49,"poi_diversity":0.0,"gdp_density":56480.1007,"P":21442.5949,"I":0.49,"G":56480.1007},{"stationName":"上海龙华中路(地铁站)","station_id":"上海龙华中路(地铁站)_31.18630_121.45249","lineId":"上海地铁7号线","lat":31.18630232,"lon":121.45249428,"area_km2":2.111,"D":0.4794,"C":0.9941,"T":0.2312,"U1":0.2562,"U2":0.2061,"couplingDegree":0.4794,"level":"勉强协调","road_density":26.9708,"walk_accessibility":0.4232,"metro_line_density":3.2408,"station_count":3,"line_count":2,"population_density":31474.6478,"poi_density":1.8949,"poi_diversity":1.3863,"gdp_density":0.0,"P":31474.6478,"I":1.8949,"G":0.0},{"stationName":"上海肇嘉浜路(地铁站)","station_id":"上海肇嘉浜路(地铁站)_31.20084_121.44576","lineId":"上海地铁7号线 / 上海地铁9号线","lat":31.200835186666666,"lon":121.44575531666668,"area_km2":2.6178,"D":0.6741,"C":0.9545,"T":0.4761,"U1":0.6181,"U2":0.3341,"couplingDegree":0.6741,"level":"良好协调","road_density":19.953,"walk_accessibility":0.5249,"metro_line_density":6.3588,"station_count":5,"line_count":5,"population_density":44351.7576,"poi_density":6.1121,"poi_diversity":1.9486,"gdp_density":0.0,"P":44351.7576,"I":6.1121,"G":0.0},{"stationName":"上海昌平路(地铁站)","station_id":"上海昌平路(地铁站)_31.23562_121.43801","lineId":"上海地铁7号线","lat":31.23561909,"lon":121.43800961,"area_km2":3.0264,"D":0.6923,"C":0.9772,"T":0.4905,"U1":0.3863,"U2":0.5948,"couplingDegree":0.6923,"level":"良好协调","road_density":20.0002,"walk_accessibility":0.6068,"metro_line_density":2.8372,"station_count":4,"line_count":3,"population_density":19532.0571,"poi_density":6.2781,"poi_diversity":2.2327,"gdp_density":748642.6141,"P":19532.0571,"I":6.2781,"G":748642.6141},{"stationName":"上海长寿路(地铁站)","station_id":"上海长寿路(地铁站)_31.24209_121.43363","lineId":"上海地铁13号线 / 上海地铁7号线","lat":31.242089399999998,"lon":121.43362850999999,"area_km2":3.1141,"D":0.7214,"C":0.9997,"T":0.5206,"U1":0.5322,"U2":0.5089,"couplingDegree":0.7214,"level":"良好协调","road_density":22.1261,"walk_accessibility":0.6244,"metro_line_density":3.3369,"station_count":5,"line_count":4,"population_density":20972.9787,"poi_density":2.569,"poi_diversity":1.9062,"gdp_density":727572.0307,"P":20972.9787,"I":2.569,"G":727572.0307},{"stationName":"上海岚皋路(地铁站)","station_id":"上海岚皋路(地铁站)_31.25803_121.41730","lineId":"上海地铁7号线","lat":31.2580297,"lon":121.41729656,"area_km2":2.2768,"D":0.2958,"C":0.7457,"T":0.1173,"U1":0.1955,"U2":0.0392,"couplingDegree":0.2958,"level":"中度失调","road_density":22.7327,"walk_accessibility":0.4565,"metro_line_density":2.3725,"station_count":2,"line_count":2,"population_density":13092.3398,"poi_density":0.0,"poi_diversity":0.0,"gdp_density":61208.709,"P":13092.3398,"I":0.0,"G":61208.709},{"stationName":"上海新村路(地铁站)","station_id":"上海新村路(地铁站)_31.26608_121.41857","lineId":"上海地铁20号线 / 上海地铁7号线","lat":31.266079615000002,"lon":121.4185655425,"area_km2":2.2304,"D":0.3193,"C":0.7102,"T":0.1435,"U1":0.2445,"U2":0.0425,"couplingDegree":0.3193,"level":"中度失调","road_density":20.9538,"walk_accessibility":0.4472,"metro_line_density":4.1516,"station_count":3,"line_count":2,"population_density":31563.5755,"poi_density":0.0,"poi_diversity":0.0,"gdp_density":0.0,"P":31563.5755,"I":0.0,"G":0.0},{"stationName":"上海大华三路(地铁站)","station_id":"上海大华三路(地铁站)_31.27587_121.41831","lineId":"上海地铁7号线","lat":31.275872955,"lon":121.41830529500001,"area_km2":2.2901,"D":0.4216,"C":0.9599,"T":0.1852,"U1":0.2371,"U2":0.1333,"couplingDegree":0.4216,"level":"勉强协调","road_density":19.5591,"walk_accessibility":0.4592,"metro_line_density":2.9491,"station_count":3,"line_count":2,"population_density":23071.3716,"poi_density":1.31,"poi_diversity":0.6365,"gdp_density":60746.2424,"P":23071.3716,"I":1.31,"G":60746.2424},{"stationName":"上海行知路(地铁站)","station_id":"上海行知路(地铁站)_31.28632_121.41712","lineId":"上海地铁7号线","lat":31.28631582,"lon":121.41712329,"area_km2":2.7478,"D":0.3562,"C":0.9648,"T":0.1315,"U1":0.1661,"U2":0.0969,"couplingDegree":0.3562,"level":"中度失调","road_density":24.4951,"walk_accessibility":0.5509,"metro_line_density":2.0149,"station_count":3,"line_count":1,"population_density":14026.3494,"poi_density":1.0918,"poi_diversity":0.6365,"gdp_density":0.0,"P":14026.3494,"I":1.0918,"G":0.0},{"stationName":"上海大场镇(地铁站)","station_id":"上海大场镇(地铁站)_31.29507_121.41150","lineId":"上海地铁7号线","lat":31.29507086,"lon":121.41150494,"area_km2":1.9064,"D":0.3448,"C":0.969,"T":0.1227,"U1":0.153,"U2":0.0924,"couplingDegree":0.3448,"level":"中度失调","road_density":23.2473,"walk_accessibility":0.3822,"metro_line_density":2.958,"station_count":3,"line_count":1,"population_density":13983.9725,"poi_density":0.0,"poi_diversity":0.0,"gdp_density":209026.2674,"P":13983.9725,"I":0.0,"G":209026.2674},{"stationName":"上海场中路(地铁站)","station_id":"上海场中路(地铁站)_31.30549_121.40880","lineId":"上海地铁7号线","lat":31.30548945,"lon":121.4088032,"area_km2":1.5628,"D":0.1691,"C":0.5678,"T":0.0504,"U1":0.0918,"U2":0.0089,"couplingDegree":0.1691,"level":"极度失调","road_density":19.7351,"walk_accessibility":0.3133,"metro_line_density":3.5821,"station_count":2,"line_count":1,"population_density":6615.705,"poi_density":0.0,"poi_diversity":0.0,"gdp_density":0.0,"P":6615.705,"I":0.0,"G":0.0},{"stationName":"上海上大路(地铁站)","station_id":"上海上大路(地铁站)_31.31677_121.40403","lineId":"上海地铁7号线","lat":31.31676912,"lon":121.40402802,"area_km2":1.0955,"D":0.1574,"C":0.5449,"T":0.0455,"U1":0.0836,"U2":0.0073,"couplingDegree":0.1574,"level":"极度失调","road_density":17.5321,"walk_accessibility":0.2196,"metro_line_density":5.0116,"station_count":2,"line_count":1,"population_density":5457.7425,"poi_density":0.0,"poi_diversity":0.0,"gdp_density":0.0,"P":5457.7425,"I":0.0,"G":0.0},{"stationName":"上海南陈路(地铁站)","station_id":"上海南陈路(地铁站)_31.32354_121.39376","lineId":"上海地铁7号线","lat":31.32353684,"lon":121.39376006,"area_km2":2.2493,"D":0.2328,"C":0.641,"T":0.0846,"U1":0.1495,"U2":0.0197,"couplingDegree":0.2328,"level":"中度失调","road_density":20.7983,"walk_accessibility":0.451,"metro_line_density":2.427,"station_count":3,"line_count":1,"population_density":5074.1336,"poi_density":0.4446,"poi_diversity":0.0,"gdp_density":20270.7481,"P":5074.1336,"I":0.4446,"G":20270.7481},{"stationName":"上海上海大学(地铁站)","station_id":"上海上海大学(地铁站)_31.32239_121.38423","lineId":"上海地铁7号线","lat":31.32238707,"lon":121.38422864,"area_km2":2.6458,"D":0.3679,"C":0.9799,"T":0.1381,"U1":0.1105,"U2":0.1657,"couplingDegree":0.3679,"level":"中度失调","road_density":21.804,"walk_accessibility":0.5305,"metro_line_density":2.5061,"station_count":2,"line_count":1,"population_density":5523.5079,"poi_density":1.8898,"poi_diversity":1.3322,"gdp_density":0.0,"P":5523.5079,"I":1.8898,"G":0.0},{"stationName":"上海祁华路(地铁站)","station_id":"上海祁华路(地铁站)_31.32420_121.36889","lineId":"上海地铁7号线","lat":31.32420121,"lon":121.36888862,"area_km2":1.3678,"D":0.1301,"C":0.8331,"T":0.0203,"U1":0.0316,"U2":0.0091,"couplingDegree":0.1301,"level":"极度失调","road_density":16.6482,"walk_accessibility":0.2742,"metro_line_density":3.4999,"station_count":1,"line_count":1,"population_density":6750.0731,"poi_density":0.0,"poi_diversity":0.0,"gdp_density":0.0,"P":6750.0731,"I":0.0,"G":0.0},{"stationName":"上海顾村公园(地铁站)","station_id":"上海顾村公园(地铁站)_31.34640_121.36837","lineId":"上海地铁7号线","lat":31.34639976,"lon":121.36836777,"area_km2":1.9249,"D":0.3169,"C":0.755,"T":0.133,"U1":0.0458,"U2":0.2202,"couplingDegree":0.3169,"level":"中度失调","road_density":19.3946,"walk_accessibility":0.3859,"metro_line_density":2.9131,"station_count":1,"line_count":1,"population_density":2234.8837,"poi_density":7.273,"poi_diversity":1.2326,"gdp_density":0.0,"P":2234.8837,"I":7.273,"G":0.0},{"stationName":"上海刘行(地铁站)","station_id":"上海刘行(地铁站)_31.35940_121.35775","lineId":"上海地铁7号线","lat":31.35940234,"lon":121.35775099,"area_km2":1.7835,"D":0.1796,"C":0.6372,"T":0.0506,"U1":0.0897,"U2":0.0116,"couplingDegree":0.1796,"level":"极度失调","road_density":18.1877,"walk_accessibility":0.3576,"metro_line_density":3.2385,"station_count":2,"line_count":1,"population_density":4005.0976,"poi_density":0.0,"poi_diversity":0.0,"gdp_density":17673.3411,"P":4005.0976,"I":0.0,"G":17673.3411},{"stationName":"上海潘广路(地铁站)","station_id":"上海潘广路(地铁站)_31.36601_121.35123","lineId":"上海地铁7号线","lat":31.36600519,"lon":121.35123053,"area_km2":1.5898,"D":0.1274,"C":0.3158,"T":0.0514,"U1":0.1001,"U2":0.0026,"couplingDegree":0.1274,"level":"极度失调","road_density":24.3117,"walk_accessibility":0.3188,"metro_line_density":2.2318,"station_count":2,"line_count":1,"population_density":1953.0348,"poi_density":0.0,"poi_diversity":0.0,"gdp_density":0.0,"P":1953.0348,"I":0.0,"G":0.0},{"stationName":"上海罗南新村(地铁站)","station_id":"上海罗南新村(地铁站)_31.39065_121.35285","lineId":"上海地铁7号线","lat":31.39064592,"lon":121.35285116,"area_km2":1.6836,"D":0.1316,"C":0.6326,"T":0.0274,"U1":0.0486,"U2":0.0062,"couplingDegree":0.1316,"level":"极度失调","road_density":21.442,"walk_accessibility":0.3375,"metro_line_density":3.1222,"station_count":1,"line_count":1,"population_density":4584.33,"poi_density":0.0,"poi_diversity":0.0,"gdp_density":0.0,"P":4584.33,"I":0.0,"G":0.0},{"stationName":"上海美兰湖(地铁站)","station_id":"上海美兰湖(地铁站)_31.40371_121.34529","lineId":"上海地铁7号线","lat":31.40371282,"lon":121.34528727,"area_km2":2.0314,"D":0.2418,"C":0.94,"T":0.0622,"U1":0.041,"U2":0.0834,"couplingDegree":0.2418,"level":"中度失调","road_density":19.0009,"walk_accessibility":0.4073,"metro_line_density":1.4482,"station_count":1,"line_count":1,"population_density":793.5264,"poi_density":0.9845,"poi_diversity":0.6931,"gdp_density":0.0,"P":793.5264,"I":0.9845,"G":0.0},{"stationName":"上海沈杜公路(地铁站)","station_id":"上海沈杜公路(地铁站)_31.06329_121.50803","lineId":"上海上海轨道交通浦江线(汇臻路--沈杜公路) / 上海上海轨道交通浦江线(沈杜公路--汇臻路) / 上海地铁8号线","lat":31.06329439,"lon":121.50802977666667,"area_km2":1.9034,"D":0.1806,"C":0.2868,"T":0.1138,"U1":0.2227,"U2":0.0048,"couplingDegree":0.1806,"level":"极度失调","road_density":19.7658,"walk_accessibility":0.3816,"metro_line_density":2.6618,"station_count":1,"line_count":3,"population_density":3550.9526,"poi_density":0.0,"poi_diversity":0.0,"gdp_density":0.0,"P":3550.9526,"I":0.0,"G":0.0},{"stationName":"上海联航路(地铁站)","station_id":"上海联航路(地铁站)_31.07570_121.50621","lineId":"上海地铁8号线","lat":31.07569844,"lon":121.50621353,"area_km2":2.453,"D":0.313,"C":0.997,"T":0.0983,"U1":0.1058,"U2":0.0907,"couplingDegree":0.313,"level":"中度失调","road_density":21.4697,"walk_accessibility":0.4918,"metro_line_density":2.3021,"station_count":2,"line_count":1,"population_density":7823.8691,"poi_density":0.8153,"poi_diversity":0.6931,"gdp_density":0.0,"P":7823.8691,"I":0.8153,"G":0.0},{"stationName":"上海江月路(地铁站)","station_id":"上海江月路(地铁站)_31.08637_121.50422","lineId":"上海地铁8号线","lat":31.08637366,"lon":121.50421528000001,"area_km2":2.3797,"D":0.3044,"C":0.9935,"T":0.0932,"U1":0.1039,"U2":0.0826,"couplingDegree":0.3044,"level":"中度失调","road_density":21.0974,"walk_accessibility":0.4771,"metro_line_density":2.3611,"station_count":2,"line_count":1,"population_density":1550.1789,"poi_density":0.8404,"poi_diversity":0.6931,"gdp_density":0.0,"P":1550.1789,"I":0.8404,"G":0.0},{"stationName":"上海浦江镇(地铁站)","station_id":"上海浦江镇(地铁站)_31.09870_121.50187","lineId":"上海地铁8号线","lat":31.09869707,"lon":121.50187481,"area_km2":2.1311,"D":0.1748,"C":0.9225,"T":0.0331,"U1":0.0459,"U2":0.0203,"couplingDegree":0.1748,"level":"极度失调","road_density":19.7048,"walk_accessibility":0.4273,"metro_line_density":1.8296,"station_count":1,"line_count":1,"population_density":8405.711,"poi_density":0.0,"poi_diversity":0.0,"gdp_density":25651.1911,"P":8405.711,"I":0.0,"G":25651.1911},{"stationName":"上海芦恒路(地铁站)","station_id":"上海芦恒路(地铁站)_31.12113_121.49380","lineId":"上海地铁8号线","lat":31.12112846,"lon":121.49379766,"area_km2":1.9116,"D":0.1511,"C":0.6879,"T":0.0332,"U1":0.0573,"U2":0.0091,"couplingDegree":0.1511,"level":"极度失调","road_density":23.9106,"walk_accessibility":0.3833,"metro_line_density":2.6441,"station_count":1,"line_count":1,"population_density":1768.7061,"poi_density":0.0,"poi_diversity":0.0,"gdp_density":19095.8533,"P":1768.7061,"I":0.0,"G":19095.8533},{"stationName":"上海凌兆新村(地铁站)","station_id":"上海凌兆新村(地铁站)_31.14296_121.48393","lineId":"上海地铁19号线 / 上海地铁8号线","lat":31.142961285,"lon":121.48392774,"area_km2":2.1316,"D":0.3257,"C":0.6227,"T":0.1703,"U1":0.3036,"U2":0.0371,"couplingDegree":0.3257,"level":"中度失调","road_density":27.1382,"walk_accessibility":0.4274,"metro_line_density":4.9542,"station_count":2,"line_count":3,"population_density":27535.7772,"poi_density":0.0,"poi_diversity":0.0,"gdp_density":0.0,"P":27535.7772,"I":0.0,"G":0.0},{"stationName":"上海杨思(地铁站)","station_id":"上海杨思(地铁站)_31.16309_121.48899","lineId":"上海地铁8号线","lat":31.16308806,"lon":121.48899317,"area_km2":1.5984,"D":0.3661,"C":0.975,"T":0.1375,"U1":0.168,"U2":0.1069,"couplingDegree":0.3661,"level":"中度失调","road_density":15.7331,"walk_accessibility":0.3205,"metro_line_density":3.1212,"station_count":2,"line_count":2,"population_density":13976.9823,"poi_density":1.8769,"poi_diversity":0.6365,"gdp_density":0.0,"P":13976.9823,"I":1.8769,"G":0.0},{"stationName":"上海成山路(地铁站)","station_id":"上海成山路(地铁站)_31.17302_121.49230","lineId":"上海地铁13号线 / 上海地铁8号线","lat":31.173015470000003,"lon":121.492296005,"area_km2":1.7549,"D":0.3673,"C":0.6494,"T":0.2078,"U1":0.3658,"U2":0.0498,"couplingDegree":0.3673,"level":"中度失调","road_density":16.9118,"walk_accessibility":0.3518,"metro_line_density":5.016,"station_count":4,"line_count":3,"population_density":8337.4235,"poi_density":1.1397,"poi_diversity":0.0,"gdp_density":68091.5228,"P":8337.4235,"I":1.1397,"G":68091.5228},{"stationName":"上海中华艺术宫(地铁站)","station_id":"上海中华艺术宫(地铁站)_31.18726_121.48918","lineId":"上海地铁8号线","lat":31.1872639,"lon":121.48917574,"area_km2":2.3299,"D":0.4919,"C":0.802,"T":0.3017,"U1":0.4819,"U2":0.1215,"couplingDegree":0.4919,"level":"勉强协调","road_density":22.2419,"walk_accessibility":0.4671,"metro_line_density":5.9999,"station_count":4,"line_count":4,"population_density":14155.5514,"poi_density":0.8584,"poi_diversity":0.6931,"gdp_density":61571.7772,"P":14155.5514,"I":0.8584,"G":61571.7772},{"stationName":"上海陆家浜路(地铁站)","station_id":"上海陆家浜路(地铁站)_31.21378_121.48164","lineId":"上海地铁8号线","lat":31.213775425,"lon":121.48163531,"area_km2":3.6408,"D":0.6594,"C":0.9326,"T":0.4663,"U1":0.6345,"U2":0.298,"couplingDegree":0.6594,"level":"良好协调","road_density":23.2047,"walk_accessibility":0.73,"metro_line_density":4.0091,"station_count":5,"line_count":5,"population_density":41330.8259,"poi_density":1.648,"poi_diversity":1.2425,"gdp_density":273580.6845,"P":41330.8259,"I":1.648,"G":273580.6845},{"stationName":"上海老西门(地铁站)","station_id":"上海老西门(地铁站)_31.22087_121.47890","lineId":"上海地铁10号线 / 上海地铁8号线","lat":31.220867165,"lon":121.47890408,"area_km2":3.7962,"D":0.8007,"C":0.9668,"T":0.6631,"U1":0.8325,"U2":0.4937,"couplingDegree":0.8007,"level":"优质协调","road_density":25.9341,"walk_accessibility":0.7611,"metro_line_density":4.7906,"station_count":7,"line_count":6,"population_density":28117.7707,"poi_density":9.7467,"poi_diversity":2.3719,"gdp_density":262386.1642,"P":28117.7707,"I":9.7467,"G":262386.1642},{"stationName":"上海大世界(地铁站)","station_id":"上海大世界(地铁站)_31.22911_121.47523","lineId":"上海地铁14号线 / 上海地铁8号线","lat":31.229105465,"lon":121.4752349,"area_km2":4.0319,"D":0.8238,"C":0.9979,"T":0.68,"U1":0.7242,"U2":0.6358,"couplingDegree":0.8238,"level":"优质协调","road_density":33.8766,"walk_accessibility":0.8084,"metro_line_density":5.4774,"station_count":6,"line_count":5,"population_density":40038.7793,"poi_density":17.3614,"poi_diversity":2.6482,"gdp_density":264352.0757,"P":40038.7793,"I":17.3614,"G":264352.0757},{"stationName":"上海曲阜路(地铁站)","station_id":"上海曲阜路(地铁站)_31.24424_121.46701","lineId":"上海地铁8号线","lat":31.24423809,"lon":121.46701185,"area_km2":3.5113,"D":0.7414,"C":0.8984,"T":0.6119,"U1":0.8805,"U2":0.3432,"couplingDegree":0.7414,"level":"良好协调","road_density":28.5897,"walk_accessibility":0.704,"metro_line_density":3.9146,"station_count":8,"line_count":6,"population_density":35539.2954,"poi_density":6.2654,"poi_diversity":2.1375,"gdp_density":0.0,"P":35539.2954,"I":6.2654,"G":0.0},{"stationName":"上海中兴路(地铁站)","station_id":"上海中兴路(地铁站)_31.25515_121.46449","lineId":"上海地铁8号线","lat":31.25514782,"lon":121.46448545,"area_km2":2.6416,"D":0.5094,"C":0.8677,"T":0.299,"U1":0.4476,"U2":0.1504,"couplingDegree":0.5094,"level":"勉强协调","road_density":24.6901,"walk_accessibility":0.5296,"metro_line_density":4.4617,"station_count":5,"line_count":3,"population_density":63185.8719,"poi_density":0.3786,"poi_diversity":0.0,"gdp_density":171892.8581,"P":63185.8719,"I":0.3786,"G":171892.8581},{"stationName":"上海西藏北路(地铁站)","station_id":"上海西藏北路(地铁站)_31.26537_121.46428","lineId":"上海地铁8号线","lat":31.26536738,"lon":121.46427653,"area_km2":2.7645,"D":0.4077,"C":0.7242,"T":0.2295,"U1":0.3878,"U2":0.0712,"couplingDegree":0.4077,"level":"勉强协调","road_density":23.0797,"walk_accessibility":0.5543,"metro_line_density":2.0127,"station_count":4,"line_count":3,"population_density":49484.6753,"poi_density":0.3617,"poi_diversity":0.0,"gdp_density":0.0,"P":49484.6753,"I":0.3617,"G":0.0},{"stationName":"上海曲阳路(地铁站)","station_id":"上海曲阳路(地铁站)_31.27850_121.48667","lineId":"上海地铁8号线","lat":31.27849665,"lon":121.48667163,"area_km2":3.2734,"D":0.5876,"C":0.9768,"T":0.3535,"U1":0.4293,"U2":0.2777,"couplingDegree":0.5876,"level":"勉强协调","road_density":32.62,"walk_accessibility":0.6563,"metro_line_density":3.8666,"station_count":4,"line_count":3,"population_density":35283.8922,"poi_density":2.1385,"poi_diversity":1.7479,"gdp_density":76681.6265,"P":35283.8922,"I":2.1385,"G":76681.6265},{"stationName":"上海四平路(地铁站)","station_id":"上海四平路(地铁站)_31.27688_121.49706","lineId":"上海地铁8号线","lat":31.27688415,"lon":121.49705802,"area_km2":3.3571,"D":0.5849,"C":0.9949,"T":0.3438,"U1":0.3784,"U2":0.3093,"couplingDegree":0.5849,"level":"勉强协调","road_density":29.1243,"walk_accessibility":0.6731,"metro_line_density":3.319,"station_count":5,"line_count":2,"population_density":44902.7037,"poi_density":2.0851,"poi_diversity":1.9459,"gdp_density":74770.0226,"P":44902.7037,"I":2.0851,"G":74770.0226},{"stationName":"上海鞍山新村(地铁站)","station_id":"上海鞍山新村(地铁站)_31.27527_121.50528","lineId":"上海地铁8号线","lat":31.27527032,"lon":121.50528451,"area_km2":2.8775,"D":0.5425,"C":0.9545,"T":0.3084,"U1":0.4004,"U2":0.2164,"couplingDegree":0.5425,"level":"勉强协调","road_density":24.9554,"walk_accessibility":0.5769,"metro_line_density":3.5302,"station_count":4,"line_count":3,"population_density":19257.7917,"poi_density":1.3901,"poi_diversity":1.3863,"gdp_density":94218.7851,"P":19257.7917,"I":1.3901,"G":94218.7851},{"stationName":"上海江浦路(地铁站)","station_id":"上海江浦路(地铁站)_31.27640_121.51429","lineId":"上海地铁18号线 / 上海地铁8号线","lat":31.276395450000003,"lon":121.51428757,"area_km2":2.5623,"D":0.3891,"C":0.8704,"T":0.1739,"U1":0.2596,"U2":0.0883,"couplingDegree":0.3891,"level":"中度失调","road_density":24.1941,"walk_accessibility":0.5137,"metro_line_density":4.3641,"station_count":3,"line_count":2,"population_density":34233.4759,"poi_density":0.3903,"poi_diversity":0.0,"gdp_density":105810.9297,"P":34233.4759,"I":0.3903,"G":105810.9297},{"stationName":"上海黄兴路(地铁站)","station_id":"上海黄兴路(地铁站)_31.28089_121.52406","lineId":"上海地铁8号线","lat":31.280893405,"lon":121.52406494,"area_km2":2.3872,"D":0.3244,"C":0.7215,"T":0.1459,"U1":0.2469,"U2":0.0449,"couplingDegree":0.3244,"level":"中度失调","road_density":22.7077,"walk_accessibility":0.4786,"metro_line_density":2.7884,"station_count":3,"line_count":2,"population_density":33342.1642,"poi_density":0.0,"poi_diversity":0.0,"gdp_density":0.0,"P":33342.1642,"I":0.0,"G":0.0},{"stationName":"上海延吉中路(地铁站)","station_id":"上海延吉中路(地铁站)_31.29064_121.53062","lineId":"上海地铁8号线","lat":31.29063633,"lon":121.5306242,"area_km2":2.309,"D":0.3251,"C":0.9545,"T":0.1107,"U1":0.1437,"U2":0.0777,"couplingDegree":0.3251,"level":"中度失调","road_density":18.4816,"walk_accessibility":0.4629,"metro_line_density":2.3789,"station_count":3,"line_count":1,"population_density":28962.7441,"poi_density":0.0,"poi_diversity":0.0,"gdp_density":110117.3276,"P":28962.7441,"I":0.0,"G":110117.3276},{"stationName":"上海黄兴公园(地铁站)","station_id":"上海黄兴公园(地铁站)_31.29748_121.52906","lineId":"上海地铁8号线","lat":31.297475249999998,"lon":121.52906191,"area_km2":2.0047,"D":0.2728,"C":0.8068,"T":0.0922,"U1":0.1467,"U2":0.0377,"couplingDegree":0.2728,"level":"中度失调","road_density":20.6544,"walk_accessibility":0.4019,"metro_line_density":2.8202,"station_count":3,"line_count":1,"population_density":28039.8371,"poi_density":0.0,"poi_diversity":0.0,"gdp_density":0.0,"P":28039.8371,"I":0.0,"G":0.0},{"stationName":"上海翔殷路(地铁站)","station_id":"上海翔殷路(地铁站)_31.30708_121.52765","lineId":"上海地铁8号线","lat":31.30708029,"lon":121.52764644,"area_km2":2.2193,"D":0.4505,"C":0.9839,"T":0.2062,"U1":0.243,"U2":0.1694,"couplingDegree":0.4505,"level":"勉强协调","road_density":21.9071,"walk_accessibility":0.445,"metro_line_density":3.0631,"station_count":3,"line_count":2,"population_density":30976.3269,"poi_density":1.8023,"poi_diversity":1.0397,"gdp_density":0.0,"P":30976.3269,"I":1.8023,"G":0.0},{"stationName":"上海嫩江路(地铁站)","station_id":"上海嫩江路(地铁站)_31.31682_121.52763","lineId":"上海地铁20号线 / 上海地铁8号线","lat":31.316820865,"lon":121.52763156500001,"area_km2":2.7628,"D":0.5616,"C":0.9864,"T":0.3197,"U1":0.2671,"U2":0.3723,"couplingDegree":0.5616,"level":"勉强协调","road_density":26.6957,"walk_accessibility":0.5539,"metro_line_density":3.6514,"station_count":3,"line_count":2,"population_density":12822.3476,"poi_density":6.877,"poi_diversity":2.6526,"gdp_density":0.0,"P":12822.3476,"I":6.877,"G":0.0},{"stationName":"上海市光路(地铁站)","station_id":"上海市光路(地铁站)_31.32480_121.52760","lineId":"上海地铁8号线","lat":31.32479686,"lon":121.52760498,"area_km2":3.0928,"D":0.5561,"C":0.958,"T":0.3227,"U1":0.2302,"U2":0.4153,"couplingDegree":0.5561,"level":"勉强协调","road_density":31.6403,"walk_accessibility":0.6201,"metro_line_density":1.5745,"station_count":2,"line_count":2,"population_density":22653.1145,"poi_density":10.0234,"poi_diversity":2.5474,"gdp_density":0.0,"P":22653.1145,"I":10.0234,"G":0.0},{"stationName":"上海上海松江站(地铁站)","station_id":"上海上海松江站(地铁站)_30.98697_121.22647","lineId":"上海地铁9号线","lat":30.98696657,"lon":121.22647377,"area_km2":1.2,"D":0.1301,"C":0.787,"T":0.0215,"U1":0.0348,"U2":0.0082,"couplingDegree":0.1301,"level":"极度失调","road_density":20.3385,"walk_accessibility":0.2406,"metro_line_density":2.2699,"station_count":1,"line_count":1,"population_density":6125.6275,"poi_density":0.0,"poi_diversity":0.0,"gdp_density":0.0,"P":6125.6275,"I":0.0,"G":0.0},{"stationName":"上海醉白池(地铁站)","station_id":"上海醉白池(地铁站)_31.00326_121.22495","lineId":"上海地铁9号线","lat":31.00326411,"lon":121.22494796,"area_km2":1.4468,"D":0.0,"C":0.0,"T":0.011,"U1":0.0221,"U2":0.0,"couplingDegree":0.0,"level":"极度失调","road_density":14.2777,"walk_accessibility":0.2901,"metro_line_density":2.3933,"station_count":1,"line_count":1,"population_density":0.0,"poi_density":0.0,"poi_diversity":0.0,"gdp_density":0.0,"P":0.0,"I":0.0,"G":0.0},{"stationName":"上海松江体育中心(地铁站)","station_id":"上海松江体育中心(地铁站)_31.01814_121.22613","lineId":"上海地铁9号线","lat":31.01813752,"lon":121.22613289,"area_km2":1.6322,"D":0.175,"C":0.9524,"T":0.0322,"U1":0.042,"U2":0.0224,"couplingDegree":0.175,"level":"极度失调","road_density":20.4853,"walk_accessibility":0.3272,"metro_line_density":2.2791,"station_count":1,"line_count":1,"population_density":16618.8043,"poi_density":0.0,"poi_diversity":0.0,"gdp_density":0.0,"P":16618.8043,"I":0.0,"G":0.0},{"stationName":"上海松江新城(地铁站)","station_id":"上海松江新城(地铁站)_31.03242_121.22632","lineId":"上海地铁9号线","lat":31.032417995,"lon":121.226324765,"area_km2":2.2249,"D":0.1558,"C":0.8163,"T":0.0297,"U1":0.0469,"U2":0.0126,"couplingDegree":0.1558,"level":"极度失调","road_density":18.9058,"walk_accessibility":0.4461,"metro_line_density":2.3077,"station_count":1,"line_count":1,"population_density":5544.9718,"poi_density":0.0,"poi_diversity":0.0,"gdp_density":14466.2774,"P":5544.9718,"I":0.0,"G":14466.2774},{"stationName":"上海松江大学城(地铁站)","station_id":"上海松江大学城(地铁站)_31.05609_121.22816","lineId":"上海地铁9号线","lat":31.0560943,"lon":121.22816102,"area_km2":1.1224,"D":0.1197,"C":0.6693,"T":0.0214,"U1":0.0373,"U2":0.0055,"couplingDegree":0.1197,"level":"极度失调","road_density":18.4722,"walk_accessibility":0.225,"metro_line_density":4.715,"station_count":1,"line_count":1,"population_density":4089.5801,"poi_density":0.0,"poi_diversity":0.0,"gdp_density":0.0,"P":4089.5801,"I":0.0,"G":0.0},{"stationName":"上海洞泾(地铁站)","station_id":"上海洞泾(地铁站)_31.08755_121.22653","lineId":"上海地铁12号线 / 上海地铁9号线","lat":31.087548495,"lon":121.226528635,"area_km2":1.3544,"D":0.2047,"C":0.5614,"T":0.0746,"U1":0.1364,"U2":0.0129,"couplingDegree":0.2047,"level":"中度失调","road_density":17.9555,"walk_accessibility":0.2715,"metro_line_density":6.9769,"station_count":1,"line_count":2,"population_density":9563.2433,"poi_density":0.0,"poi_diversity":0.0,"gdp_density":0.0,"P":9563.2433,"I":0.0,"G":0.0},{"stationName":"上海佘山(地铁站)","station_id":"上海佘山(地铁站)_31.10618_121.22526","lineId":"上海地铁9号线","lat":31.10617731,"lon":121.22526439,"area_km2":1.0185,"D":0.0,"C":0.0,"T":0.0137,"U1":0.0274,"U2":0.0,"couplingDegree":0.0,"level":"极度失调","road_density":17.73,"walk_accessibility":0.2042,"metro_line_density":3.0154,"station_count":1,"line_count":1,"population_density":0.0,"poi_density":0.0,"poi_diversity":0.0,"gdp_density":0.0,"P":0.0,"I":0.0,"G":0.0},{"stationName":"上海泗泾(地铁站)","station_id":"上海泗泾(地铁站)_31.12035_121.25583","lineId":"上海地铁9号线","lat":31.12034919,"lon":121.25582661,"area_km2":1.2809,"D":0.1382,"C":0.9408,"T":0.0203,"U1":0.0272,"U2":0.0134,"couplingDegree":0.1382,"level":"极度失调","road_density":14.6097,"walk_accessibility":0.2568,"metro_line_density":4.2346,"station_count":1,"line_count":1,"population_density":5749.6899,"poi_density":0.0,"poi_diversity":0.0,"gdp_density":16171.7348,"P":5749.6899,"I":0.0,"G":16171.7348},{"stationName":"上海九亭(地铁站)","station_id":"上海九亭(地铁站)_31.13924_121.31491","lineId":"上海地铁9号线","lat":31.13924213,"lon":121.31490693,"area_km2":2.3095,"D":0.1799,"C":0.7738,"T":0.0418,"U1":0.0683,"U2":0.0153,"couplingDegree":0.1799,"level":"极度失调","road_density":25.8945,"walk_accessibility":0.463,"metro_line_density":2.441,"station_count":1,"line_count":1,"population_density":7265.3461,"poi_density":0.433,"poi_diversity":0.0,"gdp_density":0.0,"P":7265.3461,"I":0.433,"G":0.0},